WmoStationNumber,StationNameEnglish,StationNameThai,Province,Latitude,Longitude,RelativeHumidity,Date,Time,VaporPressure,WindDirection,Rainfall,DewPoint,StationPressure,Rainfall24Hr,WindSpeed,MeanSeaLevelPressure,AirTemperature,LandVisibility
48300,MAE HONG SON,แม่ฮ่องสอน,แม่ฮ่องสอน,19.29897,97.97578,64,07-11-2019,16:00:00,30.16,000,0.00,24.2,976.04,3.90,0.0,1006.35,31.9,15.00
48302,DOI ANG KANG,ดอยอ่างขาง,เชียงใหม่,19.93139,99.04833,98,07-11-2019,16:00:00,22.34,270,5.50,19.3,844.37,5.50,22.2,1004.90,19.6,7.00
48303,CHIANG RAI,เชียงราย,เชียงราย,19.96139,99.88139,60,07-11-2019,16:00:00,25.42,210,0.30,21.4,962.35,4.10,9.3,1005.28,30.0,10.00
48304,CHAING RAI AGROMET.,เชียงราย สกษ.,เชียงราย,19.87083,99.78278,80,07-11-2019,16:00:00,30.67,000,5.00,24.5,959.17,9.60,0.0,1004.18,28.2,15.00
48307,THUNG CHANG,ทุ่งช้าง,น่าน,19.41194,100.88353,63,07-11-2019,16:00:00,30.08,000,0.00,24.1,969.35,8.80,0.0,1006.19,32.0,12.00
48310,PHAYAO,พะเยา,พะเยา,19.13333,99.90000,55,07-11-2019,16:00:00,26.18,210,0.00,21.8,960.94,0.40,5.6,1005.01,32.0,12.00
48315,THA WANGPHA,ท่าวังผา,น่าน,19.11056,100.80250,71,07-11-2019,16:00:00,32.81,310,0.00,25.6,980.08,0.60,3.7,1006.31,31.5,12.00
48324,THOEN,เถิน,ลำปาง,17.63661,99.24475,53,07-11-2019,16:00:00,26.92,210,0.00,22.3,985.40,0.00,9.3,1006.68,33.1,15.00
48325,MAE SARIANG,แม่สะเรียง,แม่ฮ่องสอน,18.16667,97.93333,71,07-11-2019,16:00:00,28.37,000,0.00,23.2,984.60,5.60,0.0,1008.52,29.0,10.00
48327,CHIANG MAI,เชียงใหม่,เชียงใหม่,18.79000,98.97694,48,07-11-2019,16:00:00,25.63,290,0.00,21.5,971.71,0.30,3.7,1005.28,34.0,10.00
48328,LAMPANG,ลำปาง,ลำปาง,18.28333,99.51667,52,07-11-2019,16:00:00,27.26,000,0.00,22.5,978.81,0.00,0.0,1005.64,33.7,10.00
48329,LAMPHUN,ลำพูน,ลำพูน,18.56722,99.03389,49,07-11-2019,16:00:00,25.90,250,0.00,21.7,972.74,0.80,7.4,1005.40,34.0,12.00
48330,PHRAE,แพร่,แพร่,18.16667,100.16667,49,07-11-2019,16:00:00,27.73,270,0.00,22.8,987.56,0.40,13.0,1005.53,35.2,15.00
48331,NAN,น่าน,น่าน,18.77972,100.77778,52,07-11-2019,16:00:00,28.10,260,0.00,23.0,983.41,0.70,7.4,1005.62,34.4,10.00
48333,NAN AGROMET.,น่าน สกษ.,น่าน,18.86667,100.75000,55,07-11-2019,16:00:00,28.07,000,0.00,23.0,976.53,0.00,0.0,1005.69,33.4,12.00
48334,LAMPANG AGROMET.,ลำปาง สกษ.,ลำปาง,18.31667,99.28333,60,07-11-2019,16:00:00,27.11,000,2.40,22.4,971.07,2.40,0.0,1005.95,31.2,7.00
48350,LOEI AGROMET.,เลย สกษ.,เลย,17.40000,101.73333,48,07-11-2019,16:00:00,30.36,280,0.00,24.3,975.64,0.00,5.6,1004.27,37.0,17.00
48351,UTTARADIT,อุตรดิตถ์,อุตรดิตถ์,17.61667,100.10000,47,07-11-2019,16:00:00,26.19,000,0.00,21.9,999.20,0.00,0.0,1006.31,35.0,10.00
48352,NONG KHAI,หนองคาย,หนองคาย,17.86717,102.73303,52,07-11-2019,16:00:00,30.10,290,0.00,24.2,985.72,1.80,3.7,1005.02,35.5,18.00
48353,LOEI,เลย,เลย,17.45000,101.73333,39,07-11-2019,16:00:00,24.55,280,0.00,20.8,977.39,0.00,11.1,1005.04,37.0,17.00
48354,UDON THANI,อุดรธานี,อุดรธานี,17.38333,102.80000,45,07-11-2019,16:00:00,27.98,300,0.00,22.9,985.91,0.00,9.3,1005.39,37.0,15.00
48355,SAKON NAKHON AGROMET.,สกลนคร สกษ.,สกลนคร,17.12503,104.06100,85,07-11-2019,16:00:00,30.29,180,3.20,24.3,985.54,3.20,3.7,1007.25,27.0,7.00
48356,SAKON NAKHON,สกลนคร,สกลนคร,17.15000,104.13333,78,07-11-2019,16:00:00,31.21,260,1.80,24.8,987.21,4.80,3.7,1006.56,28.9,12.00
48357,NAKHON PHANOM,นครพนม,นครพนม,17.41083,104.78250,80,07-11-2019,16:00:00,33.00,090,2.30,25.7,990.75,2.80,3.7,1007.35,29.5,10.00
48358,NAKHON PHANOM AGROMET.,นครพนม สกษ.,นครพนม,17.44306,104.77361,79,07-11-2019,16:00:00,33.33,120,0.50,25.9,989.53,0.50,3.7,1006.76,29.8,12.00
48360,NONG BUA LAM PHU,หนองบัวลำภู,หนองบัวลำภู,17.23250,102.42944,46,07-11-2019,16:00:00,27.36,170,0.00,22.6,980.06,0.00,9.3,1005.03,36.0,12.00
48372,SUKHOTHAI*,สุโขทัย,สุโขทัย,17.10611,99.80000,53,07-11-2019,16:00:00,28.43,000,0.00,23.2,1001.49,0.00,0.0,1007.15,34.0,10.00
48373,SI SAMRONG AGROMET.,ศรีสำโรง สกษ.,สุโขทัย,17.16136,99.86167,63,07-11-2019,16:00:00,32.30,000,0.00,25.3,1000.71,0.00,0.0,1006.78,33.2,12.00
48374,LOM SAK,หล่มสัก,เพชรบูรณ์,16.77361,101.24944,47,07-11-2019,16:00:00,26.19,000,0.00,21.9,990.87,0.00,0.0,1006.88,35.0,10.00
48375,MAE SOT,แม่สอด,ตาก,16.65917,98.55083,65,07-11-2019,16:00:00,28.04,240,0.00,23.0,986.46,2.50,9.3,1008.56,30.4,10.00
48376,TAK,ตาก,ตาก,16.87833,99.14333,55,07-11-2019,16:00:00,27.13,260,0.00,22.4,993.86,0.00,16.7,1008.00,32.5,8.00
48377,BHUMIBOL DAM,เขื่อนภูมิพล,ตาก,17.24389,99.00250,63,07-11-2019,16:00:00,29.07,260,0.00,23.6,991.15,0.00,9.3,1007.29,31.5,7.00
48378,PHITSANULOK,พิษณุโลก,พิษณุโลก,16.79481,100.27930,51,07-11-2019,16:00:00,28.43,000,0.00,23.2,1001.96,0.00,0.0,1007.06,34.7,10.00
48379,PHETCHABUN,เพชรบูรณ์,เพชรบูรณ์,16.43333,101.15000,51,07-11-2019,16:00:00,28.02,000,0.00,23.0,992.66,0.00,0.0,1005.51,34.5,12.00
48380,KAMPHAENG PHET,กำแพงเพชร,กำแพงเพชร,16.48681,99.52697,51,07-11-2019,16:00:00,28.55,200,0.00,23.3,997.76,0.00,3.7,1006.84,34.9,12.00
48381,KHON KAEN,ขอนแก่น,ขอนแก่น,16.46111,102.78972,44,07-11-2019,16:00:00,25.50,220,0.00,21.4,984.54,0.00,3.7,1005.61,35.5,10.00
48382,MAHASARAKHAM,มหาสารคาม,มหาสารคาม,16.24722,103.06805,53,07-11-2019,16:00:00,28.43,240,0.01,23.2,989.67,0.01,13.0,1006.76,34.0,12.00
48383,MUKDAHAN,มุกดาหาร,มุกดาหาร,16.54139,104.72889,61,07-11-2019,16:00:00,29.95,210,0.00,24.1,990.83,0.00,3.7,1006.37,32.5,12.00
48384,THA PHRA AGROMET.,ท่าพระ สกษ.,ขอนแก่น,16.33333,102.81667,54,07-11-2019,16:00:00,30.01,000,0.01,24.1,986.57,1.80,0.0,1004.93,34.9,10.00
48385,UMPHANG,อุ้มผาง,ตาก,16.02472,98.86444,58,07-11-2019,16:00:00,22.56,270,0.00,19.4,958.95,1.10,9.3,1009.85,28.5,10.00
48386,PICHIT AGROMET.,พิจิตร สกษ.,พิจิตร,16.43806,100.29250,49,07-11-2019,16:00:00,26.77,110,0.00,22.2,1003.02,0.00,7.4,1006.88,34.3,15.00
48387,DOI MU SOE AGROMET.,ดอยมูเซอร์ สกษ.,ตาก,16.75000,98.93333,75,07-11-2019,16:00:00,23.17,190,0.00,19.9,914.36,3.40,11.1,1008.71,24.5,7.00
48390,KALASIN,กาฬสินธุ์,กาฬสินธุ์,16.33250,103.58833,53,07-11-2019,16:00:00,29.21,000,0.00,23.7,990.63,1.60,0.0,1006.20,34.8,8.00
48400,NAKHON SAWAN,นครสวรรค์ ,นครสวรรค์,15.67183,100.13236,50,07-11-2019,16:00:00,30.12,200,0.00,24.2,1003.29,0.01,11.1,1007.21,36.2,12.00
48401,TAKFA AGROMET.,ตากฟ้า สกษ.,นครสวรรค์,15.34944,100.53028,49,07-11-2019,16:00:00,26.88,000,0.00,22.3,997.87,0.00,0.0,1008.30,34.5,10.00
48402,CHAINAT AGROMET.,ชัยนาท สกษ.,ชัยนาท,15.15000,100.18333,49,07-11-2019,16:00:00,28.06,000,0.00,23.0,1005.95,0.00,0.0,1007.83,35.5,14.00
48403,CHAIYAPHUM,ชัยภูมิ,ชัยภูมิ,15.80000,102.03333,42,07-11-2019,16:00:00,23.63,000,0.00,20.2,985.78,0.00,0.0,1006.08,35.1,12.00
48404,ROI ET AGROMET.,ร้อยเอ็ด สกษ.,ร้อยเอ็ด,16.07322,103.60844,54,07-11-2019,16:00:00,27.99,190,0.00,22.9,988.63,14.40,7.4,1005.90,33.5,10.00
48405,ROI ET,ร้อยเอ็ด,ร้อยเอ็ด,16.02000,103.74389,49,07-11-2019,16:00:00,26.60,180,0.00,22.1,990.12,8.00,9.3,1005.87,34.5,10.00
48407,UBON RATCHATHANI,อุบลราชธานี (ศูนย์ฯ),อุบลราชธานี,15.25000,104.86667,48,07-11-2019,16:00:00,26.32,250,0.00,21.9,993.38,0.00,5.6,1007.07,34.5,10.00
48408,UBON RATCHATHANI AGROMET.,อุบลราชธานี สกษ.,อุบลราชธานี,15.23914,105.02350,57,07-11-2019,16:00:00,30.93,000,0.00,24.6,992.83,0.00,0.0,1007.30,34.5,10.00
48409,SI SAKET AGROMET.,ศรีสะเกษ,ศรีสะเกษ,15.00000,104.05000,49,07-11-2019,16:00:00,27.61,270,0.00,22.7,993.08,0.00,3.7,1007.38,35.0,10.00
48410,UTHAITHANI,อุทัยธานี,อุทัยธานี,15.37417,100.03889,45,07-11-2019,16:00:00,26.30,"{'0': '   ', '@attributes': {'Unit': 'degree'}}",0.00,21.9,1004.49,0.00,0.0,1007.43,35.9,10.00
48413,WICHIAN BURI,วิเชียรบุรี,เพชรบูรณ์,15.65700,101.10800,54,07-11-2019,16:00:00,29.54,260,0.00,23.8,999.29,0.60,14.8,1007.05,34.4,10.00
48415,AYUTTHAYA,พระนครศรีอยุธยา,พระนครศรีอยุธยา,14.53472,100.72500,52,07-11-2019,16:00:00,27.26,000,0.00,22.5,1007.13,0.00,0.0,1008.21,33.7,9.00
48416,THA TUM,ท่าตูม,สุรินทร์,15.31667,103.68333,68,07-11-2019,16:00:00,32.10,000,0.00,25.2,992.85,0.00,0.0,1007.30,32.0,8.00
48417,NAKORNNAYOK,นครนายก,นครนายก,14.36222,101.39278,71,07-11-2019,16:00:00,20.79,000,0.00,18.1,873.98,0.60,0.0,1007.25,23.7,7.00
48418,BUA CHUM,บัวชุม  ,ลพบุรี,15.26667,101.18736,48,07-11-2019,16:00:00,28.43,000,0.00,23.2,1001.31,0.00,0.0,1007.01,36.1,10.00
48419,PATHUMTHANI,ปทุมธานี สกษ.,ปทุมธานี,14.10000,100.61667,65,07-11-2019,16:00:00,36.67,240,0.00,27.5,1007.51,0.01,5.6,1008.29,35.0,10.00
48420,Samut Prakarn,สมุทรปราการ สกษ.,สมุทรปราการ,13.51667,100.76167,62,07-11-2019,16:00:00,28.01,210,0.00,23.0,1008.07,0.00,18.5,1008.51,31.1,10.00
48421,THONG PHAPHUM,ทองผาภูมิ,กาญจนบุรี,14.74222,98.63639,55,07-11-2019,16:00:00,28.27,000,0.00,23.1,997.44,0.20,0.0,1008.52,33.5,10.00
48425,SUPHAN BURI,สุพรรณบุรี,สุพรรณบุรี,14.47444,100.13889,54,07-11-2019,16:00:00,30.22,210,0.00,24.2,1007.10,0.00,3.7,1008.09,35.0,12.00
48426,LOP BURI,ลพบุรี,ลพบุรี,14.79972,100.64500,53,07-11-2019,16:00:00,27.43,180,0.00,22.6,1006.18,0.00,3.7,1007.96,33.5,9.00
48427,U THONG AGROMET.,อู่ทอง สกษ.,สุพรรณบุรี,14.30361,99.86472,43,07-11-2019,16:00:00,23.87,220,0.00,20.3,1006.74,0.00,3.7,1007.49,34.8,9.00
48429,SUVARNABHUMI AIRPORT,สนามบินสุวรรณภูมิ,สมุทรปราการ,13.68639,100.76750,58,07-11-2019,16:00:00,27.74,190,0.00,22.8,1008.05,0.00,14.8,1008.74,32.1,10.00
48430,PRACHIN BURI,ปราจีนบุรี,ปราจีนบุรี,14.05842,101.36930,52,07-11-2019,16:00:00,29.34,270,0.00,23.7,1007.48,0.00,3.7,1008.16,35.0,8.00
48431,NAKHON RATCHASIMA,นครราชสีมา,นครราชสีมา,14.96830,102.08603,50,07-11-2019,16:00:00,28.64,260,0.00,23.3,986.31,0.00,9.3,1006.88,35.5,10.00
48432,SURIN,สุรินทร์,สุรินทร์,14.88333,103.50000,43,07-11-2019,16:00:00,24.56,230,0.00,20.8,990.52,0.00,7.4,1006.78,35.3,11.00
48433,SURIN AGROMET.,สุรินทร์ สกษ.,สุรินทร์,14.88333,103.45000,46,07-11-2019,16:00:00,27.07,000,0.00,22.4,991.56,0.00,0.0,1007.52,36.0,14.00
48434,CHOK CHAI,โชคชัย,นครราชสีมา,14.71889,102.16861,46,07-11-2019,16:00:00,26.11,240,0.00,21.8,985.51,0.00,14.8,1006.79,35.1,10.00
48435,PAKCHONG AGROMET.,ปากช่อง สกษ.,นครราชสีมา,14.64389,101.33194,56,07-11-2019,16:00:00,25.12,240,0.00,21.2,965.13,0.00,14.8,1007.85,31.0,14.00
48436,NANG RONG,นางรอง,บุรีรัมย์,14.58333,102.80000,46,07-11-2019,16:00:00,26.95,120,0.00,22.3,986.89,0.00,9.3,1006.87,35.8,12.00
48437,BURIRUM,บุรีรัมย์,บุรีรัมย์,15.22575,103.24808,54,07-11-2019,16:00:00,28.84,250,0.00,23.4,988.18,0.00,5.6,1008.54,34.2,10.00
48438,SAMUTSONGKRAM,สมุทรสงคราม,สมุทรสงคราม,13.40778,100.03222,63,07-11-2019,16:00:00,29.39,150,0.00,23.8,1008.33,0.00,18.5,1008.76,31.8,12.00
48439,KABIN BURI,กบินทร์บุรี,ปราจีนบุรี,13.98333,101.70722,54,07-11-2019,16:00:00,29.04,000,0.00,23.6,1006.64,0.00,0.0,1008.02,34.3,11.00
48440,SA KAEW,สระแก้ว,สระแก้ว,13.78889,102.03472,56,07-11-2019,16:00:00,30.29,280,0.00,24.3,1003.35,0.00,3.7,1008.17,34.2,10.00
48450,KANCHANA BURI,กาญจนบุรี,กาญจนบุรี,14.02250,99.53583,44,07-11-2019,16:00:00,25.70,200,0.00,21.5,1004.61,0.00,7.4,1007.81,35.6,12.00
48451,NAKHONPATHOM,นครปฐม,นครปฐม,14.01167,99.97000,50,07-11-2019,16:00:00,28.64,000,0.00,23.3,1006.90,0.00,0.0,1007.98,35.5,10.00
48453,BANG NA AGROMET.,กรุงเทพฯ บางนา สกษ.,กรุงเทพมหานคร,13.66639,100.60611,59,07-11-2019,16:00:00,28.69,210,0.00,23.4,1008.43,0.00,5.6,1008.72,32.3,10.00
48454,BANGKOK PORT (KLONG TOEI),กรุงเทพฯ ท่าเรือคลองเตย,กรุงเทพมหานคร,13.70694,100.56805,57,07-11-2019,16:00:00,29.70,220,0.00,23.9,1007.49,0.00,7.4,1008.16,33.5,10.00
48455,BANGKOK METROPOLIS,กรุงเทพมหานคร,กรุงเทพมหานคร,13.72639,100.56000,53,07-11-2019,16:00:00,27.31,120,0.00,22.5,1007.91,0.00,1.9,1008.39,33.3,10.00
48456,DON MUANG AIRPORT,สนามบินดอนเมือง,กรุงเทพมหานคร,13.91917,100.60500,51,07-11-2019,16:00:00,27.70,270,0.00,22.8,1006.82,0.00,14.8,1008.20,34.2,10.00
48457,PILOT STATION,นำร่อง,สมุทรปราการ,13.39389,100.59944,62,07-11-2019,16:00:00,28.20,180,0.00,23.1,1007.38,0.00,18.5,1009.04,31.2,10.00
48458,CHACHOENGSAO,ฉะเชิงเทรา,ฉะเชิงเทรา,13.51556,101.45833,43,07-11-2019,16:00:00,22.92,230,0.00,19.7,1002.08,0.00,5.6,1009.93,34.0,10.00
48459,CHON BURI,ชลบุรี,ชลบุรี,13.36667,100.98333,53,07-11-2019,16:00:00,26.45,000,0.00,22.0,1008.35,0.00,0.0,1008.63,33.0,10.00
48460,KO SICHANG,เกาะสีชัง,ชลบุรี,13.16167,100.80194,64,07-11-2019,16:00:00,29.24,000,0.00,23.7,1005.88,0.00,0.0,1008.98,31.3,12.00
48461,PHATTHAYA,พัทยา,ชลบุรี,12.92000,100.86944,63,07-11-2019,16:00:00,29.07,210,0.00,23.6,1002.59,0.00,13.0,1009.44,31.5,12.00
48462,ARANYA PRATHET,อรัญประเทศ,สระแก้ว,13.70000,102.58333,53,07-11-2019,16:00:00,30.35,270,0.00,24.3,1002.89,0.00,3.7,1008.35,35.2,7.00
48463,LAEM CHABANG,แหลมฉบัง,ชลบุรี,13.07694,100.87583,63,07-11-2019,16:00:00,29.07,240,0.00,23.6,999.62,0.00,11.1,1008.81,31.5,10.00
48464,RATCHA BURI,ราชบุรี,ราชบุรี,13.48931,99.79239,55,07-11-2019,16:00:00,29.83,150,0.00,24.0,1008.10,0.00,11.1,1009.34,34.4,15.00
48465,PHETCHA BURI,เพชรบุรี,เพชรบุรี,12.99944,100.06056,56,07-11-2019,16:00:00,31.76,150,0.00,25.0,1008.10,0.00,18.5,1008.52,35.3,11.00
48474,NONG PHLUB AGROMET.,หนองพลับ สกษ.,ประจวบคีรีขันธ์,12.58333,99.73333,51,07-11-2019,16:00:00,28.67,000,0.00,23.3,996.67,0.00,0.0,1008.62,35.1,9.00
48475,HUA HIN,หัวหิน,ประจวบคีรีขันธ์,12.58611,99.96250,66,07-11-2019,16:00:00,30.49,150,0.00,24.4,1008.37,0.00,11.1,1009.07,31.5,10.00
48477,SATTAHIP,สัตหีบ,ชลบุรี,12.68333,100.98333,48,07-11-2019,16:00:00,26.01,180,0.00,21.7,1006.78,0.00,14.8,1009.16,34.2,10.00
48478,RAYONG,ระยอง,ระยอง,12.63222,101.34361,65,07-11-2019,16:00:00,30.00,250,0.00,24.1,1008.85,0.00,14.8,1009.36,31.4,10.00
48479,HUAI PONG AGROMET.,ห้วยโป่ง สกษ.,ระยอง,12.73333,101.13333,55,07-11-2019,16:00:00,26.86,220,0.00,22.3,1003.95,0.00,1.9,1009.02,32.5,12.00
48480,CHANTHA BURI,จันทบุรี,จันทบุรี,12.61667,102.11333,57,07-11-2019,16:00:00,28.08,190,0.00,23.0,1009.08,0.00,5.6,1009.49,32.7,11.00
48481,PHLIU  AGROMET.,พลิ้ว สกษ.,จันทบุรี,12.50861,102.17305,66,07-11-2019,16:00:00,31.52,190,0.00,24.9,1006.92,0.00,7.4,1009.65,32.0,8.00
48500,PRACHUAP KHIRIKHAN,ประจวบคีรีขันธ์,ประจวบคีรีขันธ์,11.83333,99.83333,65,07-11-2019,16:00:00,32.76,330,0.00,25.6,1007.45,0.00,13.0,1008.22,33.0,10.00
48501,TRAD,ตราด,ตราด,11.76667,102.88333,74,07-11-2019,16:00:00,33.65,270,0.00,26.0,1009.51,0.00,5.6,1009.96,31.2,8.00
48517,CHUMPHON,ชุมพร,ชุมพร,10.49875,99.18847,62,07-11-2019,16:00:00,30.86,080,0.00,24.6,1008.33,0.00,5.6,1009.00,32.8,8.00
48520,SAWI AGROMET.,สวี สกษ.,ชุมพร,10.33333,99.10000,61,07-11-2019,16:00:00,31.11,000,0.00,24.7,1007.69,0.00,0.0,1009.19,33.2,10.00
48532,RANONG,ระนอง,ระนอง,9.98333,98.61667,56,07-11-2019,16:00:00,27.11,270,0.00,22.4,1008.90,0.00,9.3,1009.80,32.2,10.00
48550,KO SAMUI,เกาะสมุย,สุราษฎร์ธานี,9.46667,100.05000,75,07-11-2019,16:00:00,34.60,080,0.00,26.5,1008.93,0.00,7.4,1009.61,31.5,10.00
48551,SURAT THANI,สุราษฎร์ธานี,สุราษฎร์ธานี,9.13556,99.15194,64,07-11-2019,16:00:00,32.73,080,0.00,25.6,1008.26,8.40,7.4,1009.04,33.4,10.00
48552,NAKHONSI THAMMARAT,นครศรีธรรมราช,นครศรีธรรมราช,8.53778,99.96389,78,07-11-2019,16:00:00,25.02,210,0.80,21.1,1010.09,0.80,9.3,1010.73,25.2,6.00
48554,NAKHONSI THAMMARAT AGROMET.,นครศรีธรรมราช สกษ.,นครศรีธรรมราช,8.35931,100.00000,95,07-11-2019,16:00:00,30.05,290,2.60,24.1,1008.94,2.60,18.5,1009.35,25.0,7.00
48555,SURAT THANI AGROMET.,สุราษฎร์ธานี สกษ.,สุราษฎร์ธานี,9.10000,99.63333,79,07-11-2019,16:00:00,32.83,060,1.20,25.6,1006.38,1.20,5.6,1010.56,29.7,7.00
48556,PHRA SANG,พระแสง สอท.,สุราษฎร์ธานี,8.57022,99.25825,60,07-11-2019,16:00:00,28.27,000,0.00,23.1,1005.02,0.00,0.0,1006.60,31.8,10.00
48557,CHAWANG,ฉวาง,นครศรีธรรมราช,8.43194,99.51194,70,07-11-2019,16:00:00,33.85,150,0.00,26.1,1006.17,0.40,3.7,1009.59,32.4,8.00
48560,PHATTHALUNG AGROMET.,พัทลุง สกษ.,พัทลุง,7.58333,100.16667,65,07-11-2019,16:00:00,27.74,000,0.01,22.8,1007.49,4.50,0.0,1008.84,30.1,10.00
48561,TAKUA PA,ตะกั่วป่า,พังงา,8.68417,98.25222,66,07-11-2019,16:00:00,30.49,000,0.00,24.4,1008.98,0.00,0.0,1009.85,31.5,10.00
48563,KRABI,กระบี่,กระบี่,8.10361,98.97528,58,07-11-2019,16:00:00,29.58,190,0.00,23.9,1006.22,0.00,9.3,1009.71,33.3,10.00
48564,PHUKET,ภูเก็ต,ภูเก็ต,7.88333,98.40000,58,07-11-2019,16:00:00,32.18,090,0.00,25.3,1008.86,0.00,5.6,1009.29,34.8,10.00
48565,PHUKET AIRPORT,ภูเก็ต (ศูนย์ฯ),ภูเก็ต,8.14500,98.31444,67,07-11-2019,16:00:00,32.58,270,1.40,25.5,1008.45,8.30,3.7,1009.43,32.5,10.00
48566,KO LANTA,เกาะลันตา,กระบี่,7.53333,99.05000,75,07-11-2019,16:00:00,29.24,130,0.00,23.7,1008.30,0.00,5.6,1009.11,28.6,10.00
48567,TRANG AIRPORT,ตรัง,ตรัง,7.51667,99.61667,89,07-11-2019,16:00:00,31.66,000,1.40,25.0,1007.68,1.40,0.0,1009.50,27.0,10.00
48568,SONGKHLA,สงขลา,สงขลา,7.18211,100.60769,67,07-11-2019,16:00:00,30.65,330,4.80,24.5,1008.76,37.00,9.3,1009.50,31.3,11.00
48569,HAT YAI AIRPORT,หาดใหญ่,สงขลา,6.91667,100.43333,58,07-11-2019,16:00:00,27.63,140,0.00,22.7,1005.45,4.60,7.4,1009.39,31.9,10.00
48570,SATUN,สตูล,สตูล,6.65000,100.08333,64,07-11-2019,16:00:00,28.84,000,0.00,23.4,1008.98,0.50,0.0,1009.66,31.1,10.00
48571,KHO HONG AGROMET.,คอหงษ์ สกษ.,สงขลา,7.00000,100.50000,59,07-11-2019,16:00:00,30.16,000,0.00,24.2,1007.91,1.20,0.0,1009.00,33.3,10.00
48574,SA DAO,สะเดา,สงขลา,6.79806,100.39056,69,07-11-2019,16:00:00,31.85,240,0.00,25.1,1006.59,0.00,5.6,1009.47,31.6,12.00
48580,PATTANI AIRPORT,ปัตตานี,ปัตตานี,6.78333,101.15000,63,07-11-2019,16:00:00,30.08,260,0.00,24.1,1008.02,0.00,9.3,1008.70,32.0,10.00
48581,YALA AGROMET.,ยะลา สกษ.,ยะลา,6.51667,101.28333,57,07-11-2019,16:00:00,30.46,000,0.00,24.3,1005.33,4.80,0.0,1009.36,34.0,10.00
48583,NARATHIWAT,นราธิวาส,นราธิวาส,6.41667,101.81667,66,07-11-2019,16:00:00,31.52,000,0.00,24.9,1008.42,23.20,0.0,1009.00,32.0,10.00
