WmoStationNumber,StationNameEnglish,StationNameThai,Province,Latitude,Longitude,StationPressure,Date,Time,Rainfall24Hr,DewPoint,VaporPressure,Rainfall,AirTemperature,LandVisibility,MeanSeaLevelPressure,WindDirection,WindSpeed,RelativeHumidity
48300,MAE HONG SON,แม่ฮ่องสอน,แม่ฮ่องสอน,19.29897,97.97578,975.34,07-10-2019,04:00:00,1.80,23.0,28.13,0.00,24.8,6.00,1006.36,000,0.0,90
48302,DOI ANG KANG,ดอยอ่างขาง,เชียงใหม่,19.93139,99.04833,843.62,07-10-2019,04:00:00,7.20,17.9,20.54,0.00,18.1,7.00,1004.89,270,18.5,99
48303,CHIANG RAI,เชียงราย,เชียงราย,19.96139,99.88139,961.56,07-10-2019,04:00:00,0.60,21.9,26.26,0.00,24.9,10.00,1005.20,230,1.9,83
48304,CHAING RAI AGROMET.,เชียงราย สกษ.,เชียงราย,19.87083,99.78278,959.30,07-10-2019,04:00:00,0.80,22.3,26.84,0.00,24.5,10.00,1004.89,000,0.0,87
48307,THUNG CHANG,ทุ่งช้าง,น่าน,19.41194,100.88353,967.86,07-10-2019,04:00:00,3.20,24.3,30.32,0.00,25.0,5.00,1005.52,000,0.0,96
48310,PHAYAO,พะเยา,พะเยา,19.13333,99.90000,959.93,07-10-2019,04:00:00,0.20,23.6,29.05,0.00,24.3,10.00,1005.12,000,0.0,96
48315,THA WANGPHA,ท่าวังผา,น่าน,19.11056,100.80250,979.09,07-10-2019,04:00:00,1.60,22.7,27.52,0.00,26.8,8.00,1005.71,000,0.0,78
48324,THOEN,เถิน,ลำปาง,17.63661,99.24475,984.84,07-10-2019,04:00:00,0.00,23.2,28.47,0.00,24.7,11.00,1006.71,000,0.0,92
48325,MAE SARIANG,แม่สะเรียง,แม่ฮ่องสอน,18.16667,97.93333,983.51,07-10-2019,04:00:00,2.40,22.9,27.92,0.00,23.8,6.00,1007.83,000,0.0,95
48327,CHIANG MAI,เชียงใหม่,เชียงใหม่,18.79000,98.97694,971.44,07-10-2019,04:00:00,1.70,23.3,28.56,0.00,24.9,10.00,1006.04,000,0.0,91
48328,LAMPANG,ลำปาง,ลำปาง,18.28333,99.51667,978.71,07-10-2019,04:00:00,0.00,22.4,27.05,0.00,25.8,10.00,1006.25,000,0.0,81
48329,LAMPHUN,ลำพูน,ลำพูน,18.56722,99.03389,972.52,07-10-2019,04:00:00,0.00,23.5,29.00,0.00,25.0,10.00,1006.17,000,0.0,92
48330,PHRAE,แพร่,แพร่,18.16667,100.16667,987.40,07-10-2019,04:00:00,0.00,22.8,27.77,0.00,26.5,10.00,1005.88,270,3.7,80
48331,NAN,น่าน,น่าน,18.77972,100.77778,982.72,07-10-2019,04:00:00,0.40,24.2,30.26,0.00,26.7,10.00,1005.48,000,0.0,86
48333,NAN AGROMET.,น่าน สกษ.,น่าน,18.86667,100.75000,975.85,07-10-2019,04:00:00,1.40,23.9,29.64,0.00,25.5,8.00,1005.77,000,0.0,91
48334,LAMPANG AGROMET.,ลำปาง สกษ.,ลำปาง,18.31667,99.28333,970.40,07-10-2019,04:00:00,0.00,23.5,29.00,0.00,25.0,7.00,1006.00,000,0.0,92
48350,LOEI AGROMET.,เลย สกษ.,เลย,17.40000,101.73333,975.22,07-10-2019,04:00:00,0.00,22.3,26.84,0.00,27.0,12.00,1004.80,000,0.0,75
48351,UTTARADIT,อุตรดิตถ์,อุตรดิตถ์,17.61667,100.10000,999.11,07-10-2019,04:00:00,0.00,22.8,27.77,0.00,26.5,8.00,1006.42,000,0.0,80
48352,NONG KHAI,หนองคาย,หนองคาย,17.86717,102.73303,985.10,07-10-2019,04:00:00,0.00,24.7,31.14,0.00,27.3,10.00,1004.92,000,0.0,86
48353,LOEI,เลย,เลย,17.45000,101.73333,976.75,07-10-2019,04:00:00,0.00,23.3,28.67,0.00,27.0,10.00,1005.31,000,0.0,80
48354,UDON THANI,อุดรธานี,อุดรธานี,17.38333,102.80000,985.31,07-10-2019,04:00:00,0.00,24.2,30.18,0.00,26.8,10.00,1005.44,000,0.0,86
48355,SAKON NAKHON AGROMET.,สกลนคร สกษ.,สกลนคร,17.12503,104.06100,983.88,07-10-2019,04:00:00,0.00,23.7,29.23,0.00,26.0,10.00,1005.63,000,0.0,87
48356,SAKON NAKHON,สกลนคร,สกลนคร,17.15000,104.13333,985.94,07-10-2019,04:00:00,3.10,23.7,29.35,0.00,26.5,10.00,1005.42,000,0.0,85
48357,NAKHON PHANOM,นครพนม,นครพนม,17.41083,104.78250,989.01,07-10-2019,04:00:00,0.10,24.8,31.25,0.00,27.5,10.00,1005.70,130,1.9,85
48358,NAKHON PHANOM AGROMET.,นครพนม สกษ.,นครพนม,17.44306,104.77361,988.75,07-10-2019,04:00:00,0.00,24.8,31.30,0.00,26.1,10.00,1006.18,000,0.0,93
48360,NONG BUA LAM PHU,หนองบัวลำภู,หนองบัวลำภู,17.23250,102.42944,978.60,07-10-2019,04:00:00,0.00,23.9,29.74,0.00,25.7,10.00,1004.40,000,0.0,90
48372,SUKHOTHAI*,สุโขทัย,สุโขทัย,17.10611,99.80000,1000.09,07-10-2019,04:00:00,0.00,23.3,28.67,0.00,27.0,10.00,1005.87,240,5.6,80
48373,SI SAMRONG AGROMET.,ศรีสำโรง สกษ.,สุโขทัย,17.16136,99.86167,999.61,07-10-2019,04:00:00,0.00,23.7,29.31,0.00,27.2,10.00,1005.79,000,0.0,81
48374,LOM SAK,หล่มสัก,เพชรบูรณ์,16.77361,101.24944,991.21,07-10-2019,04:00:00,0.00,24.1,30.02,0.00,27.0,8.00,1007.65,000,0.0,84
48375,MAE SOT,แม่สอด,ตาก,16.65917,98.55083,984.27,07-10-2019,04:00:00,9.80,23.1,28.27,2.10,24.0,8.00,1006.80,110,3.7,95
48376,TAK,ตาก,ตาก,16.87833,99.14333,993.13,07-10-2019,04:00:00,1.20,22.5,27.19,0.00,27.2,10.00,1007.51,260,9.3,75
48377,BHUMIBOL DAM,เขื่อนภูมิพล,ตาก,17.24389,99.00250,989.87,07-10-2019,04:00:00,0.20,23.1,28.18,0.00,26.0,8.00,1006.29,000,0.0,84
48378,PHITSANULOK,พิษณุโลก,พิษณุโลก,16.79481,100.27930,1001.29,07-10-2019,04:00:00,0.00,24.6,30.84,0.00,26.0,10.00,1006.53,000,0.0,92
48379,PHETCHABUN,เพชรบูรณ์,เพชรบูรณ์,16.43333,101.15000,992.25,07-10-2019,04:00:00,2.60,24.3,30.32,1.20,25.0,10.00,1005.52,000,0.0,96
48380,KAMPHAENG PHET,กำแพงเพชร,กำแพงเพชร,16.48681,99.52697,997.09,07-10-2019,04:00:00,0.00,23.2,28.46,0.00,26.3,11.00,1006.43,000,0.0,83
48381,KHON KAEN,ขอนแก่น,ขอนแก่น,16.46111,102.78972,984.52,07-10-2019,04:00:00,5.00,23.0,28.10,0.00,26.1,10.00,1006.25,000,0.0,83
48382,MAHASARAKHAM,มหาสารคาม,มหาสารคาม,16.24722,103.06805,988.12,07-10-2019,04:00:00,0.00,23.1,28.26,0.00,27.5,10.00,1005.56,230,11.1,77
48383,MUKDAHAN,มุกดาหาร,มุกดาหาร,16.54139,104.72889,989.54,07-10-2019,04:00:00,0.00,23.4,28.84,0.00,26.8,10.00,1005.36,000,0.0,82
48384,THA PHRA AGROMET.,ท่าพระ สกษ.,ขอนแก่น,16.33333,102.81667,986.18,07-10-2019,04:00:00,0.00,22.7,27.65,0.00,27.6,8.00,1004.99,200,3.7,75
48385,UMPHANG,อุ้มผาง,ตาก,16.02472,98.86444,957.70,07-10-2019,04:00:00,2.30,21.4,25.44,0.00,22.6,6.00,1009.57,000,0.0,93
48386,PICHIT AGROMET.,พิจิตร สกษ.,พิจิตร,16.43806,100.29250,1002.60,07-10-2019,04:00:00,7.70,24.9,31.41,0.01,25.3,4.00,1006.58,140,3.7,97
48387,DOI MU SOE AGROMET.,ดอยมูเซอร์ สกษ.,ตาก,16.75000,98.93333,912.20,07-10-2019,04:00:00,8.30,19.9,23.26,0.40,20.4,.40,1007.68,200,11.1,97
48390,KALASIN,กาฬสินธุ์,กาฬสินธุ์,16.33250,103.58833,989.89,07-10-2019,04:00:00,0.00,23.9,29.72,0.00,26.7,6.00,1005.87,000,0.0,85
48400,NAKHON SAWAN,นครสวรรค์ ,นครสวรรค์,15.67183,100.13236,1003.08,07-10-2019,04:00:00,0.01,25.7,33.02,0.00,26.7,10.00,1007.12,000,0.0,94
48401,TAKFA AGROMET.,ตากฟ้า สกษ.,นครสวรรค์,15.34944,100.53028,997.47,07-10-2019,04:00:00,0.30,23.3,28.59,0.00,25.5,6.00,1008.21,000,0.0,88
48402,CHAINAT AGROMET.,ชัยนาท สกษ.,ชัยนาท,15.15000,100.18333,1005.73,07-10-2019,04:00:00,0.00,22.9,27.85,0.00,26.4,7.00,1007.67,180,3.7,81
48403,CHAIYAPHUM,ชัยภูมิ,ชัยภูมิ,15.80000,102.03333,985.58,07-10-2019,04:00:00,0.00,22.0,26.47,0.00,26.5,10.00,1006.46,220,5.6,77
48404,ROI ET AGROMET.,ร้อยเอ็ด สกษ.,ร้อยเอ็ด,16.07322,103.60844,988.07,07-10-2019,04:00:00,0.00,23.7,29.35,0.00,26.5,10.00,1005.73,180,5.6,85
48405,ROI ET,ร้อยเอ็ด,ร้อยเอ็ด,16.02000,103.74389,989.44,07-10-2019,04:00:00,0.00,24.5,30.83,0.00,27.0,10.00,1005.58,200,5.6,87
48407,UBON RATCHATHANI,อุบลราชธานี (ศูนย์ฯ),อุบลราชธานี,15.25000,104.86667,992.68,07-10-2019,04:00:00,7.00,24.4,30.48,7.00,26.1,10.00,1006.75,000,0.0,90
48408,UBON RATCHATHANI AGROMET.,อุบลราชธานี สกษ.,อุบลราชธานี,15.23914,105.02350,992.76,07-10-2019,04:00:00,47.60,24.2,30.22,47.60,24.8,8.00,1007.71,000,0.0,97
48409,SI SAKET AGROMET.,ศรีสะเกษ,ศรีสะเกษ,15.00000,104.05000,993.15,07-10-2019,04:00:00,6.40,23.8,29.50,0.00,26.0,6.00,1007.88,000,0.0,88
48410,UTHAITHANI,อุทัยธานี,อุทัยธานี,15.37417,100.03889,1003.91,07-10-2019,04:00:00,0.00,24.5,30.72,0.00,26.8,10.00,1006.93,"{'0': '   ', '@attributes': {'Unit': 'degree'}}",0.0,87
48413,WICHIAN BURI,วิเชียรบุรี,เพชรบูรณ์,15.65700,101.10800,999.25,07-10-2019,04:00:00,3.40,23.9,29.70,0.00,26.4,7.00,1007.22,000,0.0,86
48415,AYUTTHAYA,พระนครศรีอยุธยา,พระนครศรีอยุธยา,14.53472,100.72500,1006.90,07-10-2019,04:00:00,0.00,23.9,29.66,0.00,25.8,8.00,1008.02,000,0.0,89
48416,THA TUM,ท่าตูม,สุรินทร์,15.31667,103.68333,990.92,07-10-2019,04:00:00,1.30,24.6,30.84,0.00,26.0,8.00,1005.63,000,0.0,92
48417,NAKORNNAYOK,นครนายก,นครนายก,{'@attributes': {'Unit': 'decimal degree'}},{'@attributes': {'Unit': 'decimal degree'}},873.14,07-10-2019,04:00:00,0.20,18.1,20.72,0.00,18.4,8.00,1008.84,210,5.6,98
48418,BUA CHUM,บัวชุม  ,ลพบุรี,15.26667,101.18736,1001.67,07-10-2019,04:00:00,0.00,22.2,26.71,0.00,25.9,10.00,1007.58,180,5.6,80
48419,PATHUMTHANI,ปทุมธานี สกษ.,ปทุมธานี,14.10000,100.61667,1007.20,07-10-2019,04:00:00,11.10,25.8,33.15,0.00,26.2,8.00,1008.01,230,3.7,98
48420,Samut Prakarn,สมุทรปราการ สกษ.,สมุทรปราการ,13.51667,100.76167,1007.25,07-10-2019,04:00:00,17.00,24.2,30.12,0.00,27.2,9.00,1007.70,230,5.6,84
48421,THONG PHAPHUM,ทองผาภูมิ,กาญจนบุรี,14.74222,98.63639,997.75,07-10-2019,04:00:00,13.60,23.7,29.33,0.00,24.6,4.00,1009.16,000,0.0,95
48425,SUPHAN BURI,สุพรรณบุรี,สุพรรณบุรี,14.47444,100.13889,1006.93,07-10-2019,04:00:00,0.00,23.4,28.84,0.00,26.8,10.00,1007.94,210,3.7,82
48426,LOP BURI,ลพบุรี,ลพบุรี,14.79972,100.64500,1005.89,07-10-2019,04:00:00,1.80,23.9,29.58,0.00,25.9,7.00,1007.72,170,3.7,89
48427,U THONG AGROMET.,อู่ทอง สกษ.,สุพรรณบุรี,14.30361,99.86472,1007.07,07-10-2019,04:00:00,0.00,23.2,28.42,0.00,25.7,3.00,1007.84,000,0.0,86
48429,SUVARNABHUMI AIRPORT,สนามบินสุวรรณภูมิ,สมุทรปราการ,13.68639,100.76750,1007.55,07-10-2019,04:00:00,18.80,24.0,29.82,0.00,25.6,10.00,1008.26,000,0.0,91
48430,PRACHIN BURI,ปราจีนบุรี,ปราจีนบุรี,14.05842,101.36930,1007.28,07-10-2019,04:00:00,0.00,24.6,30.92,0.00,25.9,7.00,1007.99,000,0.0,93
48431,NAKHON RATCHASIMA,นครราชสีมา,นครราชสีมา,14.96830,102.08603,985.95,07-10-2019,04:00:00,0.00,23.2,28.39,0.00,26.7,10.00,1007.13,000,0.0,81
48432,SURIN,สุรินทร์,สุรินทร์,14.88333,103.50000,990.40,07-10-2019,04:00:00,6.70,23.8,29.50,0.00,26.0,6.00,1007.18,240,5.6,88
48433,SURIN AGROMET.,สุรินทร์ สกษ.,สุรินทร์,14.88333,103.45000,991.16,07-10-2019,04:00:00,10.60,23.8,29.54,0.00,25.3,6.00,1007.69,210,3.7,92
48434,CHOK CHAI,โชคชัย,นครราชสีมา,14.71889,102.16861,985.32,07-10-2019,04:00:00,0.00,22.8,27.74,0.00,25.9,10.00,1007.25,000,0.0,83
48435,PAKCHONG AGROMET.,ปากช่อง สกษ.,นครราชสีมา,14.64389,101.33194,964.36,07-10-2019,04:00:00,0.00,20.1,23.47,0.00,25.6,10.00,1007.82,230,14.8,72
48436,NANG RONG,นางรอง,บุรีรัมย์,14.58333,102.80000,986.51,07-10-2019,04:00:00,0.00,23.3,28.59,0.00,25.5,10.00,1007.18,000,0.0,88
48437,BURIRUM,บุรีรัมย์,บุรีรัมย์,15.22575,103.24808,987.48,07-10-2019,04:00:00,1.60,24.2,30.25,0.00,25.4,7.00,1008.43,210,13.0,93
48438,SAMUTSONGKRAM,สมุทรสงคราม,สมุทรสงคราม,13.40778,100.03222,1007.53,07-10-2019,04:00:00,0.10,23.9,29.65,0.00,28.1,10.00,1007.96,220,7.4,78
48439,KABIN BURI,กบินทร์บุรี,ปราจีนบุรี,13.98333,101.70722,1006.64,07-10-2019,04:00:00,3.50,23.8,29.41,0.00,24.5,6.00,1008.07,000,0.0,96
48440,SA KAEW,สระแก้ว,สระแก้ว,13.78889,102.03472,1003.21,07-10-2019,04:00:00,42.90,24.1,30.02,0.40,24.4,6.00,1008.19,000,0.0,98
48450,KANCHANA BURI,กาญจนบุรี,กาญจนบุรี,14.02250,99.53583,1004.54,07-10-2019,04:00:00,0.00,23.1,28.29,0.00,26.5,10.00,1007.84,000,0.0,82
48451,NAKHONPATHOM,นครปฐม,นครปฐม,14.01167,99.97000,1006.83,07-10-2019,04:00:00,0.00,23.9,29.72,0.00,25.4,10.00,1007.95,000,0.0,92
48453,BANG NA AGROMET.,กรุงเทพฯ บางนา สกษ.,กรุงเทพมหานคร,13.66639,100.60611,1007.73,07-10-2019,04:00:00,20.10,24.8,31.30,0.00,26.1,8.00,1008.03,000,0.0,93
48455,BANGKOK METROPOLIS,กรุงเทพมหานคร,กรุงเทพมหานคร,13.72639,100.56000,1007.84,07-10-2019,04:00:00,16.40,24.3,30.46,0.00,25.8,10.00,1008.33,000,0.0,92
48456,DON MUANG AIRPORT,สนามบินดอนเมือง,กรุงเทพมหานคร,13.91917,100.60500,1006.63,07-10-2019,04:00:00,8.80,23.8,29.52,0.00,26.3,10.00,1008.04,230,7.4,86
48458,CHACHOENGSAO,ฉะเชิงเทรา,ฉะเชิงเทรา,13.51556,101.45833,1001.97,07-10-2019,04:00:00,0.00,23.8,29.41,0.00,24.5,10.00,1010.06,000,0.0,96
48459,CHON BURI,ชลบุรี,ชลบุรี,13.36667,100.98333,1007.60,07-10-2019,04:00:00,2.00,25.3,32.21,0.00,27.0,10.00,1007.88,000,0.0,90
48460,KO SICHANG,เกาะสีชัง,ชลบุรี,13.16167,100.80194,1004.82,07-10-2019,04:00:00,0.00,24.2,30.15,0.00,27.5,10.00,1007.95,000,0.0,82
48461,PHATTHAYA,พัทยา,ชลบุรี,12.92000,100.86944,1001.15,07-10-2019,04:00:00,0.00,24.4,30.56,0.00,28.0,10.00,1008.08,000,0.0,81
48462,ARANYA PRATHET,อรัญประเทศ,สระแก้ว,13.70000,102.58333,1002.63,07-10-2019,04:00:00,0.00,24.0,29.91,0.00,25.5,8.00,1008.27,000,0.0,92
48464,RATCHA BURI,ราชบุรี,ราชบุรี,13.48931,99.79239,1008.32,07-10-2019,04:00:00,0.00,23.3,28.64,0.00,24.8,10.00,1009.60,180,3.7,92
48465,PHETCHA BURI,เพชรบุรี,เพชรบุรี,12.99944,100.06056,1007.91,07-10-2019,04:00:00,0.00,23.0,28.06,0.00,27.1,11.00,1008.34,000,0.0,78
48474,NONG PHLUB AGROMET.,หนองพลับ สกษ.,ประจวบคีรีขันธ์,12.58333,99.73333,996.35,07-10-2019,04:00:00,0.00,22.1,26.58,0.00,23.3,10.00,1008.78,000,0.0,93
48475,HUA HIN,หัวหิน,ประจวบคีรีขันธ์,12.58611,99.96250,1007.77,07-10-2019,04:00:00,0.30,22.9,27.85,0.00,26.4,10.00,1008.48,000,0.0,81
48477,SATTAHIP,สัตหีบ,ชลบุรี,12.68333,100.98333,1005.01,07-10-2019,04:00:00,0.00,25.4,32.42,0.00,28.8,10.00,1007.43,180,7.4,82
48478,RAYONG,ระยอง,ระยอง,12.63222,101.34361,1007.87,07-10-2019,04:00:00,0.00,23.9,29.71,0.00,29.7,10.00,1008.38,240,14.8,71
48479,HUAI PONG AGROMET.,ห้วยโป่ง สกษ.,ระยอง,12.73333,101.13333,1003.06,07-10-2019,04:00:00,0.00,23.7,29.23,0.00,26.0,7.00,1008.24,000,0.0,87
48480,CHANTHA BURI,จันทบุรี,จันทบุรี,12.61667,102.11333,1008.41,07-10-2019,04:00:00,13.10,22.1,26.66,10.80,23.5,4.00,1008.82,000,0.0,92
48481,PHLIU  AGROMET.,พลิ้ว สกษ.,จันทบุรี,12.50861,102.17305,1006.17,07-10-2019,04:00:00,18.80,23.2,28.42,8.00,23.5,8.00,1008.98,040,7.4,98
48500,PRACHUAP KHIRIKHAN,ประจวบคีรีขันธ์,ประจวบคีรีขันธ์,11.83333,99.83333,1007.35,07-10-2019,04:00:00,0.00,22.8,27.69,0.00,26.6,10.00,1008.14,000,0.0,80
48501,TRAD,ตราด,ตราด,11.76667,102.88333,1009.07,07-10-2019,04:00:00,3.70,23.3,28.56,3.70,24.9,5.00,1009.53,330,5.6,91
48517,CHUMPHON,ชุมพร,ชุมพร,10.49875,99.18847,1008.67,07-10-2019,04:00:00,0.80,24.3,30.46,0.00,25.8,10.00,1009.35,000,0.0,92
48520,SAWI AGROMET.,สวี สกษ.,ชุมพร,10.33333,99.10000,1005.96,07-10-2019,04:00:00,0.00,24.0,29.79,0.00,25.0,8.00,1007.50,000,0.0,94
48532,RANONG,ระนอง,ระนอง,9.98333,98.61667,1008.66,07-10-2019,04:00:00,0.00,24.0,29.91,0.00,25.5,10.00,1009.58,000,0.0,92
48550,KO SAMUI,เกาะสมุย,สุราษฎร์ธานี,9.46667,100.05000,1008.55,07-10-2019,04:00:00,0.00,25.0,31.67,0.00,28.0,10.00,1009.24,270,5.6,84
48551,SURAT THANI,สุราษฎร์ธานี,สุราษฎร์ธานี,9.13556,99.15194,1009.05,07-10-2019,04:00:00,0.00,23.3,28.53,0.00,24.0,7.00,1009.86,000,0.0,96
48552,NAKHONSI THAMMARAT,นครศรีธรรมราช,นครศรีธรรมราช,8.53778,99.96389,1007.75,07-10-2019,04:00:00,0.00,23.6,29.08,0.00,26.5,10.00,1008.38,000,0.0,84
48554,NAKHONSI THAMMARAT AGROMET.,นครศรีธรรมราช สกษ.,นครศรีธรรมราช,8.35931,100.00000,1008.63,07-10-2019,04:00:00,0.01,23.4,28.81,0.00,24.6,10.00,1009.04,000,0.0,93
48555,SURAT THANI AGROMET.,สุราษฎร์ธานี สกษ.,สุราษฎร์ธานี,9.10000,99.63333,1007.67,07-10-2019,04:00:00,0.00,23.8,29.41,0.00,24.5,5.00,1011.93,000,0.0,96
48556,PHRA SANG,พระแสง สอท.,สุราษฎร์ธานี,8.57022,99.25825,1007.79,07-10-2019,04:00:00,0.00,23.5,28.96,0.00,24.1,10.00,1009.42,000,0.0,97
48557,CHAWANG,ฉวาง,นครศรีธรรมราช,8.43194,99.51194,1006.13,07-10-2019,04:00:00,0.00,24.1,29.95,0.00,24.8,6.00,1009.64,000,0.0,96
48560,PHATTHALUNG AGROMET.,พัทลุง สกษ.,พัทลุง,7.58333,100.16667,1007.67,07-10-2019,04:00:00,1.20,23.7,29.30,0.00,24.0,8.00,1009.04,000,0.0,98
48561,TAKUA PA,ตะกั่วป่า,พังงา,8.68417,98.25222,1008.18,07-10-2019,04:00:00,0.00,23.5,29.00,0.00,25.0,10.00,1009.07,000,0.0,92
48563,KRABI,กระบี่,กระบี่,8.10361,98.97528,1005.64,07-10-2019,04:00:00,1.50,24.2,30.12,0.00,24.6,10.00,1009.24,000,0.0,97
48564,PHUKET,ภูเก็ต,ภูเก็ต,7.88333,98.40000,1008.34,07-10-2019,04:00:00,0.00,24.1,30.02,0.00,27.0,10.00,1008.78,000,0.0,84
48565,PHUKET AIRPORT,ภูเก็ต (ศูนย์ฯ),ภูเก็ต,8.14500,98.31444,1007.83,07-10-2019,04:00:00,0.00,24.2,30.15,0.00,25.2,10.00,1008.83,000,0.0,94
48566,KO LANTA,เกาะลันตา,กระบี่,7.53333,99.05000,1008.33,07-10-2019,04:00:00,0.00,23.6,29.08,0.00,24.9,10.00,1009.15,270,9.3,92
48567,TRANG AIRPORT,ตรัง,ตรัง,7.51667,99.61667,1007.36,07-10-2019,04:00:00,0.00,23.8,29.41,0.00,24.5,10.00,1009.19,000,0.0,96
48568,SONGKHLA,สงขลา,สงขลา,7.18211,100.60769,1008.07,07-10-2019,04:00:00,1.30,24.1,29.93,0.00,25.8,10.00,1008.83,000,0.0,90
48569,HAT YAI AIRPORT,หาดใหญ่,สงขลา,6.91667,100.43333,1005.08,07-10-2019,04:00:00,0.00,23.3,28.62,0.00,24.2,10.00,1009.12,270,3.7,95
48570,SATUN,สตูล,สตูล,6.65000,100.08333,1008.07,07-10-2019,04:00:00,0.00,22.2,26.75,0.00,23.7,10.00,1008.77,000,0.0,91
48571,KHO HONG AGROMET.,คอหงษ์ สกษ.,สงขลา,7.00000,100.50000,1008.00,07-10-2019,04:00:00,0.00,23.7,29.33,0.00,24.6,10.00,1009.12,000,0.0,95
48574,SA DAO,สะเดา,สงขลา,6.79806,100.39056,1006.18,07-10-2019,04:00:00,0.00,23.7,29.25,0.00,24.7,10.00,1009.13,000,0.0,94
