WmoStationNumber,StationNameEnglish,StationNameThai,Province,Latitude,Longitude,WindDirection,Date,Time,MeanSeaLevelPressure,LandVisibility,Rainfall,DewPoint,StationPressure,RelativeHumidity,Rainfall24Hr,WindSpeed,AirTemperature,VaporPressure
48300,MAE HONG SON,แม่ฮ่องสอน,แม่ฮ่องสอน,19.29897,97.97578,000,07-24-2019,16:00:00,1004.98,8.00,9.00,24.6,974.17,89,45.40,0.0,26.5,30.97
48302,DOI ANG KANG,ดอยอ่างขาง,เชียงใหม่,19.93139,99.04833,270,07-24-2019,16:00:00,1001.64,5.00,0.00,19.3,842.31,90,23.70,27.8,21.0,22.32
48303,CHIANG RAI,เชียงราย,เชียงราย,19.96139,99.88139,170,07-24-2019,16:00:00,1004.17,10.00,8.60,22.9,960.67,85,14.10,7.4,25.6,27.99
48304,CHAING RAI AGROMET.,เชียงราย สกษ.,เชียงราย,19.87083,99.78278,240,07-24-2019,16:00:00,1003.40,15.00,10.40,23.9,958.12,88,15.60,5.6,26.1,29.68
48307,THUNG CHANG,ทุ่งช้าง,น่าน,19.41194,100.88353,160,07-24-2019,16:00:00,1004.34,8.00,1.00,24.1,966.97,84,11.30,9.3,27.0,30.02
48310,PHAYAO,พะเยา,พะเยา,19.13333,99.90000,180,07-24-2019,16:00:00,1003.66,12.00,0.00,23.7,959.15,75,38.70,7.4,28.5,29.33
48315,THA WANGPHA,ท่าวังผา,น่าน,19.11056,100.80250,180,07-24-2019,16:00:00,1004.63,10.00,0.20,25.0,978.19,80,14.90,5.6,28.7,31.66
48324,THOEN,เถิน,ลำปาง,17.63661,99.24475,120,07-24-2019,16:00:00,1005.47,15.00,0.80,25.0,983.86,84,1.10,1.9,28.0,31.67
48325,MAE SARIANG,แม่สะเรียง,แม่ฮ่องสอน,18.16667,97.93333,000,07-24-2019,16:00:00,1006.49,5.00,3.60,25.3,982.38,96,12.40,0.0,26.0,32.20
48327,CHIANG MAI,เชียงใหม่,เชียงใหม่,18.79000,98.97694,000,07-24-2019,16:00:00,1005.53,10.00,13.50,23.5,970.96,92,22.80,0.0,25.0,29.00
48328,LAMPANG,ลำปาง,ลำปาง,18.28333,99.51667,000,07-24-2019,16:00:00,1005.45,10.00,27.80,24.5,978.01,87,29.50,0.0,26.8,30.72
48329,LAMPHUN,ลำพูน,ลำพูน,18.56722,99.03389,000,07-24-2019,16:00:00,1005.17,9.00,2.50,24.9,971.82,86,5.30,0.0,27.5,31.52
48330,PHRAE,แพร่,แพร่,18.16667,100.16667,190,07-24-2019,16:00:00,1005.38,5.00,12.10,24.8,986.87,94,17.60,1.9,25.8,31.27
48331,NAN,น่าน,น่าน,18.77972,100.77778,260,07-24-2019,16:00:00,1004.30,10.00,0.01,24.1,981.74,74,48.70,5.6,29.1,29.93
48333,NAN AGROMET.,น่าน สกษ.,น่าน,18.86667,100.75000,000,07-24-2019,16:00:00,1004.24,8.00,1.80,25.1,974.63,83,17.50,0.0,28.2,31.79
48334,LAMPANG AGROMET.,ลำปาง สกษ.,ลำปาง,18.31667,99.28333,000,07-24-2019,16:00:00,1005.19,6.00,4.00,24.6,969.91,84,13.20,0.0,27.5,30.97
48350,LOEI AGROMET.,เลย สกษ.,เลย,17.40000,101.73333,100,07-24-2019,16:00:00,1003.76,16.00,0.00,23.6,974.40,73,2.20,5.6,29.0,29.19
48351,UTTARADIT,อุตรดิตถ์,อุตรดิตถ์,17.61667,100.10000,000,07-24-2019,16:00:00,1005.35,8.00,2.30,24.9,998.10,80,4.60,0.0,28.6,31.46
48352,NONG KHAI,หนองคาย,หนองคาย,17.86717,102.73303,250,07-24-2019,16:00:00,1003.71,20.00,0.00,25.6,984.13,74,34.00,14.8,30.7,32.88
48353,LOEI,เลย,เลย,17.45000,101.73333,000,07-24-2019,16:00:00,1004.19,15.00,0.10,23.0,975.90,68,2.90,0.0,29.6,28.15
48354,UDON THANI,อุดรธานี,อุดรธานี,17.38333,102.80000,210,07-24-2019,16:00:00,1004.06,15.00,0.10,25.1,984.16,75,5.60,7.4,30.1,31.93
48355,SAKON NAKHON AGROMET.,สกลนคร สกษ.,สกลนคร,17.12503,104.06100,260,07-24-2019,16:00:00,1004.92,12.00,0.00,23.7,983.52,66,21.60,11.1,30.8,29.37
48356,SAKON NAKHON,สกลนคร,สกลนคร,17.15000,104.13333,230,07-24-2019,16:00:00,1003.64,15.00,0.00,23.4,984.46,65,38.90,7.4,30.6,28.70
48357,NAKHON PHANOM,นครพนม,นครพนม,17.41083,104.78250,000,07-24-2019,16:00:00,1004.58,12.00,0.00,26.1,987.97,86,52.90,0.0,28.6,33.74
48358,NAKHON PHANOM AGROMET.,นครพนม สกษ.,นครพนม,17.44306,104.77361,000,07-24-2019,16:00:00,1004.69,12.00,0.01,26.1,987.42,88,44.00,0.0,28.4,33.90
48360,NONG BUA LAM PHU,หนองบัวลำภู,หนองบัวลำภู,17.23250,102.42944,270,07-24-2019,16:00:00,1003.19,13.00,0.00,22.4,977.82,62,4.80,13.0,30.5,27.14
48372,SUKHOTHAI*,สุโขทัย,สุโขทัย,17.10611,99.80000,000,07-24-2019,16:00:00,1005.82,10.00,2.50,22.5,1000.14,57,2.90,0.0,32.0,27.27
48373,SI SAMRONG AGROMET.,ศรีสำโรง สกษ.,สุโขทัย,17.16136,99.86167,220,07-24-2019,16:00:00,1005.06,12.00,0.00,22.7,998.98,58,3.70,11.1,32.0,27.55
48374,LOM SAK,หล่มสัก,เพชรบูรณ์,16.77361,101.24944,000,07-24-2019,16:00:00,1004.90,10.00,0.00,24.0,988.69,68,4.00,0.0,30.5,29.89
48375,MAE SOT,แม่สอด,ตาก,16.65917,98.55083,240,07-24-2019,16:00:00,1005.11,10.00,0.20,22.9,982.87,76,35.30,5.6,27.5,28.00
48376,TAK,ตาก,ตาก,16.87833,99.14333,260,07-24-2019,16:00:00,1005.92,10.00,0.00,22.1,991.71,61,2.30,16.7,30.5,26.60
48377,BHUMIBOL DAM,เขื่อนภูมิพล,ตาก,17.24389,99.00250,120,07-24-2019,16:00:00,1004.65,7.00,0.00,22.9,988.53,61,2.00,11.1,31.2,27.93
48378,PHITSANULOK,พิษณุโลก,พิษณุโลก,16.79481,100.27930,200,07-24-2019,16:00:00,1005.34,10.00,0.00,24.8,1000.20,67,1.20,5.6,31.6,31.27
48379,PHETCHABUN,เพชรบูรณ์,เพชรบูรณ์,16.43333,101.15000,000,07-24-2019,16:00:00,1003.75,10.00,0.00,24.9,990.73,74,4.70,0.0,30.2,31.56
48380,KAMPHAENG PHET,กำแพงเพชร,กำแพงเพชร,16.48681,99.52697,300,07-24-2019,16:00:00,1005.27,10.00,0.00,23.2,996.12,59,2.90,1.9,32.3,28.41
48381,KHON KAEN,ขอนแก่น,ขอนแก่น,16.46111,102.78972,230,07-24-2019,16:00:00,1004.46,9.00,0.60,24.3,983.05,71,3.20,5.6,30.0,30.31
48382,MAHASARAKHAM,มหาสารคาม,มหาสารคาม,16.24722,103.06805,000,07-24-2019,16:00:00,1004.53,10.00,0.00,24.6,987.34,66,0.50,0.0,31.7,30.90
48383,MUKDAHAN,มุกดาหาร,มุกดาหาร,16.54139,104.72889,260,07-24-2019,16:00:00,1003.74,12.00,0.80,24.7,987.93,90,16.00,3.7,26.6,31.16
48384,THA PHRA AGROMET.,ท่าพระ สกษ.,ขอนแก่น,16.33333,102.81667,270,07-24-2019,16:00:00,1003.61,9.00,0.01,24.4,985.03,69,1.60,1.9,30.8,30.49
48385,UMPHANG,อุ้มผาง,ตาก,16.02472,98.86444,000,07-24-2019,16:00:00,1006.37,10.00,2.30,21.8,955.40,73,9.90,0.0,27.0,26.06
48386,PICHIT AGROMET.,พิจิตร สกษ.,พิจิตร,16.43806,100.29250,210,07-24-2019,16:00:00,1004.92,8.00,0.00,22.3,1001.04,55,0.10,14.8,32.5,26.86
48387,DOI MU SOE AGROMET.,ดอยมูเซอร์ สกษ.,ตาก,16.75000,98.93333,250,07-24-2019,16:00:00,1005.90,6.00,0.01,19.7,911.45,80,12.40,14.8,23.3,22.97
48390,KALASIN,กาฬสินธุ์,กาฬสินธุ์,16.33250,103.58833,000,07-24-2019,16:00:00,1004.25,8.00,0.50,26.1,988.50,77,23.10,0.0,30.6,33.85
48400,NAKHON SAWAN,นครสวรรค์ ,นครสวรรค์,15.67183,100.13236,300,07-24-2019,16:00:00,1005.22,10.00,0.00,23.7,1001.28,56,0.01,14.8,33.6,29.33
48401,TAKFA AGROMET.,ตากฟ้า สกษ.,นครสวรรค์,15.34944,100.53028,240,07-24-2019,16:00:00,1005.58,7.00,0.50,22.8,995.12,56,0.50,3.7,32.7,27.80
48402,CHAINAT AGROMET.,ชัยนาท สกษ.,ชัยนาท,15.15000,100.18333,000,07-24-2019,16:00:00,1005.52,10.00,3.60,24.9,1003.61,81,3.60,0.0,28.5,31.54
48403,CHAIYAPHUM,ชัยภูมิ,ชัยภูมิ,15.80000,102.03333,270,07-24-2019,16:00:00,1004.39,10.00,0.00,21.7,983.91,55,0.01,5.6,31.9,25.99
48404,ROI ET AGROMET.,ร้อยเอ็ด สกษ.,ร้อยเอ็ด,16.07322,103.60844,220,07-24-2019,16:00:00,1003.98,11.00,0.00,24.3,986.62,66,4.30,7.4,31.3,30.37
48405,ROI ET,ร้อยเอ็ด,ร้อยเอ็ด,16.02000,103.74389,250,07-24-2019,16:00:00,1003.88,10.00,0.00,24.2,987.99,66,6.60,5.6,31.2,30.16
48407,UBON RATCHATHANI,อุบลราชธานี (ศูนย์ฯ),อุบลราชธานี,15.25000,104.86667,220,07-24-2019,16:00:00,1005.16,10.00,16.70,23.6,991.11,86,69.40,3.7,26.1,29.15
48408,UBON RATCHATHANI AGROMET.,อุบลราชธานี สกษ.,อุบลราชธานี,15.23914,105.02350,000,07-24-2019,16:00:00,1005.71,7.00,11.00,25.1,990.88,92,59.20,0.0,26.5,31.79
48409,SI SAKET AGROMET.,ศรีสะเกษ,ศรีสะเกษ,15.00000,104.05000,170,07-24-2019,16:00:00,1005.58,10.00,0.00,25.2,991.06,77,2.70,5.6,29.7,31.97
48410,UTHAITHANI,อุทัยธานี,อุทัยธานี,15.37417,100.03889,"{'@attributes': {'Unit': 'degree'}, '0': '   '}",07-24-2019,16:00:00,1005.10,10.00,0.00,19.9,1002.16,42,0.01,0.0,34.6,23.23
48413,WICHIAN BURI,วิเชียรบุรี,เพชรบูรณ์,15.65700,101.10800,000,07-24-2019,16:00:00,1004.79,10.00,0.20,24.6,996.88,83,0.20,0.0,27.8,31.00
48415,AYUTTHAYA,พระนครศรีอยุธยา,พระนครศรีอยุธยา,14.53472,100.72500,250,07-24-2019,16:00:00,1005.71,7.00,0.00,23.6,1004.62,60,0.00,9.3,32.2,29.06
48416,THA TUM,ท่าตูม,สุรินทร์,15.31667,103.68333,000,07-24-2019,16:00:00,1007.10,9.00,0.00,26.6,992.67,71,0.00,0.0,32.4,34.76
48417,NAKORNNAYOK,นครนายก,นครนายก,14.36222,101.39278,280,07-24-2019,16:00:00,1003.69,8.00,0.00,20.0,870.97,79,1.00,9.3,23.9,23.42
48418,BUA CHUM,บัวชุม  ,ลพบุรี,15.26667,101.18736,070,07-24-2019,16:00:00,1005.44,10.00,7.40,25.7,999.57,94,7.40,3.7,26.8,32.94
48419,PATHUMTHANI,ปทุมธานี สกษ.,ปทุมธานี,14.10000,100.61667,230,07-24-2019,16:00:00,1005.67,9.00,0.00,26.3,1004.88,68,0.00,16.7,33.0,34.27
48420,Samut Prakarn,สมุทรปราการ สกษ.,สมุทรปราการ,13.51667,100.76167,230,07-24-2019,16:00:00,1006.10,10.00,0.00,24.7,1005.66,71,3.50,31.5,30.7,31.15
48421,THONG PHAPHUM,ทองผาภูมิ,กาญจนบุรี,14.74222,98.63639,000,07-24-2019,16:00:00,1008.35,5.00,3.50,25.1,997.01,92,17.50,0.0,26.5,31.79
48425,SUPHAN BURI,สุพรรณบุรี,สุพรรณบุรี,14.47444,100.13889,000,07-24-2019,16:00:00,1005.74,12.00,1.60,24.9,1004.74,75,1.60,0.0,29.7,31.40
48426,LOP BURI,ลพบุรี,ลพบุรี,14.79972,100.64500,270,07-24-2019,16:00:00,1005.43,8.00,0.00,21.5,1003.63,59,0.00,13.0,30.4,25.62
48427,U THONG AGROMET.,อู่ทอง สกษ.,สุพรรณบุรี,14.30361,99.86472,000,07-24-2019,16:00:00,1005.63,9.00,2.50,25.0,1004.87,69,2.50,0.0,31.4,31.72
48429,SUVARNABHUMI AIRPORT,สนามบินสุวรรณภูมิ,สมุทรปราการ,13.68639,100.76750,240,07-24-2019,16:00:00,1007.52,1.50,18.00,24.0,1006.81,94,24.00,22.2,25.0,29.79
48430,PRACHIN BURI,ปราจีนบุรี,ปราจีนบุรี,14.05842,101.36930,000,07-24-2019,16:00:00,1005.32,7.00,2.40,26.8,1004.63,77,2.80,0.0,31.2,35.15
48431,NAKHON RATCHASIMA,นครราชสีมา,นครราชสีมา,14.96830,102.08603,250,07-24-2019,16:00:00,1004.17,11.00,0.00,23.8,983.59,54,0.01,7.4,34.5,29.46
48432,SURIN,สุรินทร์,สุรินทร์,14.88333,103.50000,270,07-24-2019,16:00:00,1004.40,13.00,0.00,22.9,988.05,55,0.00,9.3,33.0,27.84
48433,SURIN AGROMET.,สุรินทร์ สกษ.,สุรินทร์,14.88333,103.45000,270,07-24-2019,16:00:00,1004.72,9.00,0.00,23.5,988.67,56,0.70,7.4,33.4,28.92
48434,CHOK CHAI,โชคชัย,นครราชสีมา,14.71889,102.16861,240,07-24-2019,16:00:00,1004.37,10.00,0.00,21.5,983.07,48,0.01,13.0,34.0,25.63
48435,PAKCHONG AGROMET.,ปากช่อง สกษ.,นครราชสีมา,14.64389,101.33194,250,07-24-2019,16:00:00,1005.12,10.00,0.00,21.2,962.42,58,0.10,18.5,30.3,25.17
48436,NANG RONG,นางรอง,บุรีรัมย์,14.58333,102.80000,230,07-24-2019,16:00:00,1004.50,10.00,0.00,22.6,984.42,53,0.20,14.8,33.5,27.43
48437,BURIRUM,บุรีรัมย์,บุรีรัมย์,15.22575,103.24808,260,07-24-2019,16:00:00,1005.99,10.00,0.00,25.1,985.51,69,0.00,7.4,31.6,31.85
48438,SAMUTSONGKRAM,สมุทรสงคราม,สมุทรสงคราม,13.40778,100.03222,110,07-24-2019,16:00:00,1006.47,10.00,25.80,24.7,1006.03,92,25.80,3.7,26.1,31.03
48439,KABIN BURI,กบินทร์บุรี,ปราจีนบุรี,13.98333,101.70722,000,07-24-2019,16:00:00,1005.63,9.00,9.70,27.2,1004.22,93,11.70,0.0,28.5,36.17
48440,SA KAEW,สระแก้ว,สระแก้ว,13.78889,102.03472,000,07-24-2019,16:00:00,1006.36,7.00,8.40,25.7,1001.43,95,8.90,0.0,26.6,33.10
48450,KANCHANA BURI,กาญจนบุรี,กาญจนบุรี,14.02250,99.53583,320,07-24-2019,16:00:00,1005.59,12.00,0.00,24.0,1002.36,62,0.20,7.4,32.3,29.83
48451,NAKHONPATHOM,นครปฐม,นครปฐม,14.01167,99.97000,210,07-24-2019,16:00:00,1005.97,10.00,0.00,25.4,1004.88,69,3.70,3.7,31.9,32.48
48453,BANG NA AGROMET.,กรุงเทพฯ บางนา สกษ.,กรุงเทพมหานคร,13.66639,100.60611,200,07-24-2019,16:00:00,1006.90,7.00,15.60,24.4,1006.60,89,36.30,11.1,26.4,30.51
48454,BANGKOK PORT (KLONG TOEI),กรุงเทพฯ ท่าเรือคลองเตย,กรุงเทพมหานคร,13.70694,100.56805,250,07-24-2019,16:00:00,1006.98,7.00,3.80,24.5,1006.29,87,10.80,14.8,27.0,30.83
48455,BANGKOK METROPOLIS,กรุงเทพมหานคร,กรุงเทพมหานคร,13.72639,100.56000,260,07-24-2019,16:00:00,1006.87,8.00,0.20,23.8,1006.39,72,5.50,11.1,29.3,29.49
48456,DON MUANG AIRPORT,สนามบินดอนเมือง,กรุงเทพมหานคร,13.91917,100.60500,250,07-24-2019,16:00:00,1006.10,10.00,0.00,22.7,1004.72,58,21.80,24.1,32.0,27.55
48457,PILOT STATION,นำร่อง,สมุทรปราการ,13.39389,100.59944,290,07-24-2019,16:00:00,1006.50,10.00,0.00,25.6,1004.84,83,0.00,13.0,28.7,32.79
48458,CHACHOENGSAO,ฉะเชิงเทรา,ฉะเชิงเทรา,13.51556,101.45833,180,07-24-2019,16:00:00,1007.47,10.00,0.01,23.0,999.57,63,0.01,3.7,31.0,28.09
48459,CHON BURI,ชลบุรี,ชลบุรี,13.36667,100.98333,000,07-24-2019,16:00:00,1005.77,12.00,0.00,25.7,1005.49,69,15.50,0.0,32.0,32.99
48460,KO SICHANG,เกาะสีชัง,ชลบุรี,13.16167,100.80194,270,07-24-2019,16:00:00,1006.04,10.00,0.00,26.6,1002.95,80,0.00,9.3,30.5,34.82
48461,PHATTHAYA,พัทยา,ชลบุรี,12.92000,100.86944,240,07-24-2019,16:00:00,1006.17,12.00,0.00,23.7,999.33,65,0.00,5.6,31.2,29.32
48462,ARANYA PRATHET,อรัญประเทศ,สระแก้ว,13.70000,102.58333,250,07-24-2019,16:00:00,1005.81,8.00,0.00,24.7,1000.27,76,1.80,3.7,29.3,31.16
48463,LAEM CHABANG,แหลมฉบัง,ชลบุรี,13.07694,100.87583,240,07-24-2019,16:00:00,1006.73,8.00,0.00,23.9,997.54,66,0.00,11.1,30.9,29.56
48464,RATCHA BURI,ราชบุรี,ราชบุรี,13.48931,99.79239,000,07-24-2019,16:00:00,1007.94,14.00,31.50,26.5,1006.68,92,31.50,0.0,27.9,34.60
48465,PHETCHA BURI,เพชรบุรี,เพชรบุรี,12.99944,100.06056,060,07-24-2019,16:00:00,1006.62,11.00,31.80,23.6,1006.19,89,31.80,5.6,25.5,29.11
48474,NONG PHLUB AGROMET.,หนองพลับ สกษ.,ประจวบคีรีขันธ์,12.58333,99.73333,360,07-24-2019,16:00:00,1005.95,10.00,0.00,20.8,993.97,47,0.00,11.1,33.7,24.51
48475,HUA HIN,หัวหิน,ประจวบคีรีขันธ์,12.58611,99.96250,120,07-24-2019,16:00:00,1006.05,10.00,0.00,27.4,1005.35,79,0.00,7.4,31.4,36.51
48477,SATTAHIP,สัตหีบ,ชลบุรี,12.68333,100.98333,240,07-24-2019,16:00:00,1006.57,10.00,0.00,22.5,1004.18,55,0.00,11.1,32.7,27.25
48478,RAYONG,ระยอง,ระยอง,12.63222,101.34361,250,07-24-2019,16:00:00,1006.40,10.00,0.00,25.3,1005.89,71,0.00,14.8,31.2,32.18
48479,HUAI PONG AGROMET.,ห้วยโป่ง สกษ.,ระยอง,12.73333,101.13333,250,07-24-2019,16:00:00,1005.81,11.00,0.00,23.3,1000.74,61,0.00,7.4,31.7,28.63
48480,CHANTHA BURI,จันทบุรี,จันทบุรี,12.61667,102.11333,240,07-24-2019,16:00:00,1006.62,8.00,0.00,24.1,1006.22,64,27.50,9.3,31.8,29.96
48481,PHLIU  AGROMET.,พลิ้ว สกษ.,จันทบุรี,12.50861,102.17305,230,07-24-2019,16:00:00,1006.82,10.00,0.00,24.5,1004.09,68,54.60,3.7,31.2,30.73
48500,PRACHUAP KHIRIKHAN,ประจวบคีรีขันธ์,ประจวบคีรีขันธ์,11.83333,99.83333,340,07-24-2019,16:00:00,1006.13,12.00,0.00,20.4,1005.36,40,0.00,18.5,36.0,23.98
48501,TRAD,ตราด,ตราด,11.76667,102.88333,300,07-24-2019,16:00:00,1006.82,8.00,0.00,26.1,1006.36,75,45.00,5.6,31.0,33.81
48517,CHUMPHON,ชุมพร,ชุมพร,10.49875,99.18847,220,07-24-2019,16:00:00,1006.66,11.00,0.00,23.8,1006.00,56,0.00,7.4,33.8,29.46
48520,SAWI AGROMET.,สวี สกษ.,ชุมพร,10.33333,99.10000,250,07-24-2019,16:00:00,1006.59,9.00,0.00,21.6,1005.09,54,0.00,7.4,32.2,25.74
48532,RANONG,ระนอง,ระนอง,9.98333,98.61667,230,07-24-2019,16:00:00,1008.34,10.00,0.00,23.1,1007.44,60,0.00,7.4,31.8,28.27
48550,KO SAMUI,เกาะสมุย,สุราษฎร์ธานี,9.46667,100.05000,080,07-24-2019,16:00:00,1007.24,10.00,0.00,27.3,1006.56,74,0.00,18.5,32.7,36.36
48551,SURAT THANI,สุราษฎร์ธานี,สุราษฎร์ธานี,9.13556,99.15194,200,07-24-2019,16:00:00,1007.40,10.00,0.00,24.1,1006.62,58,0.00,9.3,33.4,30.07
48552,NAKHONSI THAMMARAT,นครศรีธรรมราช,นครศรีธรรมราช,8.53778,99.96389,330,07-24-2019,16:00:00,1008.35,4.00,11.60,22.3,1007.71,87,11.60,7.4,24.5,26.84
48554,NAKHONSI THAMMARAT AGROMET.,นครศรีธรรมราช สกษ.,นครศรีธรรมราช,8.35931,100.00000,270,07-24-2019,16:00:00,1008.07,10.00,6.50,24.4,1007.66,88,6.50,7.4,26.6,30.62
48555,SURAT THANI AGROMET.,สุราษฎร์ธานี สกษ.,สุราษฎร์ธานี,9.10000,99.63333,270,07-24-2019,16:00:00,1009.42,7.00,0.00,23.0,1005.27,59,0.00,16.7,32.0,28.10
48556,PHRA SANG,พระแสง สอท.,สุราษฎร์ธานี,8.57022,99.25825,000,07-24-2019,16:00:00,1008.57,12.00,18.80,24.4,1006.96,87,18.80,0.0,26.7,30.53
48557,CHAWANG,ฉวาง,นครศรีธรรมราช,8.43194,99.51194,000,07-24-2019,16:00:00,1009.35,8.00,0.20,24.3,1005.85,93,0.20,0.0,25.6,30.36
48560,PHATTHALUNG AGROMET.,พัทลุง สกษ.,พัทลุง,7.58333,100.16667,310,07-24-2019,16:00:00,1007.59,8.00,4.10,24.6,1006.24,84,4.10,3.7,27.5,30.97
48561,TAKUA PA,ตะกั่วป่า,พังงา,8.68417,98.25222,240,07-24-2019,16:00:00,1008.24,10.00,0.00,25.0,1007.37,67,0.00,9.3,31.8,31.68
48563,KRABI,กระบี่,กระบี่,8.10361,98.97528,000,07-24-2019,16:00:00,1008.64,10.00,0.00,24.1,1005.09,77,0.00,0.0,28.4,29.96
48564,PHUKET,ภูเก็ต,ภูเก็ต,7.88333,98.40000,210,07-24-2019,16:00:00,1008.25,10.00,0.00,24.7,1007.82,68,0.00,5.6,31.2,31.02
48565,PHUKET AIRPORT,ภูเก็ต (ศูนย์ฯ),ภูเก็ต,8.14500,98.31444,240,07-24-2019,16:00:00,1008.28,10.00,0.00,25.2,1007.30,71,0.00,11.1,31.0,32.05
48566,KO LANTA,เกาะลันตา,กระบี่,7.53333,99.05000,180,07-24-2019,16:00:00,1008.42,10.00,0.00,24.8,1007.62,72,0.00,14.8,30.5,31.31
48567,TRANG AIRPORT,ตรัง,ตรัง,7.51667,99.61667,200,07-24-2019,16:00:00,1008.92,10.00,0.01,23.1,1007.11,76,6.80,11.1,27.6,28.18
48568,SONGKHLA,สงขลา,สงขลา,7.18211,100.60769,120,07-24-2019,16:00:00,1007.78,10.00,14.70,23.3,1007.03,83,14.70,3.7,26.4,28.64
48569,HAT YAI AIRPORT,หาดใหญ่,สงขลา,6.91667,100.43333,260,07-24-2019,16:00:00,1008.01,10.00,5.40,24.5,1004.00,88,5.40,9.3,26.7,30.81
48570,SATUN,สตูล,สตูล,6.65000,100.08333,000,07-24-2019,16:00:00,1008.78,10.00,0.00,24.8,1008.10,72,3.90,0.0,30.5,31.31
48571,KHO HONG AGROMET.,คอหงษ์ สกษ.,สงขลา,7.00000,100.50000,000,07-24-2019,16:00:00,1008.42,10.00,8.60,24.4,1007.30,93,8.60,0.0,25.6,30.63
48574,SA DAO,สะเดา,สงขลา,6.79806,100.39056,240,07-24-2019,16:00:00,1008.05,12.00,0.00,25.0,1005.17,71,0.00,9.3,31.0,31.76
48580,PATTANI AIRPORT,ปัตตานี,ปัตตานี,6.78333,101.15000,000,07-24-2019,16:00:00,1006.67,8.00,0.00,25.7,1005.99,66,0.00,0.0,33.0,33.06
48581,YALA AGROMET.,ยะลา สกษ.,ยะลา,6.51667,101.28333,130,07-24-2019,16:00:00,1007.94,8.00,0.00,23.9,1003.82,79,18.50,5.6,28.0,29.74
48583,NARATHIWAT,นราธิวาส,นราธิวาส,6.41667,101.81667,070,07-24-2019,16:00:00,1007.55,10.00,0.00,24.6,1006.97,69,0.00,13.0,31.0,30.90
