WmoStationNumber,StationNameEnglish,StationNameThai,Province,Latitude,Longitude,StationPressure,Date,Time,WindSpeed,Rainfall24Hr,WindDirection,Rainfall,MeanSeaLevelPressure,AirTemperature,DewPoint,RelativeHumidity,VaporPressure,LandVisibility
48300,MAE HONG SON,แม่ฮ่องสอน,แม่ฮ่องสอน,19.29897,97.97578,975.75,07-23-2019,01:00:00,0.0,0.00,000,0.00,1006.65,26.1,23.9,88,29.68,10.00
48302,DOI ANG KANG,ดอยอ่างขาง,เชียงใหม่,19.93139,99.04833,844.37,07-23-2019,01:00:00,14.8,2.70,270,0.00,1005.55,18.5,17.3,93,19.79,8.00
48303,CHIANG RAI,เชียงราย,เชียงราย,19.96139,99.88139,961.92,07-23-2019,01:00:00,0.0,5.00,000,0.00,1005.52,25.3,24.0,92,29.80,10.00
48304,CHAING RAI AGROMET.,เชียงราย สกษ.,เชียงราย,19.87083,99.78278,960.25,07-23-2019,01:00:00,0.0,0.80,000,0.20,1005.81,25.0,24.0,94,29.79,10.00
48307,THUNG CHANG,ทุ่งช้าง,น่าน,19.41194,100.88353,968.82,07-23-2019,01:00:00,0.0,0.40,000,0.40,1006.60,24.4,24.2,99,30.28,6.00
48310,PHAYAO,พะเยา,พะเยา,19.13333,99.90000,960.77,07-23-2019,01:00:00,3.7,0.00,060,0.00,1005.49,27.6,23.1,76,28.18,8.00
48315,THA WANGPHA,ท่าวังผา,น่าน,19.11056,100.80250,979.60,07-23-2019,01:00:00,0.0,0.10,000,0.00,1006.18,27.5,25.4,88,32.36,8.00
48324,THOEN,เถิน,ลำปาง,17.63661,99.24475,985.22,07-23-2019,01:00:00,3.7,0.00,150,0.00,1006.85,28.0,21.3,67,25.24,15.00
48325,MAE SARIANG,แม่สะเรียง,แม่ฮ่องสอน,18.16667,97.93333,983.77,07-23-2019,01:00:00,0.0,0.30,000,0.00,1007.96,25.5,24.0,92,29.91,6.00
48327,CHIANG MAI,เชียงใหม่,เชียงใหม่,18.79000,98.97694,972.23,07-23-2019,01:00:00,0.0,0.00,000,0.00,1006.50,28.0,20.4,63,23.97,10.00
48328,LAMPANG,ลำปาง,ลำปาง,18.28333,99.51667,979.20,07-23-2019,01:00:00,0.0,0.00,000,0.00,1006.61,27.5,22.0,72,26.43,10.00
48329,LAMPHUN,ลำพูน,ลำพูน,18.56722,99.03389,972.98,07-23-2019,01:00:00,0.0,0.00,000,0.00,1006.22,28.8,21.7,65,25.88,10.00
48330,PHRAE,แพร่,แพร่,18.16667,100.16667,987.48,07-23-2019,01:00:00,11.1,0.01,270,0.00,1005.86,28.1,23.6,77,29.11,12.00
48331,NAN,น่าน,น่าน,18.77972,100.77778,982.89,07-23-2019,01:00:00,0.0,0.20,000,0.00,1005.57,27.8,23.3,76,28.55,10.00
48333,NAN AGROMET.,น่าน สกษ.,น่าน,18.86667,100.75000,976.48,07-23-2019,01:00:00,0.0,0.00,000,0.00,1006.23,27.4,23.9,81,29.69,8.00
48334,LAMPANG AGROMET.,ลำปาง สกษ.,ลำปาง,18.31667,99.28333,971.13,07-23-2019,01:00:00,0.0,0.00,000,0.00,1006.39,28.0,21.3,67,25.24,6.00
48350,LOEI AGROMET.,เลย สกษ.,เลย,17.40000,101.73333,976.26,07-23-2019,01:00:00,0.0,0.00,000,0.00,1005.97,26.0,23.1,84,28.18,10.00
48351,UTTARADIT,อุตรดิตถ์,อุตรดิตถ์,17.61667,100.10000,999.46,07-23-2019,01:00:00,0.0,0.50,000,0.00,1006.73,28.2,24.3,80,30.40,9.00
48352,NONG KHAI,หนองคาย,หนองคาย,17.86717,102.73303,985.39,07-23-2019,01:00:00,0.0,0.00,000,0.00,1005.14,28.5,25.7,85,32.96,10.00
48353,LOEI,เลย,เลย,17.45000,101.73333,977.52,07-23-2019,01:00:00,0.0,0.00,000,0.00,1006.11,27.0,22.9,78,27.88,12.00
48354,UDON THANI,อุดรธานี,อุดรธานี,17.38333,102.80000,985.69,07-23-2019,01:00:00,1.9,0.01,150,0.01,1005.75,28.0,24.1,79,30.01,12.00
48355,SAKON NAKHON AGROMET.,สกลนคร สกษ.,สกลนคร,17.12503,104.06100,985.64,07-23-2019,01:00:00,0.0,19.40,000,0.00,1007.49,25.2,24.2,94,30.15,10.00
48356,SAKON NAKHON,สกลนคร,สกลนคร,17.15000,104.13333,986.81,07-23-2019,01:00:00,0.0,20.50,000,0.00,1006.43,24.6,24.2,97,30.12,10.00
48357,NAKHON PHANOM,นครพนม,นครพนม,17.41083,104.78250,990.62,07-23-2019,01:00:00,3.7,43.70,100,0.00,1007.50,24.5,23.6,95,29.15,10.00
48358,NAKHON PHANOM AGROMET.,นครพนม สกษ.,นครพนม,17.44306,104.77361,990.30,07-23-2019,01:00:00,0.0,41.80,000,0.10,1007.92,23.5,22.8,96,27.66,10.00
48360,NONG BUA LAM PHU,หนองบัวลำภู,หนองบัวลำภู,17.23250,102.42944,979.40,07-23-2019,01:00:00,0.0,0.00,000,0.00,1005.05,27.6,23.8,80,29.52,11.00
48373,SI SAMRONG AGROMET.,ศรีสำโรง สกษ.,สุโขทัย,17.16136,99.86167,999.46,07-23-2019,01:00:00,0.0,0.20,000,0.00,1005.62,28.3,25.5,85,32.55,12.00
48374,LOM SAK,หล่มสัก,เพชรบูรณ์,16.77361,101.24944,990.57,07-23-2019,01:00:00,0.0,0.00,000,0.00,1007.01,27.0,24.1,84,30.02,8.00
48375,MAE SOT,แม่สอด,ตาก,16.65917,98.55083,983.43,07-23-2019,01:00:00,5.6,4.10,290,0.00,1005.79,26.0,24.3,90,30.30,10.00
48376,TAK,ตาก,ตาก,16.87833,99.14333,993.04,07-23-2019,01:00:00,7.4,0.01,300,0.00,1007.37,28.3,23.8,77,29.49,8.00
48377,BHUMIBOL DAM,เขื่อนภูมิพล,ตาก,17.24389,99.00250,990.16,07-23-2019,01:00:00,0.0,0.20,000,0.00,1006.44,28.7,22.0,67,26.48,10.00
48378,PHITSANULOK,พิษณุโลก,พิษณุโลก,16.79481,100.27930,1001.18,07-23-2019,01:00:00,0.0,0.00,000,0.00,1006.39,28.0,26.2,90,33.94,10.00
48379,PHETCHABUN,เพชรบูรณ์,เพชรบูรณ์,16.43333,101.15000,992.29,07-23-2019,01:00:00,0.0,0.40,000,0.00,1005.44,27.4,24.5,84,30.78,10.00
48380,KAMPHAENG PHET,กำแพงเพชร,กำแพงเพชร,16.48681,99.52697,997.46,07-23-2019,01:00:00,0.0,0.01,000,0.00,1006.75,28.0,26.2,90,33.94,10.00
48381,KHON KAEN,ขอนแก่น,ขอนแก่น,16.46111,102.78972,985.15,07-23-2019,01:00:00,0.0,0.00,000,0.00,1006.69,28.8,23.4,73,28.81,10.00
48382,MAHASARAKHAM,มหาสารคาม,มหาสารคาม,16.24722,103.06805,989.64,07-23-2019,01:00:00,0.0,4.60,000,0.00,1007.15,26.8,24.2,86,30.18,10.00
48383,MUKDAHAN,มุกดาหาร,มุกดาหาร,16.54139,104.72889,990.77,07-23-2019,01:00:00,0.0,10.10,000,0.00,1006.71,25.0,23.5,92,29.00,10.00
48384,THA PHRA AGROMET.,ท่าพระ สกษ.,ขอนแก่น,16.33333,102.81667,986.89,07-23-2019,01:00:00,3.7,0.01,160,0.00,1005.73,27.4,24.4,84,30.50,8.00
48385,UMPHANG,อุ้มผาง,ตาก,16.02472,98.86444,957.65,07-23-2019,01:00:00,0.0,0.00,000,0.00,1009.23,24.2,23.2,94,28.36,6.00
48386,PICHIT AGROMET.,พิจิตร สกษ.,พิจิตร,16.43806,100.29250,1002.29,07-23-2019,01:00:00,0.0,0.01,000,0.00,1006.23,28.5,27.0,91,35.58,8.00
48387,DOI MU SOE AGROMET.,ดอยมูเซอร์ สกษ.,ตาก,16.75000,98.93333,912.60,07-23-2019,01:00:00,9.3,1.30,230,0.00,1007.63,21.9,21.3,96,25.30,.90
48390,KALASIN,กาฬสินธุ์,กาฬสินธุ์,16.33250,103.58833,990.83,07-23-2019,01:00:00,0.0,1.30,000,0.00,1006.80,27.2,25.5,90,32.61,2.00
48400,NAKHON SAWAN,นครสวรรค์ ,นครสวรรค์,15.67183,100.13236,1002.69,07-23-2019,01:00:00,0.0,0.01,000,0.01,1006.70,29.0,27.2,90,36.06,9.00
48401,TAKFA AGROMET.,ตากฟ้า สกษ.,นครสวรรค์,15.34944,100.53028,997.09,07-23-2019,01:00:00,7.4,0.00,200,0.00,1007.70,28.9,25.4,81,32.34,7.00
48402,CHAINAT AGROMET.,ชัยนาท สกษ.,ชัยนาท,15.15000,100.18333,1004.95,07-23-2019,01:00:00,0.0,0.30,000,0.00,1006.87,28.4,25.6,85,32.75,8.00
48403,CHAIYAPHUM,ชัยภูมิ,ชัยภูมิ,15.80000,102.03333,986.02,07-23-2019,01:00:00,0.0,0.00,000,0.00,1006.67,29.9,23.1,67,28.17,10.00
48404,ROI ET AGROMET.,ร้อยเอ็ด สกษ.,ร้อยเอ็ด,16.07322,103.60844,988.98,07-23-2019,01:00:00,0.0,3.50,000,0.00,1006.74,25.2,23.9,92,29.62,10.00
48405,ROI ET,ร้อยเอ็ด,ร้อยเอ็ด,16.02000,103.74389,990.48,07-23-2019,01:00:00,0.0,4.20,000,0.10,1006.70,25.8,24.9,95,31.55,9.00
48407,UBON RATCHATHANI,อุบลราชธานี (ศูนย์ฯ),อุบลราชธานี,15.25000,104.86667,993.21,07-23-2019,01:00:00,0.0,22.10,000,1.20,1007.38,24.0,23.1,95,28.27,10.00
48408,UBON RATCHATHANI AGROMET.,อุบลราชธานี สกษ.,อุบลราชธานี,15.23914,105.02350,993.20,07-23-2019,01:00:00,0.0,16.00,000,1.40,1008.21,23.7,22.8,95,27.75,10.00
48409,SI SAKET AGROMET.,ศรีสะเกษ,ศรีสะเกษ,15.00000,104.05000,992.25,07-23-2019,01:00:00,3.7,2.20,140,0.00,1007.02,25.0,24.1,95,30.05,6.00
48410,UTHAITHANI,อุทัยธานี,อุทัยธานี,15.37417,100.03889,1003.46,07-23-2019,01:00:00,0.0,0.00,"{'0': '   ', '@attributes': {'Unit': 'degree'}}",0.00,1006.45,29.4,24.8,77,31.36,10.00
48413,WICHIAN BURI,วิเชียรบุรี,เพชรบูรณ์,15.65700,101.10800,998.48,07-23-2019,01:00:00,0.0,0.01,000,0.00,1006.38,28.7,24.5,78,30.82,7.00
48415,AYUTTHAYA,พระนครศรีอยุธยา,พระนครศรีอยุธยา,14.53472,100.72500,1006.41,07-23-2019,01:00:00,7.4,0.00,180,0.00,1007.51,29.9,27.3,86,36.22,6.00
48416,THA TUM,ท่าตูม,สุรินทร์,15.31667,103.68333,992.44,07-23-2019,01:00:00,0.0,4.00,000,0.00,1007.27,24.0,22.5,91,27.25,8.00
48417,NAKORNNAYOK,นครนายก,นครนายก,14.36222,101.39278,872.89,07-23-2019,01:00:00,3.7,0.20,060,0.00,1007.33,20.9,20.7,99,24.46,.10
48418,BUA CHUM,บัวชุม  ,ลพบุรี,15.26667,101.18736,1000.91,07-23-2019,01:00:00,3.7,0.00,200,0.00,1006.73,29.8,25.9,79,33.33,10.00
48419,PATHUMTHANI,ปทุมธานี สกษ.,ปทุมธานี,14.10000,100.61667,1006.62,07-23-2019,01:00:00,5.6,0.00,200,0.00,1007.42,29.8,28.3,92,38.45,8.00
48420,Samut Prakarn,สมุทรปราการ สกษ.,สมุทรปราการ,13.51667,100.76167,1007.22,07-23-2019,01:00:00,13.0,0.00,230,0.00,1007.66,29.5,25.7,80,33.00,10.00
48421,THONG PHAPHUM,ทองผาภูมิ,กาญจนบุรี,14.74222,98.63639,997.21,07-23-2019,01:00:00,0.0,0.20,000,0.00,1008.53,27.0,25.0,89,31.66,5.00
48425,SUPHAN BURI,สุพรรณบุรี,สุพรรณบุรี,14.47444,100.13889,1006.32,07-23-2019,01:00:00,0.0,0.00,000,0.00,1007.33,29.0,26.2,85,33.99,10.00
48426,LOP BURI,ลพบุรี,ลพบุรี,14.79972,100.64500,1005.60,07-23-2019,01:00:00,3.7,0.00,180,0.00,1007.41,29.1,25.9,83,33.33,7.00
48427,U THONG AGROMET.,อู่ทอง สกษ.,สุพรรณบุรี,14.30361,99.86472,1006.70,07-23-2019,01:00:00,0.0,0.00,000,0.00,1007.47,27.8,26.0,90,33.53,7.00
48429,SUVARNABHUMI AIRPORT,สนามบินสุวรรณภูมิ,สมุทรปราการ,13.68639,100.76750,1007.11,07-23-2019,01:00:00,11.1,0.00,180,0.00,1007.81,29.3,25.9,82,33.45,10.00
48430,PRACHIN BURI,ปราจีนบุรี,ปราจีนบุรี,14.05842,101.36930,1006.81,07-23-2019,01:00:00,0.0,0.00,000,0.00,1007.51,29.1,25.9,83,33.33,7.00
48431,NAKHON RATCHASIMA,นครราชสีมา,นครราชสีมา,14.96830,102.08603,985.88,07-23-2019,01:00:00,0.0,0.01,000,0.00,1006.85,29.5,24.9,77,31.56,10.00
48432,SURIN,สุรินทร์,สุรินทร์,14.88333,103.50000,990.55,07-23-2019,01:00:00,0.0,51.30,000,0.00,1007.44,24.0,23.4,97,28.78,7.00
48433,SURIN AGROMET.,สุรินทร์ สกษ.,สุรินทร์,14.88333,103.45000,991.17,07-23-2019,01:00:00,0.0,28.80,000,0.00,1007.76,24.2,23.6,97,29.13,6.00
48434,CHOK CHAI,โชคชัย,นครราชสีมา,14.71889,102.16861,985.00,07-23-2019,01:00:00,0.0,0.00,000,0.00,1006.76,28.2,23.7,77,29.30,10.00
48435,PAKCHONG AGROMET.,ปากช่อง สกษ.,นครราชสีมา,14.64389,101.33194,964.26,07-23-2019,01:00:00,7.4,0.00,210,0.00,1007.39,27.8,21.8,70,26.18,10.00
48436,NANG RONG,นางรอง,บุรีรัมย์,14.58333,102.80000,986.31,07-23-2019,01:00:00,0.0,3.40,000,0.00,1006.95,25.8,23.2,85,28.34,10.00
48437,BURIRUM,บุรีรัมย์,บุรีรัมย์,15.22575,103.24808,987.48,07-23-2019,01:00:00,11.1,1.40,210,0.00,1008.46,25.1,24.5,97,30.77,7.00
48438,SAMUTSONGKRAM,สมุทรสงคราม,สมุทรสงคราม,13.40778,100.03222,1007.39,07-23-2019,01:00:00,7.4,0.00,250,0.00,1007.82,29.3,25.9,82,33.45,10.00
48439,KABIN BURI,กบินทร์บุรี,ปราจีนบุรี,13.98333,101.70722,1006.16,07-23-2019,01:00:00,0.0,0.00,000,0.00,1007.57,27.4,25.7,90,33.01,6.00
48440,SA KAEW,สระแก้ว,สระแก้ว,13.78889,102.03472,1002.98,07-23-2019,01:00:00,0.0,0.00,000,0.00,1007.93,26.1,24.5,91,30.76,7.00
48450,KANCHANA BURI,กาญจนบุรี,กาญจนบุรี,14.02250,99.53583,1004.55,07-23-2019,01:00:00,0.0,0.00,000,0.00,1007.82,29.2,23.1,70,28.21,10.00
48451,NAKHONPATHOM,นครปฐม,นครปฐม,14.01167,99.97000,1006.68,07-23-2019,01:00:00,0.0,0.01,000,0.00,1007.78,28.3,26.2,88,33.99,10.00
48453,BANG NA AGROMET.,กรุงเทพฯ บางนา สกษ.,กรุงเทพมหานคร,13.66639,100.60611,1007.48,07-23-2019,01:00:00,7.4,0.00,210,0.00,1007.78,29.7,26.8,84,35.18,10.00
48455,BANGKOK METROPOLIS,กรุงเทพมหานคร,กรุงเทพมหานคร,13.72639,100.56000,1006.46,07-23-2019,01:00:00,0.0,0.00,000,0.00,1006.95,29.0,26.2,85,33.99,10.00
48456,DON MUANG AIRPORT,สนามบินดอนเมือง,กรุงเทพมหานคร,13.91917,100.60500,1006.26,07-23-2019,01:00:00,11.1,0.00,190,0.00,1007.66,29.1,26.9,88,35.38,10.00
48458,CHACHOENGSAO,ฉะเชิงเทรา,ฉะเชิงเทรา,13.51556,101.45833,1001.70,07-23-2019,01:00:00,3.7,0.00,220,0.00,1009.73,26.8,24.9,90,31.55,10.00
48459,CHON BURI,ชลบุรี,ชลบุรี,13.36667,100.98333,1007.03,07-23-2019,01:00:00,0.0,0.00,000,0.00,1007.31,29.3,26.1,83,33.74,10.00
48460,KO SICHANG,เกาะสีชัง,ชลบุรี,13.16167,100.80194,1004.36,07-23-2019,01:00:00,0.0,0.00,000,0.00,1007.48,29.0,25.9,83,33.41,10.00
48461,PHATTHAYA,พัทยา,ชลบุรี,12.92000,100.86944,1000.63,07-23-2019,01:00:00,5.6,0.00,240,0.00,1007.53,29.0,26.0,84,33.70,10.00
48462,ARANYA PRATHET,อรัญประเทศ,สระแก้ว,13.70000,102.58333,1001.89,07-23-2019,01:00:00,3.7,0.00,300,0.00,1007.49,27.1,24.1,84,29.93,7.00
48464,RATCHA BURI,ราชบุรี,ราชบุรี,13.48931,99.79239,1007.36,07-23-2019,01:00:00,3.7,0.00,240,0.00,1008.63,27.0,25.7,93,33.06,10.00
48465,PHETCHA BURI,เพชรบุรี,เพชรบุรี,12.99944,100.06056,1007.48,07-23-2019,01:00:00,0.0,0.00,000,0.00,1007.91,29.2,26.1,83,33.83,11.00
48474,NONG PHLUB AGROMET.,หนองพลับ สกษ.,ประจวบคีรีขันธ์,12.58333,99.73333,996.16,07-23-2019,01:00:00,0.0,0.00,000,0.00,1008.48,25.7,23.5,88,28.95,8.00
48475,HUA HIN,หัวหิน,ประจวบคีรีขันธ์,12.58611,99.96250,1007.18,07-23-2019,01:00:00,0.0,0.00,000,0.00,1007.89,28.2,24.8,82,31.23,10.00
48477,SATTAHIP,สัตหีบ,ชลบุรี,12.68333,100.98333,1005.30,07-23-2019,01:00:00,7.4,0.01,180,0.00,1007.73,28.6,25.5,83,32.59,10.00
48478,RAYONG,ระยอง,ระยอง,12.63222,101.34361,1007.58,07-23-2019,01:00:00,9.3,0.01,230,0.00,1008.09,29.5,26.0,81,33.58,10.00
48479,HUAI PONG AGROMET.,ห้วยโป่ง สกษ.,ระยอง,12.73333,101.13333,1002.80,07-23-2019,01:00:00,1.9,0.00,260,0.00,1007.92,29.0,25.3,81,32.26,10.00
48480,CHANTHA BURI,จันทบุรี,จันทบุรี,12.61667,102.11333,1007.96,07-23-2019,01:00:00,0.0,1.20,000,0.00,1008.37,27.6,25.9,91,33.41,7.00
48481,PHLIU  AGROMET.,พลิ้ว สกษ.,จันทบุรี,12.50861,102.17305,1006.06,07-23-2019,01:00:00,0.0,1.00,000,0.00,1008.84,26.8,26.1,96,33.79,8.00
48500,PRACHUAP KHIRIKHAN,ประจวบคีรีขันธ์,ประจวบคีรีขันธ์,11.83333,99.83333,1008.41,07-23-2019,01:00:00,0.0,0.00,000,0.00,1009.20,27.5,24.0,81,29.88,10.00
48501,TRAD,ตราด,ตราด,11.76667,102.88333,1007.24,07-23-2019,01:00:00,5.6,10.60,070,0.00,1007.70,25.0,24.3,96,30.32,7.00
48517,CHUMPHON,ชุมพร,ชุมพร,10.49875,99.18847,1008.31,07-23-2019,01:00:00,0.0,0.00,000,0.00,1009.00,26.5,23.9,86,29.62,8.00
48520,SAWI AGROMET.,สวี สกษ.,ชุมพร,10.33333,99.10000,1007.48,07-23-2019,01:00:00,0.0,0.00,000,0.00,1009.02,25.8,24.6,93,31.00,8.00
48532,RANONG,ระนอง,ระนอง,9.98333,98.61667,1008.73,07-23-2019,01:00:00,0.0,0.00,000,0.00,1009.66,25.5,23.6,89,29.11,10.00
48550,KO SAMUI,เกาะสมุย,สุราษฎร์ธานี,9.46667,100.05000,1008.90,07-23-2019,01:00:00,5.6,0.00,270,0.00,1009.59,27.8,25.8,89,33.25,10.00
48551,SURAT THANI,สุราษฎร์ธานี,สุราษฎร์ธานี,9.13556,99.15194,1009.00,07-23-2019,01:00:00,0.0,0.00,000,0.00,1009.81,24.5,23.0,91,28.11,8.00
48552,NAKHONSI THAMMARAT,นครศรีธรรมราช,นครศรีธรรมราช,8.53778,99.96389,1008.44,07-23-2019,01:00:00,0.0,0.00,000,0.00,1009.08,27.0,25.6,92,32.77,10.00
48554,NAKHONSI THAMMARAT AGROMET.,นครศรีธรรมราช สกษ.,นครศรีธรรมราช,8.35931,100.00000,1008.49,07-23-2019,01:00:00,0.0,0.00,000,0.00,1008.90,25.8,24.6,93,31.00,10.00
48555,SURAT THANI AGROMET.,สุราษฎร์ธานี สกษ.,สุราษฎร์ธานี,9.10000,99.63333,1006.90,07-23-2019,01:00:00,0.0,0.00,000,0.00,1011.14,26.2,24.6,91,30.94,6.00
48556,PHRA SANG,พระแสง สอท.,สุราษฎร์ธานี,8.57022,99.25825,1008.68,07-23-2019,01:00:00,0.0,0.00,000,0.00,1010.31,25.0,24.7,98,31.12,6.00
48557,CHAWANG,ฉวาง,นครศรีธรรมราช,8.43194,99.51194,1006.08,07-23-2019,01:00:00,0.0,0.00,000,0.00,1009.57,26.3,25.1,93,31.96,7.00
48560,PHATTHALUNG AGROMET.,พัทลุง สกษ.,พัทลุง,7.58333,100.16667,1008.54,07-23-2019,01:00:00,0.0,0.00,000,0.00,1009.90,24.8,23.3,92,28.64,8.00
48561,TAKUA PA,ตะกั่วป่า,พังงา,8.68417,98.25222,1008.61,07-23-2019,01:00:00,0.0,0.20,000,0.00,1009.50,26.0,24.6,92,30.84,10.00
48563,KRABI,กระบี่,กระบี่,8.10361,98.97528,1004.88,07-23-2019,01:00:00,0.0,0.00,000,0.00,1008.47,24.5,22.7,90,27.60,10.00
48564,PHUKET,ภูเก็ต,ภูเก็ต,7.88333,98.40000,1008.91,07-23-2019,01:00:00,0.0,0.00,000,0.00,1009.35,26.8,24.5,87,30.72,10.00
48565,PHUKET AIRPORT,ภูเก็ต (ศูนย์ฯ),ภูเก็ต,8.14500,98.31444,1008.01,07-23-2019,01:00:00,0.0,0.00,000,0.00,1009.01,25.5,23.9,91,29.64,10.00
48566,KO LANTA,เกาะลันตา,กระบี่,7.53333,99.05000,1008.69,07-23-2019,01:00:00,13.0,0.00,280,0.00,1009.52,25.3,24.3,94,30.34,10.00
48567,TRANG AIRPORT,ตรัง,ตรัง,7.51667,99.61667,1008.01,07-23-2019,01:00:00,0.0,7.60,000,0.00,1009.84,24.5,23.8,96,29.41,10.00
48568,SONGKHLA,สงขลา,สงขลา,7.18211,100.60769,1008.63,07-23-2019,01:00:00,3.7,0.00,270,0.00,1009.39,25.8,22.8,84,27.82,10.00
48569,HAT YAI AIRPORT,หาดใหญ่,สงขลา,6.91667,100.43333,1005.79,07-23-2019,01:00:00,0.0,2.40,000,0.00,1009.83,24.0,23.0,94,28.01,9.00
48570,SATUN,สตูล,สตูล,6.65000,100.08333,1010.17,07-23-2019,01:00:00,0.0,0.00,000,0.00,1010.86,25.0,24.1,95,30.05,10.00
48571,KHO HONG AGROMET.,คอหงษ์ สกษ.,สงขลา,7.00000,100.50000,1008.47,07-23-2019,01:00:00,0.0,5.00,000,0.00,1009.60,24.2,23.5,96,28.88,10.00
48574,SA DAO,สะเดา,สงขลา,6.79806,100.39056,1006.84,07-23-2019,01:00:00,0.0,0.01,000,0.00,1009.78,24.7,23.7,94,29.25,10.00
