WmoStationNumber,StationNameEnglish,StationNameThai,Province,Latitude,Longitude,Rainfall,Date,Time,Rainfall24Hr,WindSpeed,VaporPressure,LandVisibility,AirTemperature,DewPoint,MeanSeaLevelPressure,WindDirection,RelativeHumidity,MinimumTemperature,StationPressure
48300,MAE HONG SON,แม่ฮ่องสอน,แม่ฮ่องสอน,19.29897,97.97578,0.00,07-22-2019,07:00:00,0.01,0.0,29.31,12.00,25.9,23.7,1007.46,000,88,23.3,976.52
48302,DOI ANG KANG,ดอยอ่างขาง,เชียงใหม่,19.93139,99.04833,0.00,07-22-2019,07:00:00,11.40,18.5,20.21,8.00,18.5,17.7,1005.40,270,95,18.2,844.24
48303,CHIANG RAI,เชียงราย,เชียงราย,19.96139,99.88139,0.00,07-22-2019,07:00:00,40.20,0.0,29.00,15.00,25.0,23.5,1006.61,000,92,23.4,962.92
48304,CHAING RAI AGROMET.,เชียงราย สกษ.,เชียงราย,19.87083,99.78278,0.00,07-22-2019,07:00:00,3.80,0.0,28.01,12.00,23.7,23.0,1006.65,000,96,23.2,960.86
48307,THUNG CHANG,ทุ่งช้าง,น่าน,19.41194,100.88353,0.00,07-22-2019,07:00:00,15.50,0.0,29.66,8.00,24.2,23.9,1007.59,000,98,23.5,969.75
48310,PHAYAO,พะเยา,พะเยา,19.13333,99.90000,0.00,07-22-2019,07:00:00,4.20,0.0,28.72,8.00,24.7,23.4,1006.41,000,92,23.2,961.23
48315,THA WANGPHA,ท่าวังผา,น่าน,19.11056,100.80250,0.00,07-22-2019,07:00:00,0.70,0.0,30.15,10.00,25.2,24.2,1007.66,000,94,24.5,980.84
48324,THOEN,เถิน,ลำปาง,17.63661,99.24475,0.00,07-22-2019,07:00:00,0.00,3.7,27.27,14.00,27.1,22.5,1007.26,240,76,26.8,985.55
48325,MAE SARIANG,แม่สะเรียง,แม่ฮ่องสอน,18.16667,97.93333,0.30,07-22-2019,07:00:00,0.40,0.0,29.11,5.00,25.5,23.6,1008.47,000,89,23.5,984.27
48327,CHIANG MAI,เชียงใหม่,เชียงใหม่,18.79000,98.97694,0.00,07-22-2019,07:00:00,2.50,0.0,29.05,12.00,25.9,23.6,1007.54,000,87,25.4,972.99
48328,LAMPANG,ลำปาง,ลำปาง,18.28333,99.51667,0.00,07-22-2019,07:00:00,26.00,0.0,30.87,10.00,25.3,24.6,1007.55,000,96,24.2,979.92
48329,LAMPHUN,ลำพูน,ลำพูน,18.56722,99.03389,0.00,07-22-2019,07:00:00,0.00,0.0,30.57,10.00,26.0,24.4,1006.74,000,91,25.5,973.18
48330,PHRAE,แพร่,แพร่,18.16667,100.16667,0.00,07-22-2019,07:00:00,0.00,7.4,30.40,12.00,26.2,24.3,1006.62,270,89,26.0,988.11
48331,NAN,น่าน,น่าน,18.77972,100.77778,0.00,07-22-2019,07:00:00,3.70,0.0,30.25,10.00,25.4,24.2,1007.12,000,93,24.7,984.22
48333,NAN AGROMET.,น่าน สกษ.,น่าน,18.86667,100.75000,0.00,07-22-2019,07:00:00,1.00,0.0,29.41,8.00,24.5,23.8,1006.94,000,96,24.3,976.88
48334,LAMPANG AGROMET.,ลำปาง สกษ.,ลำปาง,18.31667,99.28333,0.00,07-22-2019,07:00:00,7.80,0.0,29.66,6.00,24.2,23.9,1008.06,000,98,24.0,972.29
48350,LOEI AGROMET.,เลย สกษ.,เลย,17.40000,101.73333,0.00,07-22-2019,07:00:00,1.70,0.0,29.56,10.00,24.0,23.8,1008.07,000,99,23.8,978.10
48351,UTTARADIT,อุตรดิตถ์,อุตรดิตถ์,17.61667,100.10000,0.50,07-22-2019,07:00:00,0.50,0.0,29.76,10.00,26.0,24.0,1007.79,000,89,26.0,1000.45
48352,NONG KHAI,หนองคาย,หนองคาย,17.86717,102.73303,0.00,07-22-2019,07:00:00,0.00,0.0,32.38,12.00,26.8,25.4,1006.54,000,92,26.2,986.65
48353,LOEI,เลย,เลย,17.45000,101.73333,0.00,07-22-2019,07:00:00,11.00,0.0,30.05,10.00,25.0,24.1,1007.09,000,95,24.6,978.29
48354,UDON THANI,อุดรธานี,อุดรธานี,17.38333,102.80000,0.00,07-22-2019,07:00:00,17.70,3.7,31.11,12.00,26.0,24.7,1006.83,170,93,25.5,986.62
48355,SAKON NAKHON AGROMET.,สกลนคร สกษ.,สกลนคร,17.12503,104.06100,0.00,07-22-2019,07:00:00,7.30,0.0,30.57,12.00,26.0,24.4,1007.83,000,91,25.5,986.03
48356,SAKON NAKHON,สกลนคร,สกลนคร,17.15000,104.13333,0.00,07-22-2019,07:00:00,0.60,3.7,31.33,15.00,26.4,24.8,1006.86,180,91,25.6,987.35
48357,NAKHON PHANOM,นครพนม,นครพนม,17.41083,104.78250,0.00,07-22-2019,07:00:00,1.00,0.0,30.84,9.00,26.0,24.6,1007.37,000,92,25.6,990.58
48358,NAKHON PHANOM AGROMET.,นครพนม สกษ.,นครพนม,17.44306,104.77361,0.40,07-22-2019,07:00:00,0.40,0.0,30.15,10.00,25.2,24.2,1008.01,000,94,24.2,990.49
48360,NONG BUA LAM PHU,หนองบัวลำภู,หนองบัวลำภู,17.23250,102.42944,0.00,07-22-2019,07:00:00,0.80,0.0,31.08,12.00,25.7,24.7,1006.17,000,94,25.2,980.32
48372,SUKHOTHAI*,สุโขทัย,สุโขทัย,17.10611,99.80000,0.00,07-22-2019,07:00:00,6.90,0.0,33.04,10.00,26.0,25.7,1007.87,000,98,23.8,1002.05
48373,SI SAMRONG AGROMET.,ศรีสำโรง สกษ.,สุโขทัย,17.16136,99.86167,0.00,07-22-2019,07:00:00,0.60,0.0,31.90,8.00,25.7,25.1,1007.12,000,97,25.4,1000.90
48374,LOM SAK,หล่มสัก,เพชรบูรณ์,16.77361,101.24944,0.00,07-22-2019,07:00:00,0.00,0.0,27.93,10.00,26.3,22.9,1008.35,000,82,25.1,991.86
48375,MAE SOT,แม่สอด,ตาก,16.65917,98.55083,0.20,07-22-2019,07:00:00,5.10,3.7,29.79,8.00,25.0,24.0,1007.25,180,94,24.4,984.78
48376,TAK,ตาก,ตาก,16.87833,99.14333,0.00,07-22-2019,07:00:00,30.30,7.4,29.19,10.00,28.0,23.6,1008.21,270,77,26.8,993.86
48377,BHUMIBOL DAM,เขื่อนภูมิพล,ตาก,17.24389,99.00250,0.00,07-22-2019,07:00:00,1.50,0.0,26.54,8.00,28.0,22.1,1007.39,000,70,27.4,991.06
48378,PHITSANULOK,พิษณุโลก,พิษณุโลก,16.79481,100.27930,0.00,07-22-2019,07:00:00,9.50,0.0,31.65,10.00,26.0,25.0,1007.43,000,94,24.7,1002.19
48379,PHETCHABUN,เพชรบูรณ์,เพชรบูรณ์,16.43333,101.15000,0.00,07-22-2019,07:00:00,0.00,0.0,29.77,10.00,27.3,24.0,1006.20,000,82,26.9,993.03
48380,KAMPHAENG PHET,กำแพงเพชร,กำแพงเพชร,16.48681,99.52697,0.01,07-22-2019,07:00:00,6.70,0.0,33.02,8.00,26.7,25.7,1007.54,000,94,26.2,998.20
48381,KHON KAEN,ขอนแก่น,ขอนแก่น,16.46111,102.78972,0.00,07-22-2019,07:00:00,0.00,3.7,31.96,9.00,26.3,25.1,1007.44,160,93,25.8,985.70
48382,MAHASARAKHAM,มหาสารคาม,มหาสารคาม,16.24722,103.06805,0.00,07-22-2019,07:00:00,24.30,0.0,30.84,10.00,26.0,24.6,1007.44,000,92,25.5,989.87
48383,MUKDAHAN,มุกดาหาร,มุกดาหาร,16.54139,104.72889,0.00,07-22-2019,07:00:00,0.00,0.0,30.43,10.00,26.5,24.3,1007.22,000,88,26.0,991.36
48384,THA PHRA AGROMET.,ท่าพระ สกษ.,ขอนแก่น,16.33333,102.81667,0.00,07-22-2019,07:00:00,0.40,5.6,32.86,8.00,26.9,25.6,1006.40,200,93,25.8,987.52
48385,UMPHANG,อุ้มผาง,ตาก,16.02472,98.86444,0.00,07-22-2019,07:00:00,6.30,0.0,26.58,8.00,23.0,22.1,1010.40,000,95,22.4,958.55
48386,PICHIT AGROMET.,พิจิตร สกษ.,พิจิตร,16.43806,100.29250,0.00,07-22-2019,07:00:00,10.30,7.4,32.94,5.00,26.8,25.7,1007.30,100,94,25.9,1003.34
48387,DOI MU SOE AGROMET.,ดอยมูเซอร์ สกษ.,ตาก,16.75000,98.93333,0.00,07-22-2019,07:00:00,13.90,5.6,23.82,.90,21.4,20.3,1008.51,230,94,20.6,913.25
48390,KALASIN,กาฬสินธุ์,กาฬสินธุ์,16.33250,103.58833,0.00,07-22-2019,07:00:00,17.40,0.0,33.07,6.00,26.3,25.7,1007.08,000,97,24.8,991.06
48400,NAKHON SAWAN,นครสวรรค์ ,นครสวรรค์,15.67183,100.13236,0.00,07-22-2019,07:00:00,0.00,0.0,32.76,12.00,27.7,25.6,1007.77,000,88,26.7,1003.74
48401,TAKFA AGROMET.,ตากฟ้า สกษ.,นครสวรรค์,15.34944,100.53028,0.00,07-22-2019,07:00:00,0.00,0.0,28.84,8.00,26.8,23.4,1008.95,000,82,25.9,998.25
48402,CHAINAT AGROMET.,ชัยนาท สกษ.,ชัยนาท,15.15000,100.18333,0.00,07-22-2019,07:00:00,0.00,5.6,29.08,9.00,26.5,23.6,1008.42,150,84,26.3,1006.48
48403,CHAIYAPHUM,ชัยภูมิ,ชัยภูมิ,15.80000,102.03333,0.00,07-22-2019,07:00:00,0.00,5.6,26.86,10.00,27.6,22.3,1007.57,220,73,27.1,986.74
48404,ROI ET AGROMET.,ร้อยเอ็ด สกษ.,ร้อยเอ็ด,16.07322,103.60844,0.00,07-22-2019,07:00:00,22.40,3.7,31.93,10.00,26.0,25.1,1007.32,180,95,24.6,989.59
48405,ROI ET,ร้อยเอ็ด,ร้อยเอ็ด,16.02000,103.74389,0.10,07-22-2019,07:00:00,22.80,7.4,33.51,10.00,26.1,25.9,1007.04,190,99,25.2,990.83
48407,UBON RATCHATHANI,อุบลราชธานี (ศูนย์ฯ),อุบลราชธานี,15.25000,104.86667,0.60,07-22-2019,07:00:00,15.00,3.7,30.23,10.00,25.1,24.2,1008.10,160,95,24.2,993.97
48408,UBON RATCHATHANI AGROMET.,อุบลราชธานี สกษ.,อุบลราชธานี,15.23914,105.02350,0.20,07-22-2019,07:00:00,15.60,0.0,29.51,6.00,24.7,23.8,1008.49,000,95,24.1,993.53
48409,SI SAKET AGROMET.,ศรีสะเกษ,ศรีสะเกษ,15.00000,104.05000,0.00,07-22-2019,07:00:00,16.60,0.0,31.63,8.00,25.7,25.0,1008.00,000,96,24.2,993.25
48410,UTHAITHANI,อุทัยธานี,อุทัยธานี,15.37417,100.03889,0.00,07-22-2019,07:00:00,0.00,0.0,27.28,10.00,28.7,22.5,1008.05,"{'0': '   ', '@attributes': {'Unit': 'degree'}}",69,27.7,1005.05
48413,WICHIAN BURI,วิเชียรบุรี,เพชรบูรณ์,15.65700,101.10800,0.00,07-22-2019,07:00:00,0.00,0.0,27.85,10.00,28.0,22.9,1007.81,000,74,27.1,999.88
48415,AYUTTHAYA,พระนครศรีอยุธยา,พระนครศรีอยุธยา,14.53472,100.72500,0.00,07-22-2019,07:00:00,0.00,3.7,30.02,7.00,27.0,24.1,1008.34,180,84,25.5,1007.23
48416,THA TUM,ท่าตูม,สุรินทร์,15.31667,103.68333,0.00,07-22-2019,07:00:00,4.90,0.0,30.64,9.00,26.9,24.4,1006.89,000,86,25.6,992.20
48417,NAKORNNAYOK,นครนายก,นครนายก,14.36222,101.39278,0.20,07-22-2019,07:00:00,0.40,13.0,22.71,.05,19.7,19.5,1008.80,300,99,18.3,873.66
48418,BUA CHUM,บัวชุม  ,ลพบุรี,15.26667,101.18736,0.00,07-22-2019,07:00:00,0.00,7.4,30.02,10.00,27.0,24.1,1008.07,180,84,26.3,1002.19
48419,PATHUMTHANI,ปทุมธานี สกษ.,ปทุมธานี,14.10000,100.61667,0.00,07-22-2019,07:00:00,8.60,0.0,35.39,8.00,27.3,26.9,1008.27,000,98,26.5,1007.47
48420,Samut Prakarn,สมุทรปราการ สกษ.,สมุทรปราการ,13.51667,100.76167,0.00,07-22-2019,07:00:00,0.00,5.6,31.54,10.00,28.5,24.9,1008.00,210,81,27.2,1007.55
48421,THONG PHAPHUM,ทองผาภูมิ,กาญจนบุรี,14.74222,98.63639,0.00,07-22-2019,07:00:00,1.60,0.0,30.32,5.00,25.0,24.3,1008.98,000,96,24.7,997.58
48425,SUPHAN BURI,สุพรรณบุรี,สุพรรณบุรี,14.47444,100.13889,0.00,07-22-2019,07:00:00,6.90,0.0,29.79,10.00,27.6,24.0,1008.41,000,81,26.8,1007.39
48426,LOP BURI,ลพบุรี,ลพบุรี,14.79972,100.64500,0.00,07-22-2019,07:00:00,0.00,3.7,29.02,7.00,26.9,23.5,1007.99,180,82,26.5,1006.17
48427,U THONG AGROMET.,อู่ทอง สกษ.,สุพรรณบุรี,14.30361,99.86472,0.00,07-22-2019,07:00:00,0.01,0.0,30.91,8.00,26.9,24.6,1008.28,000,87,26.1,1007.51
48429,SUVARNABHUMI AIRPORT,สนามบินสุวรรณภูมิ,สมุทรปราการ,13.68639,100.76750,0.00,07-22-2019,07:00:00,0.01,0.0,31.34,10.00,28.4,24.8,1008.89,000,81,26.4,1008.19
48430,PRACHIN BURI,ปราจีนบุรี,ปราจีนบุรี,14.05842,101.36930,0.00,07-22-2019,07:00:00,0.00,0.0,29.98,7.00,27.7,24.1,1008.43,000,81,26.9,1007.73
48431,NAKHON RATCHASIMA,นครราชสีมา,นครราชสีมา,14.96830,102.08603,0.00,07-22-2019,07:00:00,0.00,0.0,28.06,10.00,28.4,23.0,1007.91,000,73,26.8,986.84
48432,SURIN,สุรินทร์,สุรินทร์,14.88333,103.50000,0.00,07-22-2019,07:00:00,0.10,0.0,29.13,8.00,27.1,23.6,1008.09,000,81,25.8,991.37
48433,SURIN AGROMET.,สุรินทร์ สกษ.,สุรินทร์,14.88333,103.45000,0.00,07-22-2019,07:00:00,0.70,5.6,29.45,6.00,26.7,23.8,1008.27,260,84,25.3,991.81
48434,CHOK CHAI,โชคชัย,นครราชสีมา,14.71889,102.16861,0.00,07-22-2019,07:00:00,0.00,0.0,27.36,10.00,27.0,22.6,1008.11,000,77,26.1,986.23
48435,PAKCHONG AGROMET.,ปากช่อง สกษ.,นครราชสีมา,14.64389,101.33194,0.00,07-22-2019,07:00:00,0.00,3.7,24.94,15.00,25.6,21.1,1008.60,140,76,25.5,965.10
48436,NANG RONG,นางรอง,บุรีรัมย์,14.58333,102.80000,0.00,07-22-2019,07:00:00,0.00,5.6,26.06,10.00,27.0,21.8,1007.74,230,73,26.5,987.17
48437,BURIRUM,บุรีรัมย์,บุรีรัมย์,15.22575,103.24808,0.00,07-22-2019,07:00:00,6.00,11.1,32.45,8.00,25.7,25.4,1009.78,230,98,24.8,988.82
48438,SAMUTSONGKRAM,สมุทรสงคราม,สมุทรสงคราม,13.40778,100.03222,0.00,07-22-2019,07:00:00,6.70,1.9,33.38,10.00,27.3,25.9,1007.74,310,92,25.6,1007.31
48439,KABIN BURI,กบินทร์บุรี,ปราจีนบุรี,13.98333,101.70722,0.00,07-22-2019,07:00:00,0.00,0.0,31.38,11.00,26.0,24.8,1007.90,000,93,25.5,1006.48
48440,SA KAEW,สระแก้ว,สระแก้ว,13.78889,102.03472,0.00,07-22-2019,07:00:00,0.00,0.0,31.65,7.00,26.0,25.0,1008.05,000,94,25.6,1003.10
48450,KANCHANA BURI,กาญจนบุรี,กาญจนบุรี,14.02250,99.53583,0.00,07-22-2019,07:00:00,3.70,0.0,28.84,12.00,26.8,23.4,1008.36,000,82,24.7,1005.06
48451,NAKHONPATHOM,นครปฐม,นครปฐม,14.01167,99.97000,0.00,07-22-2019,07:00:00,0.01,0.0,31.05,10.00,26.4,24.7,1008.47,000,90,25.8,1007.36
48453,BANG NA AGROMET.,กรุงเทพฯ บางนา สกษ.,กรุงเทพมหานคร,13.66639,100.60611,0.00,07-22-2019,07:00:00,0.01,0.0,31.77,10.00,27.2,25.1,1008.61,000,88,26.4,1008.31
48454,BANGKOK PORT (KLONG TOEI),กรุงเทพฯ ท่าเรือคลองเตย,กรุงเทพมหานคร,13.70694,100.56805,0.00,07-22-2019,07:00:00,0.00,0.0,31.14,10.00,27.3,24.7,1008.18,000,86,26.8,1007.49
48455,BANGKOK METROPOLIS,กรุงเทพมหานคร,กรุงเทพมหานคร,13.72639,100.56000,0.00,07-22-2019,07:00:00,0.00,0.0,30.15,10.00,27.5,24.2,1008.06,000,82,27.5,1007.57
48456,DON MUANG AIRPORT,สนามบินดอนเมือง,กรุงเทพมหานคร,13.91917,100.60500,0.00,07-22-2019,07:00:00,0.20,5.6,28.76,10.00,28.2,23.4,1008.41,040,75,26.4,1007.01
48457,PILOT STATION,นำร่อง,สมุทรปราการ,13.39389,100.59944,0.00,07-22-2019,07:00:00,1.50,7.4,32.05,10.00,29.6,25.2,1008.41,210,77,26.7,1006.74
48458,CHACHOENGSAO,ฉะเชิงเทรา,ฉะเชิงเทรา,13.51556,101.45833,0.00,07-22-2019,07:00:00,0.00,0.0,31.17,10.00,25.6,24.7,1009.96,000,95,25.2,1001.90
48459,CHON BURI,ชลบุรี,ชลบุรี,13.36667,100.98333,0.00,07-22-2019,07:00:00,3.20,0.0,33.37,10.00,28.0,25.9,1008.18,000,88,26.2,1007.90
48460,KO SICHANG,เกาะสีชัง,ชลบุรี,13.16167,100.80194,0.00,07-22-2019,07:00:00,0.00,0.0,29.74,12.00,29.0,23.9,1008.08,000,74,27.0,1004.96
48461,PHATTHAYA,พัทยา,ชลบุรี,12.92000,100.86944,0.00,07-22-2019,07:00:00,0.00,0.0,30.23,12.00,28.4,24.2,1008.20,000,78,27.9,1001.28
48462,ARANYA PRATHET,อรัญประเทศ,สระแก้ว,13.70000,102.58333,0.00,07-22-2019,07:00:00,0.00,7.4,31.00,8.00,26.8,24.6,1008.29,270,88,26.1,1002.69
48463,LAEM CHABANG,แหลมฉบัง,ชลบุรี,13.07694,100.87583,0.00,07-22-2019,07:00:00,0.00,11.1,29.71,8.00,28.7,23.9,1009.41,230,75,26.9,1000.13
48464,RATCHA BURI,ราชบุรี,ราชบุรี,13.48931,99.79239,0.00,07-22-2019,07:00:00,5.00,0.0,31.19,10.00,25.9,24.7,1008.77,000,93,25.3,1007.50
48465,PHETCHA BURI,เพชรบุรี,เพชรบุรี,12.99944,100.06056,0.00,07-22-2019,07:00:00,8.30,3.7,31.52,11.00,26.5,24.9,1008.05,300,91,26.0,1007.62
48474,NONG PHLUB AGROMET.,หนองพลับ สกษ.,ประจวบคีรีขันธ์,12.58333,99.73333,0.00,07-22-2019,07:00:00,2.40,0.0,29.77,8.00,24.7,24.0,1007.93,000,96,24.2,995.57
48475,HUA HIN,หัวหิน,ประจวบคีรีขันธ์,12.58611,99.96250,0.00,07-22-2019,07:00:00,0.60,0.0,30.70,10.00,28.5,24.5,1007.81,000,79,27.7,1007.10
48477,SATTAHIP,สัตหีบ,ชลบุรี,12.68333,100.98333,0.00,07-22-2019,07:00:00,0.00,0.0,30.75,10.00,27.1,24.5,1008.52,000,86,26.5,1006.08
48478,RAYONG,ระยอง,ระยอง,12.63222,101.34361,0.00,07-22-2019,07:00:00,0.01,7.4,31.00,10.00,29.5,24.6,1008.15,250,75,29.2,1007.63
48479,HUAI PONG AGROMET.,ห้วยโป่ง สกษ.,ระยอง,12.73333,101.13333,0.00,07-22-2019,07:00:00,0.00,0.0,31.33,12.00,27.4,24.8,1008.14,000,86,27.1,1002.99
48480,CHANTHA BURI,จันทบุรี,จันทบุรี,12.61667,102.11333,0.00,07-22-2019,07:00:00,12.80,0.0,34.60,7.00,27.2,26.5,1008.82,000,96,26.7,1008.41
48481,PHLIU  AGROMET.,พลิ้ว สกษ.,จันทบุรี,12.50861,102.17305,1.00,07-22-2019,07:00:00,7.80,0.0,33.75,8.00,26.5,26.1,1008.99,000,98,24.2,1006.21
48500,PRACHUAP KHIRIKHAN,ประจวบคีรีขันธ์,ประจวบคีรีขันธ์,11.83333,99.83333,0.00,07-22-2019,07:00:00,0.00,0.0,30.15,10.00,27.5,24.2,1008.57,000,82,26.6,1007.78
48501,TRAD,ตราด,ตราด,11.76667,102.88333,0.00,07-22-2019,07:00:00,1.00,3.7,30.96,7.00,25.2,24.6,1008.80,080,97,24.3,1008.33
48517,CHUMPHON,ชุมพร,ชุมพร,10.49875,99.18847,0.00,07-22-2019,07:00:00,0.00,0.0,30.84,8.00,26.0,24.6,1008.11,000,92,25.2,1007.42
48520,SAWI AGROMET.,สวี สกษ.,ชุมพร,10.33333,99.10000,0.00,07-22-2019,07:00:00,0.00,0.0,29.52,10.00,25.0,23.8,1008.14,000,93,24.6,1006.60
48532,RANONG,ระนอง,ระนอง,9.98333,98.61667,0.00,07-22-2019,07:00:00,2.10,0.0,29.91,10.00,25.5,24.0,1011.10,000,92,25.4,1010.18
48550,KO SAMUI,เกาะสมุย,สุราษฎร์ธานี,9.46667,100.05000,0.00,07-22-2019,07:00:00,0.00,0.0,30.43,12.00,26.5,24.3,1008.54,000,88,25.7,1007.85
48551,SURAT THANI,สุราษฎร์ธานี,สุราษฎร์ธานี,9.13556,99.15194,0.00,07-22-2019,07:00:00,0.00,0.0,28.53,8.00,24.0,23.3,1008.80,000,96,24.0,1007.99
48552,NAKHONSI THAMMARAT,นครศรีธรรมราช,นครศรีธรรมราช,8.53778,99.96389,0.00,07-22-2019,07:00:00,0.00,0.0,31.25,8.00,25.5,24.8,1007.83,000,96,24.7,1007.20
48554,NAKHONSI THAMMARAT AGROMET.,นครศรีธรรมราช สกษ.,นครศรีธรรมราช,8.35931,100.00000,0.00,07-22-2019,07:00:00,0.00,0.0,30.32,10.00,25.0,24.3,1008.40,000,96,24.2,1008.00
48555,SURAT THANI AGROMET.,สุราษฎร์ธานี สกษ.,สุราษฎร์ธานี,9.10000,99.63333,0.00,07-22-2019,07:00:00,0.00,0.0,28.28,5.00,24.3,23.1,1010.66,000,93,23.8,1006.40
48556,PHRA SANG,พระแสง สอท.,สุราษฎร์ธานี,8.57022,99.25825,0.00,07-22-2019,07:00:00,0.20,0.0,29.66,4.00,24.2,23.9,1008.61,000,98,23.5,1006.99
48557,CHAWANG,ฉวาง,นครศรีธรรมราช,8.43194,99.51194,0.00,07-22-2019,07:00:00,0.00,0.0,29.25,8.00,24.7,23.7,1008.73,000,94,24.2,1005.22
48560,PHATTHALUNG AGROMET.,พัทลุง สกษ.,พัทลุง,7.58333,100.16667,0.00,07-22-2019,07:00:00,0.00,0.0,30.12,9.00,24.6,24.2,1008.87,000,97,24.6,1007.50
48561,TAKUA PA,ตะกั่วป่า,พังงา,8.68417,98.25222,0.00,07-22-2019,07:00:00,1.20,0.0,30.77,10.00,25.1,24.5,1008.06,000,97,24.8,1007.17
48563,KRABI,กระบี่,กระบี่,8.10361,98.97528,0.00,07-22-2019,07:00:00,0.00,0.0,28.78,10.00,24.0,23.4,1008.35,000,97,23.2,1004.75
48564,PHUKET,ภูเก็ต,ภูเก็ต,7.88333,98.40000,0.00,07-22-2019,07:00:00,0.00,0.0,30.84,10.00,26.0,24.6,1008.19,000,92,25.0,1007.76
48565,PHUKET AIRPORT,ภูเก็ต (ศูนย์ฯ),ภูเก็ต,8.14500,98.31444,0.00,07-22-2019,07:00:00,2.50,0.0,31.33,10.00,25.4,24.8,1007.74,000,97,23.9,1006.74
48566,KO LANTA,เกาะลันตา,กระบี่,7.53333,99.05000,0.00,07-22-2019,07:00:00,0.00,5.6,31.30,10.00,26.1,24.8,1008.45,060,93,24.6,1007.63
48567,TRANG AIRPORT,ตรัง,ตรัง,7.51667,99.61667,0.00,07-22-2019,07:00:00,0.00,0.0,30.56,6.00,24.7,24.4,1008.89,000,98,24.3,1007.06
48568,SONGKHLA,สงขลา,สงขลา,7.18211,100.60769,0.00,07-22-2019,07:00:00,0.30,0.0,30.43,8.00,26.5,24.3,1009.24,000,88,25.5,1008.49
48569,HAT YAI AIRPORT,หาดใหญ่,สงขลา,6.91667,100.43333,0.00,07-22-2019,07:00:00,0.20,3.7,30.48,3.00,24.8,24.4,1009.10,230,97,23.3,1005.07
48570,SATUN,สตูล,สตูล,6.65000,100.08333,0.00,07-22-2019,07:00:00,0.00,0.0,29.80,10.00,25.3,24.0,1009.30,000,92,24.7,1008.61
48571,KHO HONG AGROMET.,คอหงษ์ สกษ.,สงขลา,7.00000,100.50000,0.00,07-22-2019,07:00:00,4.00,0.0,31.33,8.00,25.4,24.8,1009.29,000,97,24.3,1008.17
48574,SA DAO,สะเดา,สงขลา,6.79806,100.39056,0.00,07-22-2019,07:00:00,0.00,0.0,30.03,10.00,24.7,24.1,1009.43,000,97,23.6,1006.48
48580,PATTANI AIRPORT,ปัตตานี,ปัตตานี,6.78333,101.15000,0.00,07-22-2019,07:00:00,0.00,0.0,30.12,7.00,24.6,24.2,1008.67,000,97,24.0,1007.98
48581,YALA AGROMET.,ยะลา สกษ.,ยะลา,6.51667,101.28333,0.00,07-22-2019,07:00:00,0.00,0.0,29.41,4.00,24.5,23.8,1009.70,000,96,24.1,1005.53
48583,NARATHIWAT,นราธิวาส,นราธิวาส,6.41667,101.81667,0.00,07-22-2019,07:00:00,2.20,0.0,27.70,9.00,25.0,22.8,1009.27,000,88,.0,1008.67
