WmoStationNumber,StationNameEnglish,StationNameThai,Province,Latitude,Longitude,StationPressure,Date,Time,AirTemperature,Rainfall,WindDirection,MeanSeaLevelPressure,WindSpeed,MinimumTemperature,LandVisibility,VaporPressure,DewPoint,Rainfall24Hr,RelativeHumidity
48300,MAE HONG SON,แม่ฮ่องสอน,แม่ฮ่องสอน,19.29897,97.97578,977.08,07-26-2019,07:00:00,23.9,0.00,000,1008.25,0.0,21.4,7.00,27.34,22.6,15.70,92
48302,DOI ANG KANG,ดอยอ่างขาง,เชียงใหม่,19.93139,99.04833,844.09,07-26-2019,07:00:00,17.5,0.00,270,1005.80,7.4,17.3,4.00,19.36,17.0,2.50,97
48303,CHIANG RAI,เชียงราย,เชียงราย,19.96139,99.88139,963.52,07-26-2019,07:00:00,23.7,2.60,180,1007.43,7.4,23.5,10.00,27.50,22.7,3.20,94
48304,CHAING RAI AGROMET.,เชียงราย สกษ.,เชียงราย,19.87083,99.78278,961.98,07-26-2019,07:00:00,23.0,3.80,000,1007.93,0.0,22.7,2.00,27.32,22.5,5.80,97
48307,THUNG CHANG,ทุ่งช้าง,น่าน,19.41194,100.88353,970.79,07-26-2019,07:00:00,23.7,0.20,000,1008.74,0.0,23.0,10.00,29.29,23.7,26.00,100
48310,PHAYAO,พะเยา,พะเยา,19.13333,99.90000,962.82,07-26-2019,07:00:00,23.2,2.00,110,1008.31,5.6,23.0,6.00,27.41,22.6,9.40,96
48315,THA WANGPHA,ท่าวังผา,น่าน,19.11056,100.80250,981.76,07-26-2019,07:00:00,24.5,0.00,180,1008.67,5.6,24.3,8.00,28.63,23.3,14.70,93
48324,THOEN,เถิน,ลำปาง,17.63661,99.24475,986.81,07-26-2019,07:00:00,24.6,0.00,270,1008.73,1.9,24.3,10.00,26.26,21.9,0.20,85
48325,MAE SARIANG,แม่สะเรียง,แม่ฮ่องสอน,18.16667,97.93333,984.80,07-26-2019,07:00:00,23.4,0.00,000,1009.18,0.0,22.2,5.00,27.75,22.8,7.10,96
48327,CHIANG MAI,เชียงใหม่,เชียงใหม่,18.79000,98.97694,973.19,07-26-2019,07:00:00,24.9,0.01,000,1007.86,0.0,24.6,9.00,27.79,22.8,2.70,88
48328,LAMPANG,ลำปาง,ลำปาง,18.28333,99.51667,981.29,07-26-2019,07:00:00,25.0,0.00,000,1008.99,0.0,24.2,10.00,26.94,22.3,8.90,85
48329,LAMPHUN,ลำพูน,ลำพูน,18.56722,99.03389,973.96,07-26-2019,07:00:00,25.5,0.00,000,1007.60,0.0,25.5,10.00,27.04,22.4,0.00,83
48330,PHRAE,แพร่,แพร่,18.16667,100.16667,989.64,07-26-2019,07:00:00,25.0,0.00,240,1008.26,7.4,24.9,12.00,26.43,22.0,0.10,83
48331,NAN,น่าน,น่าน,18.77972,100.77778,985.49,07-26-2019,07:00:00,24.3,0.00,000,1008.50,0.0,24.0,10.00,29.05,23.6,2.30,96
48333,NAN AGROMET.,น่าน สกษ.,น่าน,18.86667,100.75000,978.33,07-26-2019,07:00:00,24.0,0.00,000,1008.49,0.0,23.8,6.00,28.27,23.1,2.00,95
48334,LAMPANG AGROMET.,ลำปาง สกษ.,ลำปาง,18.31667,99.28333,972.42,07-26-2019,07:00:00,23.5,0.01,000,1008.28,0.0,23.4,6.00,28.17,23.0,11.00,97
48350,LOEI AGROMET.,เลย สกษ.,เลย,17.40000,101.73333,977.57,07-26-2019,07:00:00,24.0,0.00,130,1007.53,5.6,23.8,12.00,26.75,22.2,0.00,90
48351,UTTARADIT,อุตรดิตถ์,อุตรดิตถ์,17.61667,100.10000,1001.51,07-26-2019,07:00:00,25.0,0.00,000,1008.88,0.0,24.9,8.00,28.48,23.2,16.20,90
48352,NONG KHAI,หนองคาย,หนองคาย,17.86717,102.73303,987.61,07-26-2019,07:00:00,25.9,0.00,210,1007.58,9.3,25.5,11.00,30.11,24.2,0.20,90
48353,LOEI,เลย,เลย,17.45000,101.73333,979.11,07-26-2019,07:00:00,24.5,0.00,130,1007.99,3.7,24.0,12.00,25.60,21.5,0.01,83
48354,UDON THANI,อุดรธานี,อุดรธานี,17.38333,102.80000,987.76,07-26-2019,07:00:00,24.7,0.00,220,1008.09,7.4,24.7,12.00,26.68,22.2,8.90,86
48355,SAKON NAKHON AGROMET.,สกลนคร สกษ.,สกลนคร,17.12503,104.06100,986.86,07-26-2019,07:00:00,25.0,0.00,000,1008.75,0.0,24.5,10.00,27.45,22.6,1.90,87
48356,SAKON NAKHON,สกลนคร,สกลนคร,17.15000,104.13333,988.37,07-26-2019,07:00:00,25.0,0.00,260,1007.99,3.7,24.5,15.00,29.00,23.5,3.40,92
48357,NAKHON PHANOM,นครพนม,นครพนม,17.41083,104.78250,991.62,07-26-2019,07:00:00,24.7,0.30,000,1008.51,0.0,24.5,7.00,29.25,23.7,9.70,94
48358,NAKHON PHANOM AGROMET.,นครพนม สกษ.,นครพนม,17.44306,104.77361,991.22,07-26-2019,07:00:00,24.8,2.30,000,1008.77,0.0,23.5,12.00,30.22,24.2,10.20,97
48360,NONG BUA LAM PHU,หนองบัวลำภู,หนองบัวลำภู,17.23250,102.42944,981.61,07-26-2019,07:00:00,23.9,0.01,120,1007.65,3.7,23.7,10.00,27.34,22.6,1.50,92
48372,SUKHOTHAI*,สุโขทัย,สุโขทัย,17.10611,99.80000,1002.91,07-26-2019,07:00:00,24.9,0.00,160,1008.75,9.3,22.6,10.00,31.20,24.7,5.20,99
48373,SI SAMRONG AGROMET.,ศรีสำโรง สกษ.,สุโขทัย,17.16136,99.86167,1003.08,07-26-2019,07:00:00,24.4,0.00,000,1009.34,0.0,23.9,12.00,29.49,23.8,25.80,97
48374,LOM SAK,หล่มสัก,เพชรบูรณ์,16.77361,101.24944,993.33,07-26-2019,07:00:00,23.6,3.60,000,1010.00,0.0,22.6,5.00,28.34,23.2,38.00,97
48375,MAE SOT,แม่สอด,ตาก,16.65917,98.55083,986.04,07-26-2019,07:00:00,23.0,13.50,120,1008.69,5.6,22.2,9.00,27.07,22.4,39.70,96
48376,TAK,ตาก,ตาก,16.87833,99.14333,995.29,07-26-2019,07:00:00,24.7,0.20,000,1009.82,0.0,24.0,5.00,28.21,23.1,1.20,91
48377,BHUMIBOL DAM,เขื่อนภูมิพล,ตาก,17.24389,99.00250,992.28,07-26-2019,07:00:00,26.5,0.00,000,1008.71,0.0,25.0,7.00,30.43,24.3,0.50,88
48378,PHITSANULOK,พิษณุโลก,พิษณุโลก,16.79481,100.27930,1003.76,07-26-2019,07:00:00,24.3,0.00,040,1009.05,7.4,23.6,10.00,29.57,23.9,3.10,97
48379,PHETCHABUN,เพชรบูรณ์,เพชรบูรณ์,16.43333,101.15000,994.88,07-26-2019,07:00:00,24.2,8.50,000,1008.21,0.0,23.9,6.00,29.39,23.8,41.20,97
48380,KAMPHAENG PHET,กำแพงเพชร,กำแพงเพชร,16.48681,99.52697,999.63,07-26-2019,07:00:00,25.2,0.20,130,1009.02,3.7,24.6,6.00,30.42,24.3,1.00,95
48381,KHON KAEN,ขอนแก่น,ขอนแก่น,16.46111,102.78972,987.38,07-26-2019,07:00:00,24.1,0.00,000,1009.32,0.0,23.5,9.00,29.22,23.7,7.40,97
48382,MAHASARAKHAM,มหาสารคาม,มหาสารคาม,16.24722,103.06805,991.96,07-26-2019,07:00:00,25.1,0.10,000,1009.61,0.0,24.1,10.00,30.23,24.2,2.10,95
48383,MUKDAHAN,มุกดาหาร,มุกดาหาร,16.54139,104.72889,992.70,07-26-2019,07:00:00,23.5,12.60,240,1008.75,7.4,23.5,6.00,27.66,22.8,17.60,96
48384,THA PHRA AGROMET.,ท่าพระ สกษ.,ขอนแก่น,16.33333,102.81667,989.07,07-26-2019,07:00:00,25.0,0.00,200,1008.09,9.3,23.7,8.00,30.32,24.3,8.10,96
48385,UMPHANG,อุ้มผาง,ตาก,16.02472,98.86444,958.26,07-26-2019,07:00:00,22.0,3.00,000,1010.27,0.0,21.0,4.00,24.74,20.9,16.40,94
48386,PICHIT AGROMET.,พิจิตร สกษ.,พิจิตร,16.43806,100.29250,1005.37,07-26-2019,07:00:00,24.9,0.30,130,1009.37,3.7,24.2,4.00,30.40,24.3,31.90,97
48387,DOI MU SOE AGROMET.,ดอยมูเซอร์ สกษ.,ตาก,16.75000,98.93333,914.07,07-26-2019,07:00:00,19.9,6.00,270,1009.93,11.1,18.5,.60,22.32,19.3,22.80,96
48390,KALASIN,กาฬสินธุ์,กาฬสินธุ์,16.33250,103.58833,993.22,07-26-2019,07:00:00,25.0,0.00,000,1009.35,0.0,24.0,8.00,29.52,23.8,7.80,93
48400,NAKHON SAWAN,นครสวรรค์ ,นครสวรรค์,15.67183,100.13236,1005.68,07-26-2019,07:00:00,25.0,0.00,000,1009.75,0.0,24.4,10.00,31.39,24.8,11.90,99
48401,TAKFA AGROMET.,ตากฟ้า สกษ.,นครสวรรค์,15.34944,100.53028,1000.38,07-26-2019,07:00:00,23.5,4.50,000,1011.22,0.0,23.5,8.00,27.66,22.8,7.30,96
48402,CHAINAT AGROMET.,ชัยนาท สกษ.,ชัยนาท,15.15000,100.18333,1008.19,07-26-2019,07:00:00,25.0,0.60,000,1010.13,0.0,24.8,8.00,29.26,23.7,1.30,92
48403,CHAIYAPHUM,ชัยภูมิ,ชัยภูมิ,15.80000,102.03333,988.45,07-26-2019,07:00:00,24.0,2.00,000,1009.57,0.0,23.7,5.00,28.53,23.3,8.10,96
48404,ROI ET AGROMET.,ร้อยเอ็ด สกษ.,ร้อยเอ็ด,16.07322,103.60844,991.68,07-26-2019,07:00:00,23.6,5.90,190,1009.59,11.1,22.8,10.00,27.58,22.7,19.60,95
48405,ROI ET,ร้อยเอ็ด,ร้อยเอ็ด,16.02000,103.74389,992.96,07-26-2019,07:00:00,23.6,5.30,170,1009.34,5.6,23.5,6.00,28.34,23.2,16.30,97
48407,UBON RATCHATHANI,อุบลราชธานี (ศูนย์ฯ),อุบลราชธานี,15.25000,104.86667,995.80,07-26-2019,07:00:00,24.8,1.50,000,1009.97,0.0,24.3,10.00,29.16,23.6,13.60,93
48408,UBON RATCHATHANI AGROMET.,อุบลราชธานี สกษ.,อุบลราชธานี,15.23914,105.02350,995.39,07-26-2019,07:00:00,24.3,0.80,000,1010.40,0.0,23.7,6.00,28.54,23.3,2.40,94
48409,SI SAKET AGROMET.,ศรีสะเกษ,ศรีสะเกษ,15.00000,104.05000,995.40,07-26-2019,07:00:00,25.0,1.00,000,1010.22,0.0,24.0,6.00,30.58,24.4,9.00,97
48410,UTHAITHANI,อุทัยธานี,อุทัยธานี,15.37417,100.03889,1006.71,07-26-2019,07:00:00,25.3,0.01,"{'0': '   ', '@attributes': {'Unit': 'degree'}}",1009.75,0.0,24.8,10.00,29.54,23.8,1.20,92
48413,WICHIAN BURI,วิเชียรบุรี,เพชรบูรณ์,15.65700,101.10800,1001.94,07-26-2019,07:00:00,24.3,6.70,000,1009.98,0.0,24.0,5.00,28.28,23.1,28.90,93
48415,AYUTTHAYA,พระนครศรีอยุธยา,พระนครศรีอยุธยา,14.53472,100.72500,1008.99,07-26-2019,07:00:00,25.5,0.01,150,1010.11,3.7,24.4,8.00,30.44,24.3,1.90,93
48416,THA TUM,ท่าตูม,สุรินทร์,15.31667,103.68333,994.18,07-26-2019,07:00:00,25.5,0.00,000,1008.97,0.0,24.2,9.00,29.38,23.7,25.90,90
48417,NAKORNNAYOK,นครนายก,นครนายก,14.36222,101.39278,874.64,07-26-2019,07:00:00,18.4,3.00,290,1010.57,9.3,17.4,.05,20.93,18.2,19.40,99
48418,BUA CHUM,บัวชุม  ,ลพบุรี,15.26667,101.18736,1004.42,07-26-2019,07:00:00,25.1,0.00,000,1010.35,0.0,24.0,10.00,30.23,24.2,1.80,95
48419,PATHUMTHANI,ปทุมธานี สกษ.,ปทุมธานี,14.10000,100.61667,1009.56,07-26-2019,07:00:00,27.0,0.00,240,1010.37,7.4,26.0,8.00,33.62,26.0,0.01,94
48420,Samut Prakarn,สมุทรปราการ สกษ.,สมุทรปราการ,13.51667,100.76167,1009.10,07-26-2019,07:00:00,27.0,0.40,000,1009.55,0.0,26.5,10.00,33.91,26.1,1.00,95
48421,THONG PHAPHUM,ทองผาภูมิ,กาญจนบุรี,14.74222,98.63639,999.26,07-26-2019,07:00:00,24.0,0.00,000,1010.71,0.0,23.8,4.00,28.53,23.3,3.90,96
48425,SUPHAN BURI,สุพรรณบุรี,สุพรรณบุรี,14.47444,100.13889,1009.31,07-26-2019,07:00:00,25.5,0.40,000,1010.33,0.0,25.0,8.00,29.38,23.7,0.80,90
48426,LOP BURI,ลพบุรี,ลพบุรี,14.79972,100.64500,1008.27,07-26-2019,07:00:00,25.5,0.30,000,1010.11,0.0,25.4,7.00,29.91,24.0,0.50,92
48427,U THONG AGROMET.,อู่ทอง สกษ.,สุพรรณบุรี,14.30361,99.86472,1009.15,07-26-2019,07:00:00,25.0,1.60,000,1009.92,0.0,24.3,7.00,30.32,24.3,1.70,96
48429,SUVARNABHUMI AIRPORT,สนามบินสุวรรณภูมิ,สมุทรปราการ,13.68639,100.76750,1009.24,07-26-2019,07:00:00,25.9,0.00,020,1009.95,5.6,25.0,8.00,32.01,25.2,2.00,96
48430,PRACHIN BURI,ปราจีนบุรี,ปราจีนบุรี,14.05842,101.36930,1009.47,07-26-2019,07:00:00,25.4,0.40,000,1010.18,0.0,24.0,7.00,31.06,24.7,24.20,96
48431,NAKHON RATCHASIMA,นครราชสีมา,นครราชสีมา,14.96830,102.08603,988.76,07-26-2019,07:00:00,26.2,0.00,000,1010.03,0.0,25.4,10.00,26.98,22.3,0.00,79
48432,SURIN,สุรินทร์,สุรินทร์,14.88333,103.50000,993.10,07-26-2019,07:00:00,25.1,0.30,000,1009.97,0.0,24.1,6.00,30.23,24.2,0.60,95
48433,SURIN AGROMET.,สุรินทร์ สกษ.,สุรินทร์,14.88333,103.45000,993.94,07-26-2019,07:00:00,25.5,0.20,000,1010.51,0.0,24.0,7.00,30.44,24.3,0.90,93
48434,CHOK CHAI,โชคชัย,นครราชสีมา,14.71889,102.16861,987.64,07-26-2019,07:00:00,25.5,0.00,000,1009.66,0.0,25.2,10.00,27.29,22.5,0.90,84
48435,PAKCHONG AGROMET.,ปากช่อง สกษ.,นครราชสีมา,14.64389,101.33194,966.31,07-26-2019,07:00:00,24.5,0.01,240,1010.03,7.4,23.2,10.00,25.10,21.2,0.01,82
48436,NANG RONG,นางรอง,บุรีรัมย์,14.58333,102.80000,989.19,07-26-2019,07:00:00,25.5,0.00,120,1009.91,3.7,25.2,10.00,28.59,23.3,0.00,88
48437,BURIRUM,บุรีรัมย์,บุรีรัมย์,15.22575,103.24808,990.04,07-26-2019,07:00:00,25.4,0.00,190,1011.05,9.3,24.5,8.00,30.52,24.4,0.40,94
48438,SAMUTSONGKRAM,สมุทรสงคราม,สมุทรสงคราม,13.40778,100.03222,1009.77,07-26-2019,07:00:00,26.6,0.00,000,1010.21,0.0,26.1,10.00,29.00,23.5,0.00,83
48439,KABIN BURI,กบินทร์บุรี,ปราจีนบุรี,13.98333,101.70722,1008.53,07-26-2019,07:00:00,25.2,0.20,000,1009.96,0.0,24.5,6.00,31.49,24.9,10.80,98
48440,SA KAEW,สระแก้ว,สระแก้ว,13.78889,102.03472,1005.53,07-26-2019,07:00:00,25.0,0.00,000,1010.51,0.0,24.1,7.00,30.58,24.4,11.30,97
48450,KANCHANA BURI,กาญจนบุรี,กาญจนบุรี,14.02250,99.53583,1006.42,07-26-2019,07:00:00,26.0,2.00,000,1009.73,0.0,24.5,12.00,28.70,23.4,2.00,85
48451,NAKHONPATHOM,นครปฐม,นครปฐม,14.01167,99.97000,1008.85,07-26-2019,07:00:00,25.8,0.01,000,1009.96,0.0,24.0,8.00,28.34,23.2,0.01,85
48453,BANG NA AGROMET.,กรุงเทพฯ บางนา สกษ.,กรุงเทพมหานคร,13.66639,100.60611,1009.87,07-26-2019,07:00:00,26.5,0.00,300,1010.17,5.6,25.8,8.00,30.43,24.3,1.10,88
48454,BANGKOK PORT (KLONG TOEI),กรุงเทพฯ ท่าเรือคลองเตย,กรุงเทพมหานคร,13.70694,100.56805,1009.45,07-26-2019,07:00:00,26.6,0.30,000,1010.14,0.0,25.8,10.00,30.62,24.4,15.60,88
48455,BANGKOK METROPOLIS,กรุงเทพมหานคร,กรุงเทพมหานคร,13.72639,100.56000,1009.56,07-26-2019,07:00:00,26.0,0.00,000,1010.05,0.0,25.5,10.00,28.97,23.5,11.70,86
48456,DON MUANG AIRPORT,สนามบินดอนเมือง,กรุงเทพมหานคร,13.91917,100.60500,1009.40,07-26-2019,07:00:00,26.3,0.01,000,1010.82,0.0,26.1,8.00,32.51,25.4,0.01,95
48457,PILOT STATION,นำร่อง,สมุทรปราการ,13.39389,100.59944,1008.19,07-26-2019,07:00:00,28.8,0.60,000,1009.87,0.0,28.2,10.00,31.86,25.1,0.60,80
48458,CHACHOENGSAO,ฉะเชิงเทรา,ฉะเชิงเทรา,13.51556,101.45833,1003.96,07-26-2019,07:00:00,25.0,0.00,000,1012.06,0.0,24.7,8.00,30.85,24.6,13.80,97
48459,CHON BURI,ชลบุรี,ชลบุรี,13.36667,100.98333,1009.48,07-26-2019,07:00:00,26.9,0.40,000,1009.77,0.0,26.0,8.00,34.56,26.5,8.30,98
48460,KO SICHANG,เกาะสีชัง,ชลบุรี,13.16167,100.80194,1005.72,07-26-2019,07:00:00,29.6,0.00,000,1008.84,0.0,28.5,10.00,33.50,25.9,2.00,81
48461,PHATTHAYA,พัทยา,ชลบุรี,12.92000,100.86944,1003.14,07-26-2019,07:00:00,28.7,0.00,240,1010.06,5.6,28.0,12.00,28.62,23.3,0.01,73
48462,ARANYA PRATHET,อรัญประเทศ,สระแก้ว,13.70000,102.58333,1004.92,07-26-2019,07:00:00,25.5,0.00,000,1010.57,0.0,24.6,8.00,30.98,24.6,10.40,95
48463,LAEM CHABANG,แหลมฉบัง,ชลบุรี,13.07694,100.87583,1001.60,07-26-2019,07:00:00,28.5,0.00,280,1010.90,14.8,27.0,8.00,28.78,23.4,0.00,74
48464,RATCHA BURI,ราชบุรี,ราชบุรี,13.48931,99.79239,1009.46,07-26-2019,07:00:00,25.5,0.01,000,1010.73,0.0,24.9,10.00,29.91,24.0,5.90,92
48465,PHETCHA BURI,เพชรบุรี,เพชรบุรี,12.99944,100.06056,1009.67,07-26-2019,07:00:00,26.6,0.00,320,1010.11,5.6,26.2,11.00,27.42,22.6,0.00,79
48474,NONG PHLUB AGROMET.,หนองพลับ สกษ.,ประจวบคีรีขันธ์,12.58333,99.73333,998.12,07-26-2019,07:00:00,24.3,0.60,000,1010.53,0.0,23.9,8.00,28.79,23.4,2.30,95
48475,HUA HIN,หัวหิน,ประจวบคีรีขันธ์,12.58611,99.96250,1009.24,07-26-2019,07:00:00,26.5,0.00,000,1009.95,0.0,26.1,10.00,30.70,24.5,12.20,89
48477,SATTAHIP,สัตหีบ,ชลบุรี,12.68333,100.98333,1007.57,07-26-2019,07:00:00,28.6,0.00,000,1010.00,0.0,27.9,10.00,28.16,23.0,0.01,72
48478,RAYONG,ระยอง,ระยอง,12.63222,101.34361,1009.67,07-26-2019,07:00:00,29.0,0.00,290,1010.18,7.4,28.7,9.00,29.74,23.9,0.90,74
48479,HUAI PONG AGROMET.,ห้วยโป่ง สกษ.,ระยอง,12.73333,101.13333,1004.94,07-26-2019,07:00:00,26.8,0.00,000,1010.12,0.0,26.6,11.00,29.37,23.7,0.10,83
48480,CHANTHA BURI,จันทบุรี,จันทบุรี,12.61667,102.11333,1009.92,07-26-2019,07:00:00,25.2,0.00,000,1010.33,0.0,24.5,8.00,30.96,24.6,20.70,97
48481,PHLIU  AGROMET.,พลิ้ว สกษ.,จันทบุรี,12.50861,102.17305,1007.40,07-26-2019,07:00:00,25.4,0.00,040,1010.19,7.4,24.5,8.00,30.79,24.5,87.30,95
48500,PRACHUAP KHIRIKHAN,ประจวบคีรีขันธ์,ประจวบคีรีขันธ์,11.83333,99.83333,1009.39,07-26-2019,07:00:00,26.8,0.00,300,1010.18,3.7,26.2,10.00,28.84,23.4,0.00,82
48501,TRAD,ตราด,ตราด,11.76667,102.88333,1009.88,07-26-2019,07:00:00,24.5,0.00,080,1010.34,9.3,23.6,7.00,29.41,23.8,3.50,96
48517,CHUMPHON,ชุมพร,ชุมพร,10.49875,99.18847,1009.70,07-26-2019,07:00:00,25.5,0.00,000,1010.39,0.0,24.2,7.00,30.98,24.6,4.10,95
48520,SAWI AGROMET.,สวี สกษ.,ชุมพร,10.33333,99.10000,1008.75,07-26-2019,07:00:00,25.4,0.00,000,1010.29,0.0,25.2,6.00,31.33,24.8,4.20,97
48532,RANONG,ระนอง,ระนอง,9.98333,98.61667,1010.13,07-26-2019,07:00:00,25.5,0.00,000,1011.06,0.0,25.4,10.00,30.17,24.2,0.00,93
48550,KO SAMUI,เกาะสมุย,สุราษฎร์ธานี,9.46667,100.05000,1009.61,07-26-2019,07:00:00,28.3,0.00,270,1010.30,5.6,26.6,10.00,31.14,24.7,0.00,81
48551,SURAT THANI,สุราษฎร์ธานี,สุราษฎร์ธานี,9.13556,99.15194,1010.16,07-26-2019,07:00:00,24.8,0.00,000,1010.97,0.0,24.7,6.00,30.48,24.4,0.00,97
48552,NAKHONSI THAMMARAT,นครศรีธรรมราช,นครศรีธรรมราช,8.53778,99.96389,1009.79,07-26-2019,07:00:00,24.7,0.00,000,1010.43,0.0,23.7,10.00,30.03,24.1,0.00,97
48554,NAKHONSI THAMMARAT AGROMET.,นครศรีธรรมราช สกษ.,นครศรีธรรมราช,8.35931,100.00000,1010.22,07-26-2019,07:00:00,24.3,0.00,000,1010.63,0.0,23.8,8.00,28.79,23.4,0.00,95
48555,SURAT THANI AGROMET.,สุราษฎร์ธานี สกษ.,สุราษฎร์ธานี,9.10000,99.63333,1007.99,07-26-2019,07:00:00,24.5,0.00,000,1012.26,0.0,24.2,6.00,29.93,24.1,0.00,97
48556,PHRA SANG,พระแสง สอท.,สุราษฎร์ธานี,8.57022,99.25825,1008.95,07-26-2019,07:00:00,24.4,0.00,000,1010.58,0.0,23.6,12.00,30.02,24.1,0.00,98
48557,CHAWANG,ฉวาง,นครศรีธรรมราช,8.43194,99.51194,1007.41,07-26-2019,07:00:00,24.5,0.00,000,1010.92,0.0,24.0,8.00,29.41,23.8,0.00,96
48560,PHATTHALUNG AGROMET.,พัทลุง สกษ.,พัทลุง,7.58333,100.16667,1008.65,07-26-2019,07:00:00,24.5,0.00,000,1010.02,0.0,24.4,8.00,30.20,24.2,0.00,98
48561,TAKUA PA,ตะกั่วป่า,พังงา,8.68417,98.25222,1009.20,07-26-2019,07:00:00,25.0,0.00,000,1010.09,0.0,24.8,10.00,29.79,24.0,0.00,94
48563,KRABI,กระบี่,กระบี่,8.10361,98.97528,1006.75,07-26-2019,07:00:00,24.6,0.00,000,1010.35,0.0,22.5,9.00,29.85,24.0,0.00,97
48564,PHUKET,ภูเก็ต,ภูเก็ต,7.88333,98.40000,1009.92,07-26-2019,07:00:00,26.3,0.00,000,1010.36,0.0,25.8,10.00,31.96,25.1,0.00,93
48565,PHUKET AIRPORT,ภูเก็ต (ศูนย์ฯ),ภูเก็ต,8.14500,98.31444,1008.87,07-26-2019,07:00:00,25.1,0.00,000,1009.87,0.0,22.6,10.00,31.31,24.8,0.00,98
48566,KO LANTA,เกาะลันตา,กระบี่,7.53333,99.05000,1009.40,07-26-2019,07:00:00,24.4,0.00,090,1010.23,5.6,24.0,10.00,28.71,23.4,0.00,94
48567,TRANG AIRPORT,ตรัง,ตรัง,7.51667,99.61667,1008.73,07-26-2019,07:00:00,24.5,0.00,000,1010.56,0.0,24.2,.80,30.20,24.2,0.00,98
48568,SONGKHLA,สงขลา,สงขลา,7.18211,100.60769,1009.95,07-26-2019,07:00:00,26.3,0.00,160,1010.70,1.9,25.4,10.00,29.25,23.7,0.01,86
48569,HAT YAI AIRPORT,หาดใหญ่,สงขลา,6.91667,100.43333,1006.65,07-26-2019,07:00:00,24.5,0.00,000,1010.69,0.0,23.2,6.00,29.67,23.9,0.60,97
48570,SATUN,สตูล,สตูล,6.65000,100.08333,1010.05,07-26-2019,07:00:00,24.7,0.00,000,1010.74,0.0,24.2,10.00,29.25,23.7,0.00,94
48571,KHO HONG AGROMET.,คอหงษ์ สกษ.,สงขลา,7.00000,100.50000,1009.04,07-26-2019,07:00:00,24.2,0.00,000,1010.17,0.0,23.0,10.00,29.39,23.8,21.20,97
48574,SA DAO,สะเดา,สงขลา,6.79806,100.39056,1007.76,07-26-2019,07:00:00,24.5,0.00,000,1010.71,0.0,23.4,10.00,30.20,24.2,0.00,98
48580,PATTANI AIRPORT,ปัตตานี,ปัตตานี,6.78333,101.15000,1009.67,07-26-2019,07:00:00,26.0,0.00,000,1010.36,0.0,25.5,8.00,31.93,25.1,0.00,95
48581,YALA AGROMET.,ยะลา สกษ.,ยะลา,6.51667,101.28333,1006.84,07-26-2019,07:00:00,25.3,0.00,000,1011.00,0.0,24.9,5.00,30.87,24.6,0.00,96
48583,NARATHIWAT,นราธิวาส,นราธิวาส,6.41667,101.81667,1011.06,07-26-2019,07:00:00,25.5,0.00,000,1011.65,0.0,.0,9.00,29.38,23.7,0.30,90
