WmoStationNumber,StationNameEnglish,StationNameThai,Province,Latitude,Longitude,RelativeHumidity,Date,Time,Rainfall24Hr,AirTemperature,StationPressure,Rainfall,MeanSeaLevelPressure,WindDirection,DewPoint,LandVisibility,WindSpeed,VaporPressure
48300,MAE HONG SON,แม่ฮ่องสอน,แม่ฮ่องสอน,19.29897,97.97578,89,07-24-2019,13:00:00,38.90,26.0,975.76,8.90,1006.67,000,24.1,3.00,0.0,30.03
48302,DOI ANG KANG,ดอยอ่างขาง,เชียงใหม่,19.93139,99.04833,94,07-24-2019,13:00:00,26.50,19.6,843.60,11.80,1003.99,310,18.6,2.00,63.0,21.46
48303,CHIANG RAI,เชียงราย,เชียงราย,19.96139,99.88139,76,07-24-2019,13:00:00,21.30,28.6,961.96,0.10,1005.07,170,24.0,12.00,5.6,29.79
48304,CHAING RAI AGROMET.,เชียงราย สกษ.,เชียงราย,19.87083,99.78278,86,07-24-2019,13:00:00,25.20,27.1,960.01,0.60,1005.23,150,24.5,8.00,5.6,30.75
48307,THUNG CHANG,ทุ่งช้าง,น่าน,19.41194,100.88353,85,07-24-2019,13:00:00,10.40,28.4,968.79,1.00,1006.06,200,25.7,12.00,7.4,33.04
48310,PHAYAO,พะเยา,พะเยา,19.13333,99.90000,84,07-24-2019,13:00:00,39.70,27.5,961.04,0.30,1005.79,000,24.5,10.00,0.0,30.70
48315,THA WANGPHA,ท่าวังผา,น่าน,19.11056,100.80250,81,07-24-2019,13:00:00,14.80,28.5,979.83,0.50,1006.33,190,24.9,10.00,5.6,31.54
48324,THOEN,เถิน,ลำปาง,17.63661,99.24475,75,07-24-2019,13:00:00,0.30,28.9,985.45,0.10,1007.03,210,24.0,15.00,3.7,29.82
48325,MAE SARIANG,แม่สะเรียง,แม่ฮ่องสอน,18.16667,97.93333,94,07-24-2019,13:00:00,8.80,26.2,983.87,3.70,1008.00,000,25.2,5.00,0.0,32.04
48327,CHIANG MAI,เชียงใหม่,เชียงใหม่,18.79000,98.97694,86,07-24-2019,13:00:00,10.70,26.7,972.20,1.20,1006.62,190,24.2,10.00,9.3,30.26
48328,LAMPANG,ลำปาง,ลำปาง,18.28333,99.51667,86,07-24-2019,13:00:00,1.90,27.8,980.79,1.10,1008.21,000,25.2,7.00,0.0,32.12
48329,LAMPHUN,ลำพูน,ลำพูน,18.56722,99.03389,88,07-24-2019,13:00:00,2.90,26.5,973.13,1.90,1006.63,000,24.3,9.00,0.0,30.43
48330,PHRAE,แพร่,แพร่,18.16667,100.16667,85,07-24-2019,13:00:00,5.50,28.1,987.97,1.50,1006.37,260,25.3,6.00,3.7,32.15
48331,NAN,น่าน,น่าน,18.77972,100.77778,75,07-24-2019,13:00:00,48.70,29.7,983.35,0.01,1005.90,230,24.7,10.00,3.7,31.12
48333,NAN AGROMET.,น่าน สกษ.,น่าน,18.86667,100.75000,87,07-24-2019,13:00:00,15.70,27.6,976.28,0.50,1006.01,000,25.3,9.00,0.0,32.28
48334,LAMPANG AGROMET.,ลำปาง สกษ.,ลำปาง,18.31667,99.28333,94,07-24-2019,13:00:00,9.20,25.5,971.70,9.00,1007.28,000,24.5,4.00,0.0,30.71
48350,LOEI AGROMET.,เลย สกษ.,เลย,17.40000,101.73333,78,07-24-2019,13:00:00,2.20,29.4,976.31,0.00,1005.69,150,25.1,15.00,3.7,31.93
48351,UTTARADIT,อุตรดิตถ์,อุตรดิตถ์,17.61667,100.10000,85,07-24-2019,13:00:00,2.30,28.0,1000.08,1.80,1007.36,000,25.1,7.00,0.0,31.95
48352,NONG KHAI,หนองคาย,หนองคาย,17.86717,102.73303,76,07-24-2019,13:00:00,34.00,30.4,986.00,0.00,1005.64,240,25.6,20.00,18.5,32.84
48353,LOEI,เลย,เลย,17.45000,101.73333,71,07-24-2019,13:00:00,2.80,29.6,977.64,0.30,1005.99,190,23.8,15.00,9.3,29.52
48354,UDON THANI,อุดรธานี,อุดรธานี,17.38333,102.80000,85,07-24-2019,13:00:00,5.50,27.3,986.30,2.40,1006.42,200,24.6,8.00,5.6,30.86
48355,SAKON NAKHON AGROMET.,สกลนคร สกษ.,สกลนคร,17.12503,104.06100,70,07-24-2019,13:00:00,21.60,29.1,985.20,0.00,1006.75,290,23.1,15.00,7.4,28.29
48356,SAKON NAKHON,สกลนคร,สกลนคร,17.15000,104.13333,68,07-24-2019,13:00:00,40.60,29.5,986.48,0.00,1005.77,220,23.1,15.00,9.3,28.23
48357,NAKHON PHANOM,นครพนม,นครพนม,17.41083,104.78250,87,07-24-2019,13:00:00,52.90,27.2,990.02,0.20,1006.74,100,24.8,10.00,3.7,31.22
48358,NAKHON PHANOM AGROMET.,นครพนม สกษ.,นครพนม,17.44306,104.77361,90,07-24-2019,13:00:00,44.00,26.9,989.49,0.80,1006.89,000,25.0,9.00,0.0,31.74
48360,NONG BUA LAM PHU,หนองบัวลำภู,หนองบัวลำภู,17.23250,102.42944,81,07-24-2019,13:00:00,4.80,28.5,979.66,1.00,1005.25,170,24.9,12.00,7.4,31.54
48372,SUKHOTHAI*,สุโขทัย,สุโขทัย,17.10611,99.80000,68,07-24-2019,13:00:00,0.40,31.3,1000.93,0.00,1006.64,000,24.8,12.00,0.0,31.23
48373,SI SAMRONG AGROMET.,ศรีสำโรง สกษ.,สุโขทัย,17.16136,99.86167,70,07-24-2019,13:00:00,3.70,31.0,1000.76,0.00,1006.86,320,24.9,12.00,5.6,31.47
48374,LOM SAK,หล่มสัก,เพชรบูรณ์,16.77361,101.24944,68,07-24-2019,13:00:00,4.00,30.5,990.68,0.00,1006.92,000,24.0,10.00,0.0,29.89
48375,MAE SOT,แม่สอด,ตาก,16.65917,98.55083,82,07-24-2019,13:00:00,35.70,27.5,984.26,1.10,1006.52,000,24.2,10.00,0.0,30.15
48376,TAK,ตาก,ตาก,16.87833,99.14333,64,07-24-2019,13:00:00,2.30,30.0,993.79,0.00,1008.04,260,22.4,10.00,18.5,27.01
48377,BHUMIBOL DAM,เขื่อนภูมิพล,ตาก,17.24389,99.00250,80,07-24-2019,13:00:00,2.00,29.5,990.21,0.00,1006.45,230,25.7,7.00,7.4,33.00
48378,PHITSANULOK,พิษณุโลก,พิษณุโลก,16.79481,100.27930,70,07-24-2019,13:00:00,1.20,30.4,1002.34,0.00,1007.52,160,24.4,10.00,3.7,30.54
48379,PHETCHABUN,เพชรบูรณ์,เพชรบูรณ์,16.43333,101.15000,72,07-24-2019,13:00:00,4.70,31.0,992.32,0.10,1005.32,000,25.4,10.00,0.0,32.34
48381,KHON KAEN,ขอนแก่น,ขอนแก่น,16.46111,102.78972,85,07-24-2019,13:00:00,2.60,28.6,985.05,1.00,1006.61,220,25.8,8.00,3.7,33.16
48382,MAHASARAKHAM,มหาสารคาม,มหาสารคาม,16.24722,103.06805,71,07-24-2019,13:00:00,0.50,31.4,989.11,0.01,1006.35,000,25.5,10.00,0.0,32.60
48383,MUKDAHAN,มุกดาหาร,มุกดาหาร,16.54139,104.72889,83,07-24-2019,13:00:00,15.20,28.6,990.27,0.10,1006.01,210,25.3,12.00,3.7,32.30
48384,THA PHRA AGROMET.,ท่าพระ สกษ.,ขอนแก่น,16.33333,102.81667,75,07-24-2019,13:00:00,1.60,30.5,986.81,0.01,1005.45,000,25.6,8.00,0.0,32.75
48385,UMPHANG,อุ้มผาง,ตาก,16.02472,98.86444,85,07-24-2019,13:00:00,8.00,25.8,957.09,3.00,1008.36,000,23.2,10.00,0.0,28.34
48386,PICHIT AGROMET.,พิจิตร สกษ.,พิจิตร,16.43806,100.29250,61,07-24-2019,13:00:00,0.10,33.0,1002.66,0.00,1006.54,280,24.5,8.00,3.7,30.69
48387,DOI MU SOE AGROMET.,ดอยมูเซอร์ สกษ.,ตาก,16.75000,98.93333,92,07-24-2019,13:00:00,12.50,22.0,912.73,0.10,1007.74,260,20.6,.90,13.0,24.27
48390,KALASIN,กาฬสินธุ์,กาฬสินธุ์,16.33250,103.58833,80,07-24-2019,13:00:00,22.60,30.5,990.65,0.10,1006.44,310,26.6,8.00,7.4,34.82
48400,NAKHON SAWAN,นครสวรรค์ ,นครสวรรค์,15.67183,100.13236,57,07-24-2019,13:00:00,0.01,34.2,1003.07,0.01,1007.01,280,24.4,10.00,1.9,30.58
48401,TAKFA AGROMET.,ตากฟ้า สกษ.,นครสวรรค์,15.34944,100.53028,57,07-24-2019,13:00:00,0.00,32.7,997.21,0.00,1007.69,210,23.0,7.00,3.7,28.08
48402,CHAINAT AGROMET.,ชัยนาท สกษ.,ชัยนาท,15.15000,100.18333,51,07-24-2019,13:00:00,0.00,34.5,1005.78,0.00,1007.67,180,23.0,10.00,3.7,28.02
48403,CHAIYAPHUM,ชัยภูมิ,ชัยภูมิ,15.80000,102.03333,48,07-24-2019,13:00:00,0.01,33.4,985.55,0.00,1005.95,260,20.9,10.00,13.0,24.75
48404,ROI ET AGROMET.,ร้อยเอ็ด สกษ.,ร้อยเอ็ด,16.07322,103.60844,65,07-24-2019,13:00:00,4.30,31.3,988.46,0.80,1005.86,330,24.0,11.00,18.5,29.80
48405,ROI ET,ร้อยเอ็ด,ร้อยเอ็ด,16.02000,103.74389,69,07-24-2019,13:00:00,6.60,30.7,989.87,1.00,1005.82,280,24.4,10.00,9.3,30.58
48407,UBON RATCHATHANI,อุบลราชธานี (ศูนย์ฯ),อุบลราชธานี,15.25000,104.86667,75,07-24-2019,13:00:00,52.70,30.2,992.96,0.00,1006.84,260,25.2,10.00,3.7,32.13
48408,UBON RATCHATHANI AGROMET.,อุบลราชธานี สกษ.,อุบลราชธานี,15.23914,105.02350,78,07-24-2019,13:00:00,48.20,30.0,992.69,0.00,1007.38,000,25.8,9.00,0.0,33.17
48409,SI SAKET AGROMET.,ศรีสะเกษ,ศรีสะเกษ,15.00000,104.05000,66,07-24-2019,13:00:00,2.70,32.0,992.62,0.00,1007.05,220,24.9,10.00,9.3,31.52
48410,UTHAITHANI,อุทัยธานี,อุทัยธานี,15.37417,100.03889,43,07-24-2019,13:00:00,0.01,34.8,1004.97,0.00,1007.91,"{'0': '   ', '@attributes': {'Unit': 'degree'}}",20.5,10.00,0.0,24.15
48413,WICHIAN BURI,วิเชียรบุรี,เพชรบูรณ์,15.65700,101.10800,56,07-24-2019,13:00:00,0.01,33.3,998.80,0.00,1006.58,000,23.4,10.00,0.0,28.72
48415,AYUTTHAYA,พระนครศรีอยุธยา,พระนครศรีอยุธยา,14.53472,100.72500,56,07-24-2019,13:00:00,0.00,33.1,1007.98,0.00,1009.07,230,23.1,8.00,16.7,28.32
48416,THA TUM,ท่าตูม,สุรินทร์,15.31667,103.68333,67,07-24-2019,13:00:00,0.00,31.5,992.49,0.00,1006.96,100,24.5,9.00,5.6,30.77
48417,NAKORNNAYOK,นครนายก,นครนายก,14.36222,101.39278,93,07-24-2019,13:00:00,1.00,22.6,872.84,0.00,1006.47,280,21.4,8.00,9.3,25.44
48418,BUA CHUM,บัวชุม  ,ลพบุรี,15.26667,101.18736,63,07-24-2019,13:00:00,0.00,33.4,1000.78,0.00,1006.53,260,25.4,10.00,5.6,32.43
48419,PATHUMTHANI,ปทุมธานี สกษ.,ปทุมธานี,14.10000,100.61667,66,07-24-2019,13:00:00,0.00,34.3,1007.02,0.00,1007.81,260,27.0,8.00,5.6,35.67
48420,Samut Prakarn,สมุทรปราการ สกษ.,สมุทรปราการ,13.51667,100.76167,67,07-24-2019,13:00:00,3.50,31.5,1007.18,0.00,1007.62,230,24.7,10.00,24.1,31.06
48421,THONG PHAPHUM,ทองผาภูมิ,กาญจนบุรี,14.74222,98.63639,92,07-24-2019,13:00:00,14.00,25.3,998.93,13.40,1010.33,000,24.0,3.00,0.0,29.80
48425,SUPHAN BURI,สุพรรณบุรี,สุพรรณบุรี,14.47444,100.13889,58,07-24-2019,13:00:00,0.00,33.0,1007.06,0.00,1008.06,210,23.7,12.00,3.7,29.25
48426,LOP BURI,ลพบุรี,ลพบุรี,14.79972,100.64500,58,07-24-2019,13:00:00,0.00,33.0,1005.83,0.00,1007.62,170,23.5,10.00,11.1,28.97
48427,U THONG AGROMET.,อู่ทอง สกษ.,สุพรรณบุรี,14.30361,99.86472,58,07-24-2019,13:00:00,0.00,31.8,1007.08,0.00,1007.84,000,22.4,9.00,0.0,27.16
48429,SUVARNABHUMI AIRPORT,สนามบินสุวรรณภูมิ,สมุทรปราการ,13.68639,100.76750,62,07-24-2019,13:00:00,6.00,31.8,1007.32,0.00,1008.02,250,23.6,10.00,20.4,29.11
48430,PRACHIN BURI,ปราจีนบุรี,ปราจีนบุรี,14.05842,101.36930,65,07-24-2019,13:00:00,0.40,33.9,1006.24,0.00,1006.92,300,26.4,8.00,7.4,34.44
48431,NAKHON RATCHASIMA,นครราชสีมา,นครราชสีมา,14.96830,102.08603,56,07-24-2019,13:00:00,0.01,34.0,985.56,0.00,1006.22,280,23.9,10.00,7.4,29.58
48432,SURIN,สุรินทร์,สุรินทร์,14.88333,103.50000,53,07-24-2019,13:00:00,0.00,33.1,989.99,0.00,1006.36,240,22.1,12.00,5.6,26.64
48433,SURIN AGROMET.,สุรินทร์ สกษ.,สุรินทร์,14.88333,103.45000,55,07-24-2019,13:00:00,0.70,33.0,990.63,0.00,1006.73,270,22.9,9.00,9.3,27.84
48434,CHOK CHAI,โชคชัย,นครราชสีมา,14.71889,102.16861,54,07-24-2019,13:00:00,0.01,33.1,984.84,0.01,1006.25,260,22.5,10.00,13.0,27.20
48435,PAKCHONG AGROMET.,ปากช่อง สกษ.,นครราชสีมา,14.64389,101.33194,64,07-24-2019,13:00:00,0.10,30.1,964.26,0.00,1007.06,260,22.6,10.00,11.1,27.47
48436,NANG RONG,นางรอง,บุรีรัมย์,14.58333,102.80000,49,07-24-2019,13:00:00,0.20,34.5,986.11,0.00,1006.16,230,22.1,10.00,14.8,26.60
48437,BURIRUM,บุรีรัมย์,บุรีรัมย์,15.22575,103.24808,65,07-24-2019,13:00:00,0.00,32.3,987.64,0.00,1008.12,260,24.8,10.00,11.1,31.27
48438,SAMUTSONGKRAM,สมุทรสงคราม,สมุทรสงคราม,13.40778,100.03222,64,07-24-2019,13:00:00,0.01,32.0,1007.38,0.00,1007.80,150,24.3,10.00,11.1,30.36
48439,KABIN BURI,กบินทร์บุรี,ปราจีนบุรี,13.98333,101.70722,66,07-24-2019,13:00:00,2.00,33.0,1005.63,0.00,1007.02,000,25.9,11.00,0.0,33.36
48440,SA KAEW,สระแก้ว,สระแก้ว,13.78889,102.03472,88,07-24-2019,13:00:00,0.50,30.1,1002.67,0.50,1007.55,000,27.9,7.00,0.0,37.58
48450,KANCHANA BURI,กาญจนบุรี,กาญจนบุรี,14.02250,99.53583,72,07-24-2019,13:00:00,0.20,30.2,1005.03,0.20,1008.29,230,24.6,4.00,11.1,30.99
48451,NAKHONPATHOM,นครปฐม,นครปฐม,14.01167,99.97000,75,07-24-2019,13:00:00,7.10,29.8,1007.09,0.10,1008.19,240,25.0,10.00,3.7,31.60
48453,BANG NA AGROMET.,กรุงเทพฯ บางนา สกษ.,กรุงเทพมหานคร,13.66639,100.60611,65,07-24-2019,13:00:00,20.70,32.2,1007.63,0.00,1007.93,230,24.7,10.00,11.1,31.06
48454,BANGKOK PORT (KLONG TOEI),กรุงเทพฯ ท่าเรือคลองเตย,กรุงเทพมหานคร,13.70694,100.56805,63,07-24-2019,13:00:00,7.00,32.4,1007.14,0.00,1007.82,250,24.4,10.00,9.3,30.61
48455,BANGKOK METROPOLIS,กรุงเทพมหานคร,กรุงเทพมหานคร,13.72639,100.56000,64,07-24-2019,13:00:00,5.30,32.0,1007.33,0.00,1007.81,160,24.3,10.00,3.7,30.36
48456,DON MUANG AIRPORT,สนามบินดอนเมือง,กรุงเทพมหานคร,13.91917,100.60500,57,07-24-2019,13:00:00,21.80,32.6,1006.57,0.00,1007.96,290,23.0,10.00,18.5,28.17
48457,PILOT STATION,นำร่อง,สมุทรปราการ,13.39389,100.59944,74,07-24-2019,13:00:00,0.00,30.2,1006.28,0.00,1007.95,220,24.9,12.00,11.1,31.56
48458,CHACHOENGSAO,ฉะเชิงเทรา,ฉะเชิงเทรา,13.51556,101.45833,53,07-24-2019,13:00:00,0.01,33.0,1001.16,0.00,1009.02,000,22.0,10.00,0.0,26.45
48459,CHON BURI,ชลบุรี,ชลบุรี,13.36667,100.98333,67,07-24-2019,13:00:00,15.50,33.0,1007.29,0.00,1007.57,270,26.0,12.00,5.6,33.66
48460,KO SICHANG,เกาะสีชัง,ชลบุรี,13.16167,100.80194,65,07-24-2019,13:00:00,0.00,32.2,1004.99,0.00,1008.07,200,24.8,12.00,5.6,31.35
48461,PHATTHAYA,พัทยา,ชลบุรี,12.92000,100.86944,61,07-24-2019,13:00:00,0.00,32.5,1001.57,0.00,1008.39,210,23.9,12.00,14.8,29.66
48462,ARANYA PRATHET,อรัญประเทศ,สระแก้ว,13.70000,102.58333,83,07-24-2019,13:00:00,1.80,29.5,1001.84,1.80,1007.39,330,26.3,8.00,3.7,34.16
48463,LAEM CHABANG,แหลมฉบัง,ชลบุรี,13.07694,100.87583,61,07-24-2019,13:00:00,0.00,32.5,999.68,0.00,1008.84,230,23.9,8.00,16.7,29.66
48464,RATCHA BURI,ราชบุรี,ราชบุรี,13.48931,99.79239,63,07-24-2019,13:00:00,0.01,32.0,1007.47,0.00,1008.72,150,24.1,14.00,3.7,30.08
48465,PHETCHA BURI,เพชรบุรี,เพชรบุรี,12.99944,100.06056,61,07-24-2019,13:00:00,0.00,35.0,1007.24,0.00,1007.66,180,26.3,11.00,9.3,34.15
48474,NONG PHLUB AGROMET.,หนองพลับ สกษ.,ประจวบคีรีขันธ์,12.58333,99.73333,58,07-24-2019,13:00:00,0.00,32.3,995.96,0.00,1008.02,360,22.9,10.00,9.3,27.85
48475,HUA HIN,หัวหิน,ประจวบคีรีขันธ์,12.58611,99.96250,72,07-24-2019,13:00:00,0.00,31.7,1007.34,0.00,1008.04,110,26.0,10.00,7.4,33.53
48477,SATTAHIP,สัตหีบ,ชลบุรี,12.68333,100.98333,54,07-24-2019,13:00:00,0.00,34.0,1006.03,0.00,1008.42,240,23.4,10.00,14.8,28.72
48478,RAYONG,ระยอง,ระยอง,12.63222,101.34361,65,07-24-2019,13:00:00,0.00,32.0,1007.89,0.00,1008.41,240,24.6,10.00,11.1,30.94
48479,HUAI PONG AGROMET.,ห้วยโป่ง สกษ.,ระยอง,12.73333,101.13333,58,07-24-2019,13:00:00,0.00,32.7,1002.76,0.00,1007.82,290,23.3,12.00,5.6,28.65
48480,CHANTHA BURI,จันทบุรี,จันทบุรี,12.61667,102.11333,64,07-24-2019,13:00:00,27.50,32.7,1007.53,0.00,1007.94,000,25.1,9.00,0.0,31.82
48481,PHLIU  AGROMET.,พลิ้ว สกษ.,จันทบุรี,12.50861,102.17305,66,07-24-2019,13:00:00,54.60,32.0,1005.72,0.00,1008.45,230,24.9,10.00,7.4,31.52
48500,PRACHUAP KHIRIKHAN,ประจวบคีรีขันธ์,ประจวบคีรีขันธ์,11.83333,99.83333,47,07-24-2019,13:00:00,0.00,34.3,1007.49,0.00,1008.26,000,21.3,12.00,0.0,25.38
48501,TRAD,ตราด,ตราด,11.76667,102.88333,75,07-24-2019,13:00:00,45.00,30.8,1007.86,0.00,1008.32,250,25.9,8.00,5.6,33.39
48517,CHUMPHON,ชุมพร,ชุมพร,10.49875,99.18847,55,07-24-2019,13:00:00,0.00,33.3,1008.07,0.00,1008.74,260,23.0,11.00,13.0,28.15
48520,SAWI AGROMET.,สวี สกษ.,ชุมพร,10.33333,99.10000,54,07-24-2019,13:00:00,0.00,33.5,1007.08,0.00,1008.57,250,22.9,9.00,7.4,27.99
48532,RANONG,ระนอง,ระนอง,9.98333,98.61667,62,07-24-2019,13:00:00,0.00,32.4,1009.09,0.00,1010.00,240,24.3,10.00,9.3,30.32
48550,KO SAMUI,เกาะสมุย,สุราษฎร์ธานี,9.46667,100.05000,62,07-24-2019,13:00:00,0.00,34.0,1008.56,0.00,1009.23,230,25.6,12.00,5.6,32.84
48551,SURAT THANI,สุราษฎร์ธานี,สุราษฎร์ธานี,9.13556,99.15194,55,07-24-2019,13:00:00,0.00,35.0,1008.12,0.00,1008.90,270,24.7,10.00,11.1,31.11
48552,NAKHONSI THAMMARAT,นครศรีธรรมราช,นครศรีธรรมราช,8.53778,99.96389,56,07-24-2019,13:00:00,0.00,33.5,1007.83,0.00,1008.46,230,23.4,10.00,1.9,28.84
48554,NAKHONSI THAMMARAT AGROMET.,นครศรีธรรมราช สกษ.,นครศรีธรรมราช,8.35931,100.00000,63,07-24-2019,13:00:00,0.00,33.7,1008.02,0.00,1008.42,000,25.7,10.00,0.0,33.08
48555,SURAT THANI AGROMET.,สุราษฎร์ธานี สกษ.,สุราษฎร์ธานี,9.10000,99.63333,58,07-24-2019,13:00:00,0.00,33.2,1006.87,0.00,1011.01,260,23.9,7.00,16.7,29.66
48556,PHRA SANG,พระแสง สอท.,สุราษฎร์ธานี,8.57022,99.25825,64,07-24-2019,13:00:00,0.00,32.7,1007.53,0.00,1009.11,000,25.1,12.00,0.0,31.82
48557,CHAWANG,ฉวาง,นครศรีธรรมราช,8.43194,99.51194,61,07-24-2019,13:00:00,0.00,33.0,1005.57,0.00,1008.98,000,24.5,12.00,0.0,30.69
48560,PHATTHALUNG AGROMET.,พัทลุง สกษ.,พัทลุง,7.58333,100.16667,67,07-24-2019,13:00:00,0.00,32.1,1007.54,0.00,1008.88,090,25.2,8.00,5.6,32.02
48561,TAKUA PA,ตะกั่วป่า,พังงา,8.68417,98.25222,71,07-24-2019,13:00:00,0.00,31.8,1008.84,0.00,1009.71,240,25.8,10.00,14.8,33.15
48563,KRABI,กระบี่,กระบี่,8.10361,98.97528,63,07-24-2019,13:00:00,0.00,31.4,1005.72,0.00,1009.24,250,23.5,10.00,7.4,28.87
48564,PHUKET,ภูเก็ต,ภูเก็ต,7.88333,98.40000,62,07-24-2019,13:00:00,23.80,33.0,1008.72,0.00,1009.15,160,24.6,10.00,5.6,30.99
48565,PHUKET AIRPORT,ภูเก็ต (ศูนย์ฯ),ภูเก็ต,8.14500,98.31444,68,07-24-2019,13:00:00,18.20,32.2,1008.35,0.00,1009.32,260,25.4,10.00,13.0,32.53
48566,KO LANTA,เกาะลันตา,กระบี่,7.53333,99.05000,71,07-24-2019,13:00:00,0.00,29.3,1009.21,0.00,1010.02,140,23.5,10.00,5.6,28.94
48567,TRANG AIRPORT,ตรัง,ตรัง,7.51667,99.61667,60,07-24-2019,13:00:00,6.80,32.6,1007.38,0.00,1009.16,220,23.9,10.00,13.0,29.58
48568,SONGKHLA,สงขลา,สงขลา,7.18211,100.60769,54,07-24-2019,13:00:00,0.00,33.4,1008.36,0.00,1009.10,260,22.8,12.00,7.4,27.79
48569,HAT YAI AIRPORT,หาดใหญ่,สงขลา,6.91667,100.43333,58,07-24-2019,13:00:00,0.40,33.0,1005.07,0.00,1008.99,210,23.7,10.00,13.0,29.25
48570,SATUN,สตูล,สตูล,6.65000,100.08333,68,07-24-2019,13:00:00,3.90,31.4,1009.50,0.00,1010.18,120,24.9,10.00,9.3,31.43
48571,KHO HONG AGROMET.,คอหงษ์ สกษ.,สงขลา,7.00000,100.50000,58,07-24-2019,13:00:00,1.00,33.7,1008.09,0.00,1009.18,000,24.3,12.00,0.0,30.41
48574,SA DAO,สะเดา,สงขลา,6.79806,100.39056,61,07-24-2019,13:00:00,14.90,33.0,1006.29,0.00,1009.16,250,24.5,12.00,11.1,30.69
48580,PATTANI AIRPORT,ปัตตานี,ปัตตานี,6.78333,101.15000,67,07-24-2019,13:00:00,0.00,32.2,1007.93,0.00,1008.61,270,25.3,10.00,9.3,32.23
48581,YALA AGROMET.,ยะลา สกษ.,ยะลา,6.51667,101.28333,63,07-24-2019,13:00:00,22.10,33.4,1005.08,0.00,1009.12,300,25.4,10.00,7.4,32.43
48583,NARATHIWAT,นราธิวาส,นราธิวาส,6.41667,101.81667,58,07-24-2019,13:00:00,0.00,33.7,1008.51,0.00,1009.08,070,24.2,10.00,14.8,30.12
