WmoStationNumber,StationNameEnglish,StationNameThai,Province,Latitude,Longitude,LandVisibility,Date,Time,Rainfall,WindSpeed,StationPressure,RelativeHumidity,DewPoint,Rainfall24Hr,VaporPressure,MeanSeaLevelPressure,AirTemperature,WindDirection
48300,MAE HONG SON,แม่ฮ่องสอน,แม่ฮ่องสอน,19.29897,97.97578,5.00,07-25-2019,22:00:00,10.10,0.0,977.92,95,23.4,15.60,28.79,1009.07,24.3,000
48302,DOI ANG KANG,ดอยอ่างขาง,เชียงใหม่,19.93139,99.04833,4.00,07-25-2019,22:00:00,0.00,9.3,844.87,90,17.8,3.80,20.33,1005.61,19.4,300
48303,CHIANG RAI,เชียงราย,เชียงราย,19.96139,99.88139,10.00,07-25-2019,22:00:00,0.00,7.4,963.05,82,23.2,4.60,28.37,1006.54,26.4,180
48304,CHAING RAI AGROMET.,เชียงราย สกษ.,เชียงราย,19.87083,99.78278,15.00,07-25-2019,22:00:00,0.00,7.4,961.09,82,22.7,4.70,27.58,1006.52,26.1,250
48307,THUNG CHANG,ทุ่งช้าง,น่าน,19.41194,100.88353,6.00,07-25-2019,22:00:00,19.60,0.0,970.97,100,23.5,21.80,28.94,1008.95,23.5,000
48310,PHAYAO,พะเยา,พะเยา,19.13333,99.90000,7.00,07-25-2019,22:00:00,0.40,9.3,962.77,88,22.9,0.40,27.88,1007.97,25.1,140
48315,THA WANGPHA,ท่าวังผา,น่าน,19.11056,100.80250,8.00,07-25-2019,22:00:00,9.30,0.0,981.74,95,24.1,9.70,30.05,1008.60,25.0,000
48324,THOEN,เถิน,ลำปาง,17.63661,99.24475,11.00,07-25-2019,22:00:00,0.00,13.0,987.09,68,20.5,0.20,24.12,1008.84,26.9,200
48325,MAE SARIANG,แม่สะเรียง,แม่ฮ่องสอน,18.16667,97.93333,5.00,07-25-2019,22:00:00,0.80,0.0,986.16,96,22.8,7.40,27.66,1010.57,23.5,000
48327,CHIANG MAI,เชียงใหม่,เชียงใหม่,18.79000,98.97694,10.00,07-25-2019,22:00:00,1.50,0.0,974.22,88,23.3,2.70,28.59,1008.85,25.5,000
48328,LAMPANG,ลำปาง,ลำปาง,18.28333,99.51667,10.00,07-25-2019,22:00:00,0.40,0.0,981.13,92,24.0,8.90,29.91,1008.77,25.5,000
48329,LAMPHUN,ลำพูน,ลำพูน,18.56722,99.03389,10.00,07-25-2019,22:00:00,0.00,9.3,974.26,67,20.7,0.00,24.47,1007.70,27.4,240
48330,PHRAE,แพร่,แพร่,18.16667,100.16667,12.00,07-25-2019,22:00:00,0.00,3.7,989.79,85,23.6,0.30,29.17,1008.32,26.4,270
48331,NAN,น่าน,น่าน,18.77972,100.77778,7.00,07-25-2019,22:00:00,1.60,0.0,985.53,96,24.5,1.60,30.69,1008.48,25.2,000
48333,NAN AGROMET.,น่าน สกษ.,น่าน,18.86667,100.75000,8.00,07-25-2019,22:00:00,1.20,0.0,977.84,96,23.8,1.20,29.41,1007.93,24.5,000
48334,LAMPANG AGROMET.,ลำปาง สกษ.,ลำปาง,18.31667,99.28333,7.00,07-25-2019,22:00:00,2.40,0.0,973.29,94,24.2,11.00,30.15,1008.97,25.2,000
48350,LOEI AGROMET.,เลย สกษ.,เลย,17.40000,101.73333,12.00,07-25-2019,22:00:00,0.00,5.6,977.93,83,22.0,0.20,26.43,1007.79,25.0,140
48351,UTTARADIT,อุตรดิตถ์,อุตรดิตถ์,17.61667,100.10000,9.00,07-25-2019,22:00:00,0.01,0.0,1001.57,92,24.6,16.20,30.84,1008.91,26.0,000
48352,NONG KHAI,หนองคาย,หนองคาย,17.86717,102.73303,12.00,07-25-2019,22:00:00,0.00,5.6,987.74,84,24.5,0.20,30.70,1007.60,27.5,190
48353,LOEI,เลย,เลย,17.45000,101.73333,13.00,07-25-2019,22:00:00,0.00,9.3,978.98,80,21.7,0.40,26.02,1007.75,25.5,150
48354,UDON THANI,อุดรธานี,อุดรธานี,17.38333,102.80000,12.00,07-25-2019,22:00:00,0.00,3.7,987.67,76,22.9,8.90,28.00,1007.81,27.5,220
48355,SAKON NAKHON AGROMET.,สกลนคร สกษ.,สกลนคร,17.12503,104.06100,12.00,07-25-2019,22:00:00,0.00,0.0,986.46,87,23.2,2.10,28.51,1008.30,25.6,000
48356,SAKON NAKHON,สกลนคร,สกลนคร,17.15000,104.13333,12.00,07-25-2019,22:00:00,0.00,0.0,988.53,92,24.0,3.90,29.91,1008.13,25.5,000
48357,NAKHON PHANOM,นครพนม,นครพนม,17.41083,104.78250,7.00,07-25-2019,22:00:00,0.10,0.0,992.14,96,24.3,64.90,30.32,1009.02,25.0,000
48358,NAKHON PHANOM AGROMET.,นครพนม สกษ.,นครพนม,17.44306,104.77361,10.00,07-25-2019,22:00:00,0.00,0.0,991.60,94,24.6,28.20,30.90,1009.11,25.6,000
48360,NONG BUA LAM PHU,หนองบัวลำภู,หนองบัวลำภู,17.23250,102.42944,11.00,07-25-2019,22:00:00,0.00,9.3,981.35,77,22.6,0.50,27.36,1007.11,27.0,290
48372,SUKHOTHAI*,สุโขทัย,สุโขทัย,17.10611,99.80000,10.00,07-25-2019,22:00:00,0.50,5.6,1002.53,84,22.6,5.20,27.47,1008.35,25.6,270
48373,SI SAMRONG AGROMET.,ศรีสำโรง สกษ.,สุโขทัย,17.16136,99.86167,10.00,07-25-2019,22:00:00,0.30,0.0,1002.83,92,24.0,25.80,29.91,1009.07,25.5,000
48374,LOM SAK,หล่มสัก,เพชรบูรณ์,16.77361,101.24944,6.00,07-25-2019,22:00:00,3.80,0.0,993.36,93,23.9,22.20,29.70,1009.95,25.1,000
48375,MAE SOT,แม่สอด,ตาก,16.65917,98.55083,8.00,07-25-2019,22:00:00,1.50,0.0,986.65,93,21.8,28.00,26.09,1009.31,23.0,000
48376,TAK,ตาก,ตาก,16.87833,99.14333,8.00,07-25-2019,22:00:00,0.00,18.5,995.39,68,20.2,1.50,23.63,1009.84,26.6,260
48377,BHUMIBOL DAM,เขื่อนภูมิพล,ตาก,17.24389,99.00250,7.00,07-25-2019,22:00:00,0.00,13.0,992.90,80,22.8,0.50,27.77,1009.35,26.5,230
48378,PHITSANULOK,พิษณุโลก,พิษณุโลก,16.79481,100.27930,10.00,07-25-2019,22:00:00,2.80,0.0,1004.17,93,23.3,3.10,28.63,1009.46,24.5,000
48379,PHETCHABUN,เพชรบูรณ์,เพชรบูรณ์,16.43333,101.15000,7.00,07-25-2019,22:00:00,6.50,0.0,995.04,96,24.8,9.70,31.25,1008.32,25.5,000
48380,KAMPHAENG PHET,กำแพงเพชร,กำแพงเพชร,16.48681,99.52697,10.00,07-25-2019,22:00:00,0.50,0.0,999.57,86,23.7,0.90,29.33,1008.93,26.2,000
48381,KHON KAEN,ขอนแก่น,ขอนแก่น,16.46111,102.78972,8.00,07-25-2019,22:00:00,0.01,0.0,986.45,97,24.4,7.70,30.58,1008.30,25.0,000
48382,MAHASARAKHAM,มหาสารคาม,มหาสารคาม,16.24722,103.06805,10.00,07-25-2019,22:00:00,0.00,0.0,991.15,96,24.8,2.90,31.25,1008.76,25.5,000
48383,MUKDAHAN,มุกดาหาร,มุกดาหาร,16.54139,104.72889,10.00,07-25-2019,22:00:00,0.20,5.6,992.45,91,24.0,2.30,29.82,1008.37,25.6,160
48384,THA PHRA AGROMET.,ท่าพระ สกษ.,ขอนแก่น,16.33333,102.81667,10.00,07-25-2019,22:00:00,0.01,0.0,988.49,100,25.2,7.70,32.04,1007.49,25.2,000
48385,UMPHANG,อุ้มผาง,ตาก,16.02472,98.86444,6.00,07-25-2019,22:00:00,2.00,0.0,959.92,91,21.5,8.90,25.60,1011.84,23.0,000
48386,PICHIT AGROMET.,พิจิตร สกษ.,พิจิตร,16.43806,100.29250,4.00,07-25-2019,22:00:00,26.80,9.3,1005.61,97,24.3,26.80,30.40,1009.61,24.9,080
48387,DOI MU SOE AGROMET.,ดอยมูเซอร์ สกษ.,ตาก,16.75000,98.93333,3.00,07-25-2019,22:00:00,0.50,11.1,913.93,98,18.9,19.00,21.79,1010.01,19.2,250
48390,KALASIN,กาฬสินธุ์,กาฬสินธุ์,16.33250,103.58833,6.00,07-25-2019,22:00:00,0.01,0.0,992.32,95,24.3,13.10,30.42,1008.43,25.2,000
48400,NAKHON SAWAN,นครสวรรค์ ,นครสวรรค์,15.67183,100.13236,6.00,07-25-2019,22:00:00,0.90,3.7,1005.59,96,25.6,9.20,32.79,1009.65,26.3,350
48401,TAKFA AGROMET.,ตากฟ้า สกษ.,นครสวรรค์,15.34944,100.53028,7.00,07-25-2019,22:00:00,0.60,0.0,999.65,93,24.6,0.70,30.92,1010.40,25.9,000
48402,CHAINAT AGROMET.,ชัยนาท สกษ.,ชัยนาท,15.15000,100.18333,9.00,07-25-2019,22:00:00,0.00,0.0,1007.81,77,23.0,0.00,28.08,1009.75,27.4,000
48403,CHAIYAPHUM,ชัยภูมิ,ชัยภูมิ,15.80000,102.03333,10.00,07-25-2019,22:00:00,0.01,24.1,989.06,73,22.2,0.01,26.77,1009.95,27.4,270
48404,ROI ET AGROMET.,ร้อยเอ็ด สกษ.,ร้อยเอ็ด,16.07322,103.60844,10.00,07-25-2019,22:00:00,0.20,0.0,990.96,94,23.5,17.00,28.89,1008.80,24.5,000
48405,ROI ET,ร้อยเอ็ด,ร้อยเอ็ด,16.02000,103.74389,10.00,07-25-2019,22:00:00,0.00,0.0,991.98,93,23.5,13.40,28.98,1008.28,24.7,000
48407,UBON RATCHATHANI,อุบลราชธานี (ศูนย์ฯ),อุบลราชธานี,15.25000,104.86667,9.00,07-25-2019,22:00:00,0.50,5.6,995.57,82,23.9,37.80,29.58,1009.63,27.2,220
48408,UBON RATCHATHANI AGROMET.,อุบลราชธานี สกษ.,อุบลราชธานี,15.23914,105.02350,8.00,07-25-2019,22:00:00,0.00,0.0,995.34,89,24.1,10.40,30.03,1010.27,26.0,000
48409,SI SAKET AGROMET.,ศรีสะเกษ,ศรีสะเกษ,15.00000,104.05000,3.00,07-25-2019,22:00:00,0.50,0.0,996.00,89,24.2,4.60,30.22,1010.77,26.1,000
48410,UTHAITHANI,อุทัยธานี,อุทัยธานี,15.37417,100.03889,8.00,07-25-2019,22:00:00,0.60,0.0,1006.49,93,25.3,0.60,32.15,1009.52,26.4,"{'@attributes': {'Unit': 'degree'}, '0': '   '}"
48413,WICHIAN BURI,วิเชียรบุรี,เพชรบูรณ์,15.65700,101.10800,7.00,07-25-2019,22:00:00,6.40,0.0,1002.01,92,23.9,13.30,29.62,1010.03,25.2,000
48415,AYUTTHAYA,พระนครศรีอยุธยา,พระนครศรีอยุธยา,14.53472,100.72500,6.00,07-25-2019,22:00:00,0.00,5.6,1008.69,86,24.1,1.90,29.99,1009.81,26.7,230
48416,THA TUM,ท่าตูม,สุรินทร์,15.31667,103.68333,8.00,07-25-2019,22:00:00,20.10,0.0,994.56,94,24.2,27.00,30.15,1009.37,25.2,000
48417,NAKORNNAYOK,นครนายก,นครนายก,14.36222,101.39278,.10,07-25-2019,22:00:00,9.00,7.4,875.35,98,18.0,17.80,20.58,1011.44,18.3,210
48418,BUA CHUM,บัวชุม  ,ลพบุรี,15.26667,101.18736,8.00,07-25-2019,22:00:00,0.80,7.4,1004.24,86,24.3,0.80,30.45,1010.14,26.8,210
48419,PATHUMTHANI,ปทุมธานี สกษ.,ปทุมธานี,14.10000,100.61667,8.00,07-25-2019,22:00:00,0.00,0.0,1009.51,87,25.6,0.10,32.80,1010.32,28.0,000
48420,Samut Prakarn,สมุทรปราการ สกษ.,สมุทรปราการ,13.51667,100.76167,10.00,07-25-2019,22:00:00,0.60,0.0,1009.79,92,25.1,0.90,31.79,1010.23,26.5,000
48421,THONG PHAPHUM,ทองผาภูมิ,กาญจนบุรี,14.74222,98.63639,4.00,07-25-2019,22:00:00,0.00,0.0,999.47,92,23.2,7.40,28.47,1010.90,24.7,000
48425,SUPHAN BURI,สุพรรณบุรี,สุพรรณบุรี,14.47444,100.13889,10.00,07-25-2019,22:00:00,0.40,0.0,1009.14,80,22.7,0.40,27.59,1010.16,26.4,000
48426,LOP BURI,ลพบุรี,ลพบุรี,14.79972,100.64500,8.00,07-25-2019,22:00:00,0.00,7.4,1007.16,67,21.1,0.50,25.07,1008.98,27.9,200
48427,U THONG AGROMET.,อู่ทอง สกษ.,สุพรรณบุรี,14.30361,99.86472,7.00,07-25-2019,22:00:00,0.10,0.0,1009.14,78,21.7,0.10,25.95,1009.91,25.9,000
48429,SUVARNABHUMI AIRPORT,สนามบินสุวรรณภูมิ,สมุทรปราการ,13.68639,100.76750,9.00,07-25-2019,22:00:00,0.20,3.7,1009.69,87,24.3,2.20,30.34,1010.40,26.6,170
48430,PRACHIN BURI,ปราจีนบุรี,ปราจีนบุรี,14.05842,101.36930,6.00,07-25-2019,22:00:00,15.70,0.0,1009.84,86,23.1,24.00,28.25,1010.55,25.6,000
48431,NAKHON RATCHASIMA,นครราชสีมา,นครราชสีมา,14.96830,102.08603,10.00,07-25-2019,22:00:00,0.00,9.3,988.24,79,23.6,1.60,29.06,1009.41,27.5,230
48432,SURIN,สุรินทร์,สุรินทร์,14.88333,103.50000,8.00,07-25-2019,22:00:00,0.00,0.0,992.60,76,22.3,4.50,26.92,1009.36,26.9,000
48433,SURIN AGROMET.,สุรินทร์ สกษ.,สุรินทร์,14.88333,103.45000,7.00,07-25-2019,22:00:00,0.00,3.7,993.15,75,22.5,4.20,27.19,1009.61,27.2,180
48434,CHOK CHAI,โชคชัย,นครราชสีมา,14.71889,102.16861,10.00,07-25-2019,22:00:00,0.00,0.0,987.67,75,22.4,1.90,27.11,1009.56,27.3,000
48435,PAKCHONG AGROMET.,ปากช่อง สกษ.,นครราชสีมา,14.64389,101.33194,10.00,07-25-2019,22:00:00,0.00,7.4,966.66,74,20.7,0.01,24.37,1010.21,25.7,280
48436,NANG RONG,นางรอง,บุรีรัมย์,14.58333,102.80000,10.00,07-25-2019,22:00:00,0.00,0.0,988.75,77,22.0,2.00,26.47,1009.39,26.5,000
48437,BURIRUM,บุรีรัมย์,บุรีรัมย์,15.22575,103.24808,8.00,07-25-2019,22:00:00,0.00,16.7,989.61,85,23.3,3.00,28.62,1010.56,26.1,200
48438,SAMUTSONGKRAM,สมุทรสงคราม,สมุทรสงคราม,13.40778,100.03222,10.00,07-25-2019,22:00:00,0.00,0.0,1009.89,80,24.5,0.00,30.67,1010.32,28.2,000
48439,KABIN BURI,กบินทร์บุรี,ปราจีนบุรี,13.98333,101.70722,8.00,07-25-2019,22:00:00,1.70,0.0,1009.42,95,23.9,10.50,29.69,1010.85,24.8,000
48440,SA KAEW,สระแก้ว,สระแก้ว,13.78889,102.03472,7.00,07-25-2019,22:00:00,0.00,0.0,1006.13,97,25.1,10.10,31.79,1011.11,25.5,000
48450,KANCHANA BURI,กาญจนบุรี,กาญจนบุรี,14.02250,99.53583,12.00,07-25-2019,22:00:00,0.00,0.0,1007.00,72,22.2,0.01,26.78,1010.30,27.7,000
48451,NAKHONPATHOM,นครปฐม,นครปฐม,14.01167,99.97000,10.00,07-25-2019,22:00:00,0.00,0.0,1009.19,83,23.4,0.01,28.82,1010.30,26.5,000
48453,BANG NA AGROMET.,กรุงเทพฯ บางนา สกษ.,กรุงเทพมหานคร,13.66639,100.60611,8.00,07-25-2019,22:00:00,0.10,0.0,1010.12,87,24.5,1.30,30.83,1010.42,27.0,000
48455,BANGKOK METROPOLIS,กรุงเทพมหานคร,กรุงเทพมหานคร,13.72639,100.56000,10.00,07-25-2019,22:00:00,0.20,0.0,1009.88,92,24.1,11.70,30.09,1010.38,25.6,000
48456,DON MUANG AIRPORT,สนามบินดอนเมือง,กรุงเทพมหานคร,13.91917,100.60500,10.00,07-25-2019,22:00:00,0.00,5.6,1009.15,81,23.7,0.01,29.31,1010.56,27.2,210
48458,CHACHOENGSAO,ฉะเชิงเทรา,ฉะเชิงเทรา,13.51556,101.45833,10.00,07-25-2019,22:00:00,0.00,0.0,1004.56,97,25.1,12.80,31.79,1012.65,25.5,000
48459,CHON BURI,ชลบุรี,ชลบุรี,13.36667,100.98333,6.00,07-25-2019,22:00:00,2.30,0.0,1010.14,96,26.3,5.90,34.19,1010.43,27.0,000
48460,KO SICHANG,เกาะสีชัง,ชลบุรี,13.16167,100.80194,10.00,07-25-2019,22:00:00,0.00,5.6,1007.04,68,22.9,2.00,27.96,1010.16,29.5,230
48461,PHATTHAYA,พัทยา,ชลบุรี,12.92000,100.86944,10.00,07-25-2019,22:00:00,0.00,5.6,1003.68,61,21.1,0.01,24.95,1010.59,29.3,260
48462,ARANYA PRATHET,อรัญประเทศ,สระแก้ว,13.70000,102.58333,7.00,07-25-2019,22:00:00,0.00,0.0,1005.15,92,24.6,10.40,30.84,1010.78,26.0,000
48464,RATCHA BURI,ราชบุรี,ราชบุรี,13.48931,99.79239,10.00,07-25-2019,22:00:00,0.00,0.0,1009.77,91,24.5,5.90,30.76,1011.04,26.1,000
48465,PHETCHA BURI,เพชรบุรี,เพชรบุรี,12.99944,100.06056,11.00,07-25-2019,22:00:00,0.00,5.6,1009.89,67,21.6,0.00,25.77,1010.32,28.3,330
48474,NONG PHLUB AGROMET.,หนองพลับ สกษ.,ประจวบคีรีขันธ์,12.58333,99.73333,10.00,07-25-2019,22:00:00,0.00,0.0,998.38,79,21.6,0.50,25.77,1010.74,25.5,000
48475,HUA HIN,หัวหิน,ประจวบคีรีขันธ์,12.58611,99.96250,10.00,07-25-2019,22:00:00,0.00,0.0,1009.90,76,23.3,12.20,28.55,1010.62,27.8,000
48477,SATTAHIP,สัตหีบ,ชลบุรี,12.68333,100.98333,10.00,07-25-2019,22:00:00,0.01,0.0,1008.32,71,23.2,0.40,28.37,1010.74,29.0,000
48478,RAYONG,ระยอง,ระยอง,12.63222,101.34361,7.00,07-25-2019,22:00:00,0.00,5.6,1010.31,75,24.5,11.20,30.72,1010.82,29.5,310
48479,HUAI PONG AGROMET.,ห้วยโป่ง สกษ.,ระยอง,12.73333,101.13333,10.00,07-25-2019,22:00:00,0.00,0.0,1005.38,82,24.3,0.30,30.45,1010.54,27.8,000
48480,CHANTHA BURI,จันทบุรี,จันทบุรี,12.61667,102.11333,7.00,07-25-2019,22:00:00,0.10,0.0,1010.23,95,24.9,57.60,31.55,1010.65,25.8,000
48481,PHLIU  AGROMET.,พลิ้ว สกษ.,จันทบุรี,12.50861,102.17305,8.00,07-25-2019,22:00:00,4.20,7.4,1007.98,97,24.4,108.80,30.48,1010.78,24.8,030
48500,PRACHUAP KHIRIKHAN,ประจวบคีรีขันธ์,ประจวบคีรีขันธ์,11.83333,99.83333,10.00,07-25-2019,22:00:00,0.00,3.7,1010.43,71,21.9,0.00,26.26,1011.22,27.7,330
48501,TRAD,ตราด,ตราด,11.76667,102.88333,6.00,07-25-2019,22:00:00,0.30,7.4,1010.45,96,23.3,26.60,28.53,1010.92,24.0,080
48517,CHUMPHON,ชุมพร,ชุมพร,10.49875,99.18847,7.00,07-25-2019,22:00:00,0.20,0.0,1010.04,93,23.8,4.10,29.52,1010.73,25.0,000
48520,SAWI AGROMET.,สวี สกษ.,ชุมพร,10.33333,99.10000,6.00,07-25-2019,22:00:00,0.00,0.0,1009.11,95,25.1,4.20,31.93,1010.64,26.0,000
48532,RANONG,ระนอง,ระนอง,9.98333,98.61667,10.00,07-25-2019,22:00:00,0.00,0.0,1010.45,84,24.6,0.00,30.97,1011.36,27.5,000
48550,KO SAMUI,เกาะสมุย,สุราษฎร์ธานี,9.46667,100.05000,10.00,07-25-2019,22:00:00,0.00,0.0,1010.41,82,24.3,0.00,30.45,1011.09,27.8,000
48551,SURAT THANI,สุราษฎร์ธานี,สุราษฎร์ธานี,9.13556,99.15194,8.00,07-25-2019,22:00:00,0.00,0.0,1010.59,90,25.0,0.00,31.63,1011.39,26.7,000
48552,NAKHONSI THAMMARAT,นครศรีธรรมราช,นครศรีธรรมราช,8.53778,99.96389,10.00,07-25-2019,22:00:00,0.00,0.0,1010.47,88,24.8,0.00,31.38,1011.11,27.0,000
48554,NAKHONSI THAMMARAT AGROMET.,นครศรีธรรมราช สกษ.,นครศรีธรรมราช,8.35931,100.00000,10.00,07-25-2019,22:00:00,0.00,0.0,1010.69,92,26.1,0.00,33.78,1011.09,27.5,000
48555,SURAT THANI AGROMET.,สุราษฎร์ธานี สกษ.,สุราษฎร์ธานี,9.10000,99.63333,6.00,07-25-2019,22:00:00,0.00,0.0,1008.59,89,24.4,0.00,30.59,1012.83,26.3,000
48556,PHRA SANG,พระแสง สอท.,สุราษฎร์ธานี,8.57022,99.25825,10.00,07-25-2019,22:00:00,0.00,0.0,1009.49,95,25.5,0.00,32.71,1011.11,26.4,000
48557,CHAWANG,ฉวาง,นครศรีธรรมราช,8.43194,99.51194,10.00,07-25-2019,22:00:00,0.00,0.0,1008.03,92,24.6,0.00,30.84,1011.53,26.0,000
48560,PHATTHALUNG AGROMET.,พัทลุง สกษ.,พัทลุง,7.58333,100.16667,7.00,07-25-2019,22:00:00,0.00,0.0,1009.87,88,23.8,0.00,29.50,1011.23,26.0,000
48561,TAKUA PA,ตะกั่วป่า,พังงา,8.68417,98.25222,10.00,07-25-2019,22:00:00,0.00,0.0,1010.43,88,24.3,0.00,30.43,1011.32,26.5,000
48563,KRABI,กระบี่,กระบี่,8.10361,98.97528,10.00,07-25-2019,22:00:00,0.00,0.0,1008.03,93,25.4,0.00,32.46,1011.61,26.7,000
48564,PHUKET,ภูเก็ต,ภูเก็ต,7.88333,98.40000,10.00,07-25-2019,22:00:00,0.00,0.0,1010.90,80,24.6,0.00,30.98,1011.33,28.5,000
48565,PHUKET AIRPORT,ภูเก็ต (ศูนย์ฯ),ภูเก็ต,8.14500,98.31444,10.00,07-25-2019,22:00:00,0.00,0.0,1009.83,81,23.9,0.00,29.69,1010.83,27.4,000
48566,KO LANTA,เกาะลันตา,กระบี่,7.53333,99.05000,10.00,07-25-2019,22:00:00,0.00,5.6,1010.86,88,23.8,3.00,29.50,1011.68,26.0,110
48567,TRANG AIRPORT,ตรัง,ตรัง,7.51667,99.61667,10.00,07-25-2019,22:00:00,0.00,5.6,1009.91,88,24.4,0.00,30.62,1011.74,26.6,150
48568,SONGKHLA,สงขลา,สงขลา,7.18211,100.60769,10.00,07-25-2019,22:00:00,0.00,5.6,1011.00,87,23.5,1.00,28.87,1011.76,25.8,230
48569,HAT YAI AIRPORT,หาดใหญ่,สงขลา,6.91667,100.43333,10.00,07-25-2019,22:00:00,0.00,0.0,1007.84,94,24.2,1.40,30.15,1011.87,25.2,000
48570,SATUN,สตูล,สตูล,6.65000,100.08333,10.00,07-25-2019,22:00:00,0.00,0.0,1011.45,87,23.5,0.00,28.87,1012.14,25.8,000
48571,KHO HONG AGROMET.,คอหงษ์ สกษ.,สงขลา,7.00000,100.50000,10.00,07-25-2019,22:00:00,0.00,0.0,1010.43,95,23.9,22.20,29.69,1011.56,24.8,000
48574,SA DAO,สะเดา,สงขลา,6.79806,100.39056,10.00,07-25-2019,22:00:00,0.00,0.0,1008.95,93,24.8,0.00,31.30,1011.89,26.1,000
48580,PATTANI AIRPORT,ปัตตานี,ปัตตานี,6.78333,101.15000,8.00,07-25-2019,22:00:00,0.00,0.0,1010.85,85,24.9,0.00,31.44,1011.55,27.6,000
48581,YALA AGROMET.,ยะลา สกษ.,ยะลา,6.51667,101.28333,7.00,07-25-2019,22:00:00,0.00,0.0,1008.06,92,25.0,0.70,31.60,1012.21,26.4,000
48583,NARATHIWAT,นราธิวาส,นราธิวาส,6.41667,101.81667,9.00,07-25-2019,22:00:00,0.00,0.0,1010.54,84,24.1,0.30,30.02,1011.13,27.0,000
