WmoStationNumber,StationNameEnglish,StationNameThai,Province,Latitude,Longitude,Date,Time,WindDirection,RelativeHumidity,WindSpeed,MeanSeaLevelPressure,LandVisibility,AirTemperature,VaporPressure,DewPoint,Rainfall24Hr,StationPressure,Rainfall
48300,MAE HONG SON,แม่ฮ่องสอน,แม่ฮ่องสอน,19.29897,97.97578,07-20-2019,04:00:00,000,75,0.0,1004.39,8.00,28.3,28.95,23.5,0.00,973.78,0.00
48302,DOI ANG KANG,ดอยอ่างขาง,เชียงใหม่,19.93139,99.04833,07-20-2019,04:00:00,270,91,14.8,1002.46,8.00,20.5,21.83,18.9,1.70,842.75,0.00
48303,CHIANG RAI,เชียงราย,เชียงราย,19.96139,99.88139,07-20-2019,04:00:00,000,84,0.0,1002.48,15.00,27.4,30.78,24.5,0.00,959.31,0.00
48304,CHAING RAI AGROMET.,เชียงราย สกษ.,เชียงราย,19.87083,99.78278,07-20-2019,04:00:00,000,89,0.0,1002.34,12.00,26.2,30.13,24.2,0.00,957.12,0.00
48307,THUNG CHANG,ทุ่งช้าง,น่าน,19.41194,100.88353,07-20-2019,04:00:00,000,92,0.0,1001.82,5.00,26.0,30.84,24.6,0.00,964.42,0.00
48310,PHAYAO,พะเยา,พะเยา,19.13333,99.90000,07-20-2019,04:00:00,160,81,5.6,1002.41,10.00,27.6,30.07,24.1,0.00,957.83,0.00
48315,THA WANGPHA,ท่าวังผา,น่าน,19.11056,100.80250,07-20-2019,04:00:00,000,84,0.0,1003.73,10.00,27.5,30.97,24.6,0.00,977.21,0.00
48324,THOEN,เถิน,ลำปาง,17.63661,99.24475,07-20-2019,04:00:00,200,73,1.9,1004.11,12.00,27.8,27.22,22.5,0.00,982.52,0.00
48325,MAE SARIANG,แม่สะเรียง,แม่ฮ่องสอน,18.16667,97.93333,07-20-2019,04:00:00,000,92,0.0,1005.81,6.00,26.0,30.84,24.6,0.00,981.71,0.00
48327,CHIANG MAI,เชียงใหม่,เชียงใหม่,18.79000,98.97694,07-20-2019,04:00:00,210,68,3.7,1003.66,10.00,28.4,26.47,22.0,0.00,969.53,0.00
48328,LAMPANG,ลำปาง,ลำปาง,18.28333,99.51667,07-20-2019,04:00:00,000,72,0.0,1003.70,10.00,28.8,28.54,23.3,0.00,976.49,0.00
48329,LAMPHUN,ลำพูน,ลำพูน,18.56722,99.03389,07-20-2019,04:00:00,000,74,0.0,1003.78,10.00,28.0,27.85,22.9,0.00,970.54,0.00
48330,PHRAE,แพร่,แพร่,18.16667,100.16667,07-20-2019,04:00:00,000,79,0.0,1003.04,12.00,27.9,29.82,24.0,0.00,984.69,0.00
48331,NAN,น่าน,น่าน,18.77972,100.77778,07-20-2019,04:00:00,000,84,0.0,1003.17,10.00,27.8,31.28,24.8,0.00,980.54,0.00
48333,NAN AGROMET.,น่าน สกษ.,น่าน,18.86667,100.75000,07-20-2019,04:00:00,000,92,0.0,1003.67,7.00,25.0,29.00,23.5,0.00,973.76,0.00
48334,LAMPANG AGROMET.,ลำปาง สกษ.,ลำปาง,18.31667,99.28333,07-20-2019,04:00:00,000,75,0.0,1003.78,6.00,28.4,28.86,23.5,0.00,968.65,0.00
48350,LOEI AGROMET.,เลย สกษ.,เลย,17.40000,101.73333,07-20-2019,04:00:00,000,92,0.0,1003.19,10.00,25.5,29.91,24.0,0.00,973.51,0.00
48351,UTTARADIT,อุตรดิตถ์,อุตรดิตถ์,17.61667,100.10000,07-20-2019,04:00:00,000,71,0.0,1004.03,9.00,29.0,28.37,23.2,0.00,996.80,0.00
48352,NONG KHAI,หนองคาย,หนองคาย,17.86717,102.73303,07-20-2019,04:00:00,000,85,0.0,1002.24,10.00,29.0,33.99,26.2,0.00,982.58,0.00
48353,LOEI,เลย,เลย,17.45000,101.73333,07-20-2019,04:00:00,000,84,0.0,1003.26,10.00,27.0,30.02,24.1,0.00,974.75,0.00
48354,UDON THANI,อุดรธานี,อุดรธานี,17.38333,102.80000,07-20-2019,04:00:00,120,87,1.9,1004.58,12.00,27.6,32.28,25.3,0.00,984.52,0.00
48355,SAKON NAKHON AGROMET.,สกลนคร สกษ.,สกลนคร,17.12503,104.06100,07-20-2019,04:00:00,200,77,5.6,1003.52,12.00,28.0,29.19,23.6,0.00,981.95,0.00
48356,SAKON NAKHON,สกลนคร,สกลนคร,17.15000,104.13333,07-20-2019,04:00:00,180,78,5.6,1003.02,10.00,28.5,30.15,24.2,0.00,983.72,0.00
48357,NAKHON PHANOM,นครพนม,นครพนม,17.41083,104.78250,07-20-2019,04:00:00,000,80,0.0,1004.58,12.00,28.7,31.66,25.0,0.00,987.98,0.00
48358,NAKHON PHANOM AGROMET.,นครพนม สกษ.,นครพนม,17.44306,104.77361,07-20-2019,04:00:00,000,90,0.0,1004.72,10.00,27.4,32.73,25.5,0.00,987.39,0.00
48360,NONG BUA LAM PHU,หนองบัวลำภู,หนองบัวลำภู,17.23250,102.42944,07-20-2019,04:00:00,000,90,0.0,1003.03,10.00,28.0,33.94,26.2,0.00,977.46,0.00
48372,SUKHOTHAI*,สุโขทัย,สุโขทัย,17.10611,99.80000,07-20-2019,04:00:00,230,73,5.6,1004.00,10.00,28.8,29.08,23.6,0.00,998.27,0.00
48373,SI SAMRONG AGROMET.,ศรีสำโรง สกษ.,สุโขทัย,17.16136,99.86167,07-20-2019,04:00:00,000,69,0.0,1002.05,10.00,29.0,27.56,22.7,0.00,995.93,0.00
48374,LOM SAK,หล่มสัก,เพชรบูรณ์,16.77361,101.24944,07-20-2019,04:00:00,000,80,0.0,1004.92,9.00,27.6,29.52,23.8,0.00,988.56,0.00
48375,MAE SOT,แม่สอด,ตาก,16.65917,98.55083,07-20-2019,04:00:00,000,89,0.0,1004.16,10.00,25.3,28.75,23.4,0.00,981.78,0.00
48376,TAK,ตาก,ตาก,16.87833,99.14333,07-20-2019,04:00:00,260,71,14.8,1004.40,10.00,28.6,27.89,22.9,0.00,990.13,0.00
48377,BHUMIBOL DAM,เขื่อนภูมิพล,ตาก,17.24389,99.00250,07-20-2019,04:00:00,230,70,5.6,1003.88,7.00,28.0,26.54,22.1,0.00,987.61,0.00
48378,PHITSANULOK,พิษณุโลก,พิษณุโลก,16.79481,100.27930,07-20-2019,04:00:00,000,82,0.0,1004.32,10.00,28.2,31.51,24.9,0.00,999.13,0.00
48379,PHETCHABUN,เพชรบูรณ์,เพชรบูรณ์,16.43333,101.15000,07-20-2019,04:00:00,000,82,0.0,1003.25,10.00,27.3,29.77,24.0,0.00,990.12,0.00
48380,KAMPHAENG PHET,กำแพงเพชร,กำแพงเพชร,16.48681,99.52697,07-20-2019,04:00:00,000,79,0.0,1003.75,10.00,27.5,29.06,23.6,0.00,994.47,0.00
48381,KHON KAEN,ขอนแก่น,ขอนแก่น,16.46111,102.78972,07-20-2019,04:00:00,180,69,7.4,1003.77,9.00,29.5,28.50,23.2,0.00,982.33,0.00
48382,MAHASARAKHAM,มหาสารคาม,มหาสารคาม,16.24722,103.06805,07-20-2019,04:00:00,000,81,0.0,1004.54,10.00,28.5,31.54,24.9,0.00,987.17,0.00
48383,MUKDAHAN,มุกดาหาร,มุกดาหาร,16.54139,104.72889,07-20-2019,04:00:00,000,88,0.0,1003.19,10.00,27.5,32.36,25.4,0.80,987.44,0.00
48384,THA PHRA AGROMET.,ท่าพระ สกษ.,ขอนแก่น,16.33333,102.81667,07-20-2019,04:00:00,210,75,5.6,1002.93,8.00,28.9,29.82,24.0,0.00,984.24,0.00
48385,UMPHANG,อุ้มผาง,ตาก,16.02472,98.86444,07-20-2019,04:00:00,000,94,0.0,1007.48,6.00,23.2,26.66,22.1,0.00,955.82,0.00
48386,PICHIT AGROMET.,พิจิตร สกษ.,พิจิตร,16.43806,100.29250,07-20-2019,04:00:00,100,90,5.6,1004.09,7.00,26.6,31.44,24.9,0.00,1000.14,0.00
48387,DOI MU SOE AGROMET.,ดอยมูเซอร์ สกษ.,ตาก,16.75000,98.93333,07-20-2019,04:00:00,230,94,13.0,1006.04,4.00,21.6,24.36,20.7,0.00,911.07,0.00
48390,KALASIN,กาฬสินธุ์,กาฬสินธุ์,16.33250,103.58833,07-20-2019,04:00:00,000,80,0.0,1003.26,5.00,29.2,32.38,25.4,0.00,987.45,0.00
48400,NAKHON SAWAN,นครสวรรค์ ,นครสวรรค์,15.67183,100.13236,07-20-2019,04:00:00,000,94,0.0,1003.77,10.00,26.2,32.04,25.2,0.00,999.74,0.00
48401,TAKFA AGROMET.,ตากฟ้า สกษ.,นครสวรรค์,15.34944,100.53028,07-20-2019,04:00:00,000,87,0.0,1005.37,7.00,25.6,28.51,23.2,0.00,994.66,0.00
48402,CHAINAT AGROMET.,ชัยนาท สกษ.,ชัยนาท,15.15000,100.18333,07-20-2019,04:00:00,150,95,3.7,1004.53,7.00,25.6,31.17,24.7,0.00,1002.60,0.00
48403,CHAIYAPHUM,ชัยภูมิ,ชัยภูมิ,15.80000,102.03333,07-20-2019,04:00:00,240,74,3.7,1004.52,10.00,27.9,27.67,22.8,0.01,983.78,0.00
48404,ROI ET AGROMET.,ร้อยเอ็ด สกษ.,ร้อยเอ็ด,16.07322,103.60844,07-20-2019,04:00:00,200,83,13.0,1003.88,10.00,27.3,30.04,24.1,0.00,986.29,0.00
48405,ROI ET,ร้อยเอ็ด,ร้อยเอ็ด,16.02000,103.74389,07-20-2019,04:00:00,150,88,9.3,1003.98,10.00,27.5,32.36,25.4,0.00,987.90,0.00
48407,UBON RATCHATHANI,อุบลราชธานี (ศูนย์ฯ),อุบลราชธานี,15.25000,104.86667,07-20-2019,04:00:00,000,83,0.0,1004.69,10.00,26.8,29.37,23.7,0.00,990.68,0.00
48408,UBON RATCHATHANI AGROMET.,อุบลราชธานี สกษ.,อุบลราชธานี,15.23914,105.02350,07-20-2019,04:00:00,000,85,0.0,1005.64,10.00,26.4,29.17,23.6,0.00,990.81,0.00
48409,SI SAKET AGROMET.,ศรีสะเกษ,ศรีสะเกษ,15.00000,104.05000,07-20-2019,04:00:00,200,87,3.7,1004.92,6.00,26.6,30.34,24.3,0.00,990.26,0.00
48410,UTHAITHANI,อุทัยธานี,อุทัยธานี,15.37417,100.03889,07-20-2019,04:00:00,"{'0': '   ', '@attributes': {'Unit': 'degree'}}",93,0.0,1003.88,10.00,26.2,31.49,24.9,0.00,1000.86,0.00
48413,WICHIAN BURI,วิเชียรบุรี,เพชรบูรณ์,15.65700,101.10800,07-20-2019,04:00:00,000,84,0.0,1004.51,7.00,26.8,29.64,23.9,0.00,996.58,0.00
48415,AYUTTHAYA,พระนครศรีอยุธยา,พระนครศรีอยุธยา,14.53472,100.72500,07-20-2019,04:00:00,110,86,9.3,1005.43,6.00,26.3,29.52,23.8,0.00,1004.32,0.00
48416,THA TUM,ท่าตูม,สุรินทร์,15.31667,103.68333,07-20-2019,04:00:00,000,84,0.0,1004.77,8.00,26.0,28.18,23.1,0.00,990.07,0.00
48417,NAKORNNAYOK,นครนายก,นครนายก,14.36222,101.39278,07-20-2019,04:00:00,190,99,11.1,1005.29,.05,19.8,22.85,19.6,76.80,870.66,0.00
48418,BUA CHUM,บัวชุม  ,ลพบุรี,15.26667,101.18736,07-20-2019,04:00:00,000,84,0.0,1004.75,10.00,26.5,29.08,23.6,0.00,998.87,0.00
48419,PATHUMTHANI,ปทุมธานี สกษ.,ปทุมธานี,14.10000,100.61667,07-20-2019,04:00:00,000,98,0.0,1005.14,8.00,25.7,32.45,25.4,11.90,1004.33,0.00
48420,Samut Prakarn,สมุทรปราการ สกษ.,สมุทรปราการ,13.51667,100.76167,07-20-2019,04:00:00,230,81,7.4,1004.91,10.00,28.9,32.34,25.4,0.00,1004.47,0.00
48421,THONG PHAPHUM,ทองผาภูมิ,กาญจนบุรี,14.74222,98.63639,07-20-2019,04:00:00,000,94,0.0,1006.27,5.00,24.8,29.42,23.8,0.00,994.89,0.00
48425,SUPHAN BURI,สุพรรณบุรี,สุพรรณบุรี,14.47444,100.13889,07-20-2019,04:00:00,000,92,0.0,1004.78,10.00,26.6,31.99,25.2,0.80,1003.77,0.00
48426,LOP BURI,ลพบุรี,ลพบุรี,14.79972,100.64500,07-20-2019,04:00:00,000,83,0.0,1004.87,8.00,26.1,28.10,23.0,0.00,1003.04,0.00
48427,U THONG AGROMET.,อู่ทอง สกษ.,สุพรรณบุรี,14.30361,99.86472,07-20-2019,04:00:00,000,97,0.0,1004.21,5.00,25.0,30.58,24.4,50.40,1003.45,0.00
48429,SUVARNABHUMI AIRPORT,สนามบินสุวรรณภูมิ,สมุทรปราการ,13.68639,100.76750,07-20-2019,04:00:00,000,88,0.0,1005.06,10.00,25.7,28.95,23.5,0.10,1004.36,0.00
48430,PRACHIN BURI,ปราจีนบุรี,ปราจีนบุรี,14.05842,101.36930,07-20-2019,04:00:00,000,87,0.0,1005.11,7.00,28.0,32.80,25.6,0.00,1004.41,0.00
48431,NAKHON RATCHASIMA,นครราชสีมา,นครราชสีมา,14.96830,102.08603,07-20-2019,04:00:00,000,83,0.0,1004.72,10.00,27.4,30.23,24.2,0.10,983.64,0.00
48432,SURIN,สุรินทร์,สุรินทร์,14.88333,103.50000,07-20-2019,04:00:00,000,90,0.0,1005.13,7.00,26.1,30.48,24.4,0.00,988.39,0.00
48433,SURIN AGROMET.,สุรินทร์ สกษ.,สุรินทร์,14.88333,103.45000,07-20-2019,04:00:00,180,88,3.7,1005.16,6.00,26.0,29.50,23.8,0.00,988.71,0.00
48434,CHOK CHAI,โชคชัย,นครราชสีมา,14.71889,102.16861,07-20-2019,04:00:00,000,79,0.0,1004.54,10.00,27.4,28.88,23.5,0.00,982.77,0.00
48435,PAKCHONG AGROMET.,ปากช่อง สกษ.,นครราชสีมา,14.64389,101.33194,07-20-2019,04:00:00,000,79,0.0,1005.78,10.00,26.2,26.98,22.3,0.00,962.48,0.00
48436,NANG RONG,นางรอง,บุรีรัมย์,14.58333,102.80000,07-20-2019,04:00:00,000,89,0.0,1004.74,10.00,25.4,28.93,23.5,0.00,984.12,0.00
48437,BURIRUM,บุรีรัมย์,บุรีรัมย์,15.22575,103.24808,07-20-2019,04:00:00,210,94,9.3,1006.02,7.00,26.1,31.85,25.1,0.00,985.16,0.00
48438,SAMUTSONGKRAM,สมุทรสงคราม,สมุทรสงคราม,13.40778,100.03222,07-20-2019,04:00:00,210,86,5.6,1004.94,10.00,28.0,32.52,25.4,0.00,1004.51,0.00
48439,KABIN BURI,กบินทร์บุรี,ปราจีนบุรี,13.98333,101.70722,07-20-2019,04:00:00,000,90,0.0,1005.32,6.00,26.8,31.82,25.1,0.00,1003.91,0.00
48440,SA KAEW,สระแก้ว,สระแก้ว,13.78889,102.03472,07-20-2019,04:00:00,000,97,0.0,1005.60,7.00,25.5,31.52,24.9,0.00,1000.65,0.00
48450,KANCHANA BURI,กาญจนบุรี,กาญจนบุรี,14.02250,99.53583,07-20-2019,04:00:00,000,76,0.0,1004.98,10.00,27.8,28.55,23.3,0.00,1001.71,0.00
48451,NAKHONPATHOM,นครปฐม,นครปฐม,14.01167,99.97000,07-20-2019,04:00:00,000,92,0.0,1004.83,10.00,26.2,31.22,24.8,0.70,1003.73,0.00
48453,BANG NA AGROMET.,กรุงเทพฯ บางนา สกษ.,กรุงเทพมหานคร,13.66639,100.60611,07-20-2019,04:00:00,000,89,0.0,1004.97,10.00,27.2,32.05,25.2,0.00,1004.67,0.00
48455,BANGKOK METROPOLIS,กรุงเทพมหานคร,กรุงเทพมหานคร,13.72639,100.56000,07-20-2019,04:00:00,000,84,0.0,1004.48,10.00,27.2,30.39,24.3,0.00,1004.00,0.00
48456,DON MUANG AIRPORT,สนามบินดอนเมือง,กรุงเทพมหานคร,13.91917,100.60500,07-20-2019,04:00:00,000,97,0.0,1004.99,10.00,25.7,31.90,25.1,8.20,1003.58,0.00
48458,CHACHOENGSAO,ฉะเชิงเทรา,ฉะเชิงเทรา,13.51556,101.45833,07-20-2019,04:00:00,000,95,0.0,1007.56,10.00,25.6,31.17,24.7,0.00,999.52,0.00
48459,CHON BURI,ชลบุรี,ชลบุรี,13.36667,100.98333,07-20-2019,04:00:00,000,81,0.0,1004.75,10.00,29.3,32.87,25.6,0.00,1004.47,0.00
48460,KO SICHANG,เกาะสีชัง,ชลบุรี,13.16167,100.80194,07-20-2019,04:00:00,000,80,0.0,1004.80,10.00,29.2,32.38,25.4,0.00,1001.70,0.00
48461,PHATTHAYA,พัทยา,ชลบุรี,12.92000,100.86944,07-20-2019,04:00:00,240,80,5.6,1005.45,10.00,28.2,30.40,24.3,0.00,998.55,0.00
48462,ARANYA PRATHET,อรัญประเทศ,สระแก้ว,13.70000,102.58333,07-20-2019,04:00:00,260,88,5.6,1005.60,8.00,26.5,30.43,24.3,0.00,1000.00,0.00
48464,RATCHA BURI,ราชบุรี,ราชบุรี,13.48931,99.79239,07-20-2019,04:00:00,000,97,0.0,1006.20,10.00,25.5,31.52,24.9,4.20,1004.93,0.00
48465,PHETCHA BURI,เพชรบุรี,เพชรบุรี,12.99944,100.06056,07-20-2019,04:00:00,210,74,11.1,1005.03,11.00,27.9,27.93,22.9,0.00,1004.60,0.00
48474,NONG PHLUB AGROMET.,หนองพลับ สกษ.,ประจวบคีรีขันธ์,12.58333,99.73333,07-20-2019,04:00:00,000,94,0.0,1005.85,10.00,23.8,27.67,22.8,3.10,993.47,0.00
48475,HUA HIN,หัวหิน,ประจวบคีรีขันธ์,12.58611,99.96250,07-20-2019,04:00:00,000,82,0.0,1005.56,10.00,26.8,28.84,23.4,0.00,1004.85,0.00
48477,SATTAHIP,สัตหีบ,ชลบุรี,12.68333,100.98333,07-20-2019,04:00:00,190,82,11.1,1005.92,10.00,28.3,31.70,25.0,0.00,1003.49,0.00
48478,RAYONG,ระยอง,ระยอง,12.63222,101.34361,07-20-2019,04:00:00,250,83,9.3,1006.01,10.00,29.0,33.41,25.9,0.00,1005.49,0.00
48479,HUAI PONG AGROMET.,ห้วยโป่ง สกษ.,ระยอง,12.73333,101.13333,07-20-2019,04:00:00,000,86,0.0,1005.51,9.00,27.6,31.72,25.0,0.00,1000.38,0.00
48480,CHANTHA BURI,จันทบุรี,จันทบุรี,12.61667,102.11333,07-20-2019,04:00:00,000,95,0.0,1005.79,7.00,26.6,33.10,25.7,26.30,1005.38,0.00
48481,PHLIU  AGROMET.,พลิ้ว สกษ.,จันทบุรี,12.50861,102.17305,07-20-2019,04:00:00,000,98,0.0,1005.96,8.00,26.3,33.35,25.9,30.40,1003.19,0.00
48500,PRACHUAP KHIRIKHAN,ประจวบคีรีขันธ์,ประจวบคีรีขันธ์,11.83333,99.83333,07-20-2019,04:00:00,000,81,0.0,1006.35,10.00,26.4,27.85,22.9,0.30,1005.56,0.00
48501,TRAD,ตราด,ตราด,11.76667,102.88333,07-20-2019,04:00:00,040,98,3.7,1006.28,5.00,25.0,31.12,24.7,150.00,1005.82,8.00
48517,CHUMPHON,ชุมพร,ชุมพร,10.49875,99.18847,07-20-2019,04:00:00,000,97,0.0,1006.35,6.00,24.7,30.03,24.1,45.40,1005.67,0.40
48520,SAWI AGROMET.,สวี สกษ.,ชุมพร,10.33333,99.10000,07-20-2019,04:00:00,240,95,9.3,1006.77,8.00,24.4,28.97,23.5,98.60,1005.23,1.00
48532,RANONG,ระนอง,ระนอง,9.98333,98.61667,07-20-2019,04:00:00,210,96,3.7,1007.87,7.00,24.5,29.41,23.8,116.10,1006.94,4.60
48550,KO SAMUI,เกาะสมุย,สุราษฎร์ธานี,9.46667,100.05000,07-20-2019,04:00:00,270,83,9.3,1006.75,10.00,27.3,30.04,24.1,0.00,1006.06,0.00
48551,SURAT THANI,สุราษฎร์ธานี,สุราษฎร์ธานี,9.13556,99.15194,07-20-2019,04:00:00,150,98,1.9,1007.52,6.00,24.2,29.66,23.9,14.30,1006.71,0.00
48552,NAKHONSI THAMMARAT,นครศรีธรรมราช,นครศรีธรรมราช,8.53778,99.96389,07-20-2019,04:00:00,000,97,0.0,1006.75,10.00,25.3,31.41,24.9,0.90,1006.12,0.00
48554,NAKHONSI THAMMARAT AGROMET.,นครศรีธรรมราช สกษ.,นครศรีธรรมราช,8.35931,100.00000,07-20-2019,04:00:00,000,96,0.0,1007.05,8.00,24.5,29.41,23.8,0.01,1006.64,0.00
48555,SURAT THANI AGROMET.,สุราษฎร์ธานี สกษ.,สุราษฎร์ธานี,9.10000,99.63333,07-20-2019,04:00:00,000,96,0.0,1008.87,6.00,24.5,29.41,23.8,0.01,1004.62,0.00
48556,PHRA SANG,พระแสง สอท.,สุราษฎร์ธานี,8.57022,99.25825,07-20-2019,04:00:00,000,98,0.0,1007.39,5.00,24.2,29.66,23.9,12.40,1005.77,0.00
48557,CHAWANG,ฉวาง,นครศรีธรรมราช,8.43194,99.51194,07-20-2019,04:00:00,000,96,0.0,1008.11,8.00,24.0,28.53,23.3,4.00,1004.60,0.00
48560,PHATTHALUNG AGROMET.,พัทลุง สกษ.,พัทลุง,7.58333,100.16667,07-20-2019,04:00:00,000,97,0.0,1006.57,7.00,24.7,30.30,24.3,5.90,1005.20,0.00
48561,TAKUA PA,ตะกั่วป่า,พังงา,8.68417,98.25222,07-20-2019,04:00:00,000,100,0.0,1006.90,10.00,24.5,30.73,24.5,94.20,1006.01,0.60
48563,KRABI,กระบี่,กระบี่,8.10361,98.97528,07-20-2019,04:00:00,000,98,0.0,1007.25,10.00,23.9,29.12,23.6,107.00,1003.66,0.00
48564,PHUKET,ภูเก็ต,ภูเก็ต,7.88333,98.40000,07-20-2019,04:00:00,000,96,0.0,1006.73,10.00,25.5,31.25,24.8,11.20,1006.30,0.00
48565,PHUKET AIRPORT,ภูเก็ต (ศูนย์ฯ),ภูเก็ต,8.14500,98.31444,07-20-2019,04:00:00,000,94,0.0,1006.46,8.00,24.7,29.25,23.7,60.20,1005.46,1.20
48566,KO LANTA,เกาะลันตา,กระบี่,7.53333,99.05000,07-20-2019,04:00:00,080,96,5.6,1006.62,10.00,25.4,31.06,24.7,90.60,1005.80,0.00
48567,TRANG AIRPORT,ตรัง,ตรัง,7.51667,99.61667,07-20-2019,04:00:00,000,97,0.0,1007.21,7.00,24.6,30.12,24.2,16.00,1005.38,0.00
48568,SONGKHLA,สงขลา,สงขลา,7.18211,100.60769,07-20-2019,04:00:00,000,92,0.0,1006.99,8.00,26.2,31.22,24.8,0.00,1006.23,0.00
48569,HAT YAI AIRPORT,หาดใหญ่,สงขลา,6.91667,100.43333,07-20-2019,04:00:00,000,96,0.0,1007.36,5.00,25.2,30.69,24.5,0.20,1003.34,0.00
48570,SATUN,สตูล,สตูล,6.65000,100.08333,07-20-2019,04:00:00,000,92,0.0,1006.96,10.00,25.5,29.91,24.0,2.60,1006.27,0.00
48571,KHO HONG AGROMET.,คอหงษ์ สกษ.,สงขลา,7.00000,100.50000,07-20-2019,04:00:00,000,90,0.0,1006.90,10.00,26.2,30.67,24.5,0.00,1005.79,0.00
48574,SA DAO,สะเดา,สงขลา,6.79806,100.39056,07-20-2019,04:00:00,000,97,0.0,1007.30,10.00,24.2,29.13,23.6,0.00,1004.36,0.00
