WmoStationNumber,StationNameEnglish,StationNameThai,Province,Latitude,Longitude,Rainfall24Hr,Date,Time,Rainfall,VaporPressure,WindSpeed,StationPressure,AirTemperature,DewPoint,RelativeHumidity,WindDirection,MeanSeaLevelPressure,MaximumTemperature,LandVisibility
48300,MAE HONG SON,แม่ฮ่องสอน,แม่ฮ่องสอน,19.29897,97.97578,6.00,07-25-2019,19:00:00,4.50,28.83,0.0,976.21,25.2,23.4,90,000,1007.21,31.0,2.00
48302,DOI ANG KANG,ดอยอ่างขาง,เชียงใหม่,19.93139,99.04833,3.80,07-25-2019,19:00:00,0.00,19.74,18.5,843.70,19.6,17.3,87,300,1004.11,21.6,4.00
48303,CHIANG RAI,เชียงราย,เชียงราย,19.96139,99.88139,10.70,07-25-2019,19:00:00,0.00,27.56,0.0,960.90,29.0,22.7,69,000,1003.91,31.0,12.00
48304,CHAING RAI AGROMET.,เชียงราย สกษ.,เชียงราย,19.87083,99.78278,9.50,07-25-2019,19:00:00,0.00,30.75,0.0,959.05,28.1,24.5,81,000,1004.07,30.5,15.00
48307,THUNG CHANG,ทุ่งช้าง,น่าน,19.41194,100.88353,6.00,07-25-2019,19:00:00,0.00,31.36,0.0,968.29,27.7,24.8,84,000,1005.63,30.0,12.00
48310,PHAYAO,พะเยา,พะเยา,19.13333,99.90000,0.01,07-25-2019,19:00:00,0.01,28.36,7.4,960.43,26.1,23.2,84,180,1005.37,31.0,8.00
48315,THA WANGPHA,ท่าวังผา,น่าน,19.11056,100.80250,0.60,07-25-2019,19:00:00,0.10,32.80,0.0,979.32,28.0,25.6,87,000,1005.85,30.2,10.00
48324,THOEN,เถิน,ลำปาง,17.63661,99.24475,0.20,07-25-2019,19:00:00,0.20,23.92,9.3,985.10,29.3,20.4,59,250,1006.64,32.4,12.00
48325,MAE SARIANG,แม่สะเรียง,แม่ฮ่องสอน,18.16667,97.93333,6.60,07-25-2019,19:00:00,2.00,29.95,0.0,984.50,24.8,24.1,96,000,1008.76,31.0,6.00
48327,CHIANG MAI,เชียงใหม่,เชียงใหม่,18.79000,98.97694,1.20,07-25-2019,19:00:00,1.20,28.29,7.4,971.31,26.5,23.1,82,220,1005.72,34.0,10.00
48328,LAMPANG,ลำปาง,ลำปาง,18.28333,99.51667,8.50,07-25-2019,19:00:00,2.50,29.77,3.7,979.46,27.3,24.0,82,180,1006.89,33.5,10.00
48329,LAMPHUN,ลำพูน,ลำพูน,18.56722,99.03389,0.00,07-25-2019,19:00:00,0.00,26.63,5.6,972.32,28.2,22.1,70,240,1005.61,34.9,10.00
48330,PHRAE,แพร่,แพร่,18.16667,100.16667,0.30,07-25-2019,19:00:00,0.10,29.63,7.4,988.09,27.8,23.9,79,240,1006.51,33.5,15.00
48331,NAN,น่าน,น่าน,18.77972,100.77778,0.01,07-25-2019,19:00:00,0.00,28.97,13.0,983.33,28.6,23.5,74,230,1005.96,32.0,10.00
48333,NAN AGROMET.,น่าน สกษ.,น่าน,18.86667,100.75000,0.00,07-25-2019,19:00:00,0.00,32.02,0.0,975.98,28.6,25.2,82,000,1005.60,30.4,10.00
48334,LAMPANG AGROMET.,ลำปาง สกษ.,ลำปาง,18.31667,99.28333,8.60,07-25-2019,19:00:00,3.80,28.18,0.0,971.53,26.0,23.1,84,000,1007.05,32.0,6.00
48350,LOEI AGROMET.,เลย สกษ.,เลย,17.40000,101.73333,0.20,07-25-2019,19:00:00,0.00,26.75,0.0,976.84,27.1,22.2,75,000,1006.46,29.5,13.00
48351,UTTARADIT,อุตรดิตถ์,อุตรดิตถ์,17.61667,100.10000,16.20,07-25-2019,19:00:00,0.01,30.34,0.0,999.75,26.6,24.3,87,000,1007.07,33.6,9.00
48352,NONG KHAI,หนองคาย,หนองคาย,17.86717,102.73303,0.20,07-25-2019,19:00:00,0.00,30.31,3.7,986.42,28.3,24.3,79,160,1006.20,30.3,13.00
48353,LOEI,เลย,เลย,17.45000,101.73333,0.40,07-25-2019,19:00:00,0.00,25.49,11.1,978.22,27.7,21.4,69,250,1006.76,28.6,13.00
48354,UDON THANI,อุดรธานี,อุดรธานี,17.38333,102.80000,8.90,07-25-2019,19:00:00,0.00,29.33,3.7,986.51,28.5,23.7,75,230,1006.56,29.9,12.00
48355,SAKON NAKHON AGROMET.,สกลนคร สกษ.,สกลนคร,17.12503,104.06100,2.10,07-25-2019,19:00:00,0.00,30.51,0.0,985.43,26.4,24.4,89,000,1007.19,28.8,12.00
48356,SAKON NAKHON,สกลนคร,สกลนคร,17.15000,104.13333,3.90,07-25-2019,19:00:00,0.10,29.41,3.7,987.56,26.1,23.8,87,180,1007.09,28.8,12.00
48357,NAKHON PHANOM,นครพนม,นครพนม,17.41083,104.78250,64.80,07-25-2019,19:00:00,6.00,29.00,0.0,990.82,25.0,23.5,92,000,1007.68,27.5,7.00
48358,NAKHON PHANOM AGROMET.,นครพนม สกษ.,นครพนม,17.44306,104.77361,28.20,07-25-2019,19:00:00,1.10,30.25,0.0,990.53,25.4,24.2,93,000,1008.04,28.1,10.00
48360,NONG BUA LAM PHU,หนองบัวลำภู,หนองบัวลำภู,17.23250,102.42944,0.50,07-25-2019,19:00:00,0.00,28.78,14.8,978.75,28.5,23.4,74,260,1004.31,32.3,12.00
48372,SUKHOTHAI*,สุโขทัย,สุโขทัย,17.10611,99.80000,4.70,07-25-2019,19:00:00,0.00,32.87,0.0,1000.76,26.2,25.6,97,000,1006.56,32.0,10.00
48373,SI SAMRONG AGROMET.,ศรีสำโรง สกษ.,สุโขทัย,17.16136,99.86167,25.50,07-25-2019,19:00:00,0.00,31.79,0.0,1000.91,25.5,25.1,97,000,1007.13,31.4,10.00
48374,LOM SAK,หล่มสัก,เพชรบูรณ์,16.77361,101.24944,18.50,07-25-2019,19:00:00,10.60,31.57,0.0,992.07,26.1,24.9,93,000,1008.58,28.7,7.00
48375,MAE SOT,แม่สอด,ตาก,16.65917,98.55083,27.70,07-25-2019,19:00:00,14.20,25.35,3.7,985.96,23.3,21.3,89,220,1008.58,29.0,8.00
48376,TAK,ตาก,ตาก,16.87833,99.14333,1.50,07-25-2019,19:00:00,0.20,23.30,16.7,994.61,26.4,20.0,68,260,1009.06,31.2,8.00
48377,BHUMIBOL DAM,เขื่อนภูมิพล,ตาก,17.24389,99.00250,1.50,07-25-2019,19:00:00,0.00,26.70,11.1,991.05,27.8,22.2,71,240,1007.39,31.0,7.00
48378,PHITSANULOK,พิษณุโลก,พิษณุโลก,16.79481,100.27930,0.30,07-25-2019,19:00:00,0.20,30.73,7.4,1002.17,25.8,24.5,93,020,1007.42,31.9,10.00
48379,PHETCHABUN,เพชรบูรณ์,เพชรบูรณ์,16.43333,101.15000,3.20,07-25-2019,19:00:00,0.00,31.54,0.0,992.65,28.5,24.9,81,000,1005.76,30.7,12.00
48380,KAMPHAENG PHET,กำแพงเพชร,กำแพงเพชร,16.48681,99.52697,0.40,07-25-2019,19:00:00,0.30,32.67,0.0,998.37,29.2,25.5,81,000,1007.64,32.5,8.00
48381,KHON KAEN,ขอนแก่น,ขอนแก่น,16.46111,102.78972,7.80,07-25-2019,19:00:00,2.60,31.12,7.4,985.79,25.0,24.7,98,110,1007.62,32.0,6.00
48382,MAHASARAKHAM,มหาสารคาม,มหาสารคาม,16.24722,103.06805,2.90,07-25-2019,19:00:00,1.80,30.96,0.0,990.16,25.2,24.6,97,000,1007.77,33.0,10.00
48383,MUKDAHAN,มุกดาหาร,มุกดาหาร,16.54139,104.72889,2.10,07-25-2019,19:00:00,0.00,27.85,9.3,991.45,28.0,22.9,74,250,1007.23,31.6,10.00
48384,THA PHRA AGROMET.,ท่าพระ สกษ.,ขอนแก่น,16.33333,102.81667,7.70,07-25-2019,19:00:00,7.30,31.66,0.0,987.43,25.0,25.0,100,000,1006.42,32.7,8.00
48385,UMPHANG,อุ้มผาง,ตาก,16.02472,98.86444,7.60,07-25-2019,19:00:00,1.60,26.25,0.0,959.53,23.7,21.9,90,000,1011.30,27.0,6.00
48386,PICHIT AGROMET.,พิจิตร สกษ.,พิจิตร,16.43806,100.29250,0.00,07-25-2019,19:00:00,0.00,32.26,0.0,1002.53,31.1,25.3,71,000,1006.43,33.1,7.00
48387,DOI MU SOE AGROMET.,ดอยมูเซอร์ สกษ.,ตาก,16.75000,98.93333,18.50,07-25-2019,19:00:00,9.00,21.52,25.9,913.40,19.0,18.7,98,240,1009.50,23.0,.10
48390,KALASIN,กาฬสินธุ์,กาฬสินธุ์,16.33250,103.58833,13.10,07-25-2019,19:00:00,0.01,28.92,0.0,991.59,25.1,23.5,91,000,1007.69,28.7,6.00
48400,NAKHON SAWAN,นครสวรรค์ ,นครสวรรค์,15.67183,100.13236,8.30,07-25-2019,19:00:00,8.30,32.53,5.6,1004.27,25.6,25.4,99,150,1008.33,34.5,5.00
48401,TAKFA AGROMET.,ตากฟ้า สกษ.,นครสวรรค์,15.34944,100.53028,0.10,07-25-2019,19:00:00,0.10,29.36,0.0,998.29,27.8,23.7,79,000,1008.96,32.5,8.00
48402,CHAINAT AGROMET.,ชัยนาท สกษ.,ชัยนาท,15.15000,100.18333,0.00,07-25-2019,19:00:00,0.00,25.01,7.4,1006.03,30.5,21.1,57,220,1007.94,36.9,10.00
48403,CHAIYAPHUM,ชัยภูมิ,ชัยภูมิ,15.80000,102.03333,0.00,07-25-2019,19:00:00,0.00,25.07,7.4,987.06,30.1,21.1,59,260,1007.73,34.8,10.00
48404,ROI ET AGROMET.,ร้อยเอ็ด สกษ.,ร้อยเอ็ด,16.07322,103.60844,20.70,07-25-2019,19:00:00,0.80,28.48,0.0,990.29,25.0,23.2,90,000,1008.08,29.5,10.00
48405,ROI ET,ร้อยเอ็ด,ร้อยเอ็ด,16.02000,103.74389,21.20,07-25-2019,19:00:00,0.80,28.77,0.0,991.17,25.6,23.4,88,000,1007.41,29.8,10.00
48407,UBON RATCHATHANI,อุบลราชธานี (ศูนย์ฯ),อุบลราชธานี,15.25000,104.86667,39.30,07-25-2019,19:00:00,0.00,30.21,5.6,993.55,29.1,24.2,75,300,1007.49,31.7,10.00
48408,UBON RATCHATHANI AGROMET.,อุบลราชธานี สกษ.,อุบลราชธานี,15.23914,105.02350,10.40,07-25-2019,19:00:00,0.00,31.54,0.0,993.19,28.5,24.9,81,000,1007.96,32.5,8.00
48409,SI SAKET AGROMET.,ศรีสะเกษ,ศรีสะเกษ,15.00000,104.05000,16.40,07-25-2019,19:00:00,0.00,31.13,0.0,993.59,29.0,24.7,78,000,1008.18,31.6,8.00
48410,UTHAITHANI,อุทัยธานี,อุทัยธานี,15.37417,100.03889,0.01,07-25-2019,19:00:00,0.01,30.12,0.0,1005.06,28.2,24.2,79,"{'0': '   ', '@attributes': {'Unit': 'degree'}}",1008.07,34.6,10.00
48413,WICHIAN BURI,วิเชียรบุรี,เพชรบูรณ์,15.65700,101.10800,6.90,07-25-2019,19:00:00,0.10,32.88,0.0,999.20,28.6,25.6,84,000,1007.11,33.2,10.00
48415,AYUTTHAYA,พระนครศรีอยุธยา,พระนครศรีอยุธยา,14.53472,100.72500,1.90,07-25-2019,19:00:00,1.90,29.56,14.8,1006.02,26.9,23.8,83,180,1007.13,32.6,7.00
48416,THA TUM,ท่าตูม,สุรินทร์,15.31667,103.68333,21.00,07-25-2019,19:00:00,5.80,35.59,0.0,993.57,30.3,27.0,82,000,1008.11,32.4,7.00
48417,NAKORNNAYOK,นครนายก,นครนายก,14.36222,101.39278,10.20,07-25-2019,19:00:00,0.01,22.15,9.3,873.91,19.3,19.1,99,190,1009.29,21.0,.10
48418,BUA CHUM,บัวชุม  ,ลพบุรี,15.26667,101.18736,0.00,07-25-2019,19:00:00,0.00,27.60,3.7,1001.88,30.6,22.7,63,210,1007.69,33.5,10.00
48419,PATHUMTHANI,ปทุมธานี สกษ.,ปทุมธานี,14.10000,100.61667,0.70,07-25-2019,19:00:00,0.00,32.20,3.7,1008.15,27.7,25.3,87,180,1008.95,34.9,9.00
48420,Samut Prakarn,สมุทรปราการ สกษ.,สมุทรปราการ,13.51667,100.76167,0.30,07-25-2019,19:00:00,0.01,29.69,0.0,1008.49,27.4,23.9,81,000,1008.94,31.0,10.00
48421,THONG PHAPHUM,ทองผาภูมิ,กาญจนบุรี,14.74222,98.63639,7.40,07-25-2019,19:00:00,1.60,28.07,0.0,998.87,25.5,23.0,86,000,1010.26,30.5,5.00
48425,SUPHAN BURI,สุพรรณบุรี,สุพรรณบุรี,14.47444,100.13889,0.00,07-25-2019,19:00:00,0.00,28.37,16.7,1008.00,29.0,23.2,71,240,1009.01,34.5,10.00
48426,LOP BURI,ลพบุรี,ลพบุรี,14.79972,100.64500,0.50,07-25-2019,19:00:00,0.00,30.57,11.1,1007.26,29.0,24.4,76,170,1009.07,33.2,10.00
48427,U THONG AGROMET.,อู่ทอง สกษ.,สุพรรณบุรี,14.30361,99.86472,0.01,07-25-2019,19:00:00,0.01,26.12,7.4,1008.27,26.0,21.8,78,290,1009.04,34.5,7.00
48429,SUVARNABHUMI AIRPORT,สนามบินสุวรรณภูมิ,สมุทรปราการ,13.68639,100.76750,2.00,07-25-2019,19:00:00,1.80,28.57,9.3,1005.41,25.2,23.3,89,290,1006.11,32.3,7.00
48430,PRACHIN BURI,ปราจีนบุรี,ปราจีนบุรี,14.05842,101.36930,8.70,07-25-2019,19:00:00,1.50,30.54,3.7,1008.11,25.7,24.4,93,120,1008.82,31.9,6.00
48431,NAKHON RATCHASIMA,นครราชสีมา,นครราชสีมา,14.96830,102.08603,1.60,07-25-2019,19:00:00,0.00,29.19,7.4,986.70,29.0,23.6,73,220,1007.73,35.0,10.00
48432,SURIN,สุรินทร์,สุรินทร์,14.88333,103.50000,15.00,07-25-2019,19:00:00,0.00,27.03,11.1,991.02,29.0,22.4,68,210,1007.63,32.3,9.00
48433,SURIN AGROMET.,สุรินทร์ สกษ.,สุรินทร์,14.88333,103.45000,24.20,07-25-2019,19:00:00,0.00,27.20,1.9,991.78,28.8,22.5,69,190,1008.13,32.8,8.00
48434,CHOK CHAI,โชคชัย,นครราชสีมา,14.71889,102.16861,3.10,07-25-2019,19:00:00,0.00,26.54,14.8,986.16,28.0,22.1,70,240,1007.96,34.0,10.00
48435,PAKCHONG AGROMET.,ปากช่อง สกษ.,นครราชสีมา,14.64389,101.33194,2.30,07-25-2019,19:00:00,0.00,26.06,7.4,965.07,27.0,21.8,73,270,1008.36,29.4,10.00
48436,NANG RONG,นางรอง,บุรีรัมย์,14.58333,102.80000,8.00,07-25-2019,19:00:00,0.00,25.24,5.6,987.37,28.0,21.3,67,210,1007.88,32.0,10.00
48437,BURIRUM,บุรีรัมย์,บุรีรัมย์,15.22575,103.24808,3.00,07-25-2019,19:00:00,0.40,33.35,0.0,988.29,26.3,25.9,98,000,1009.20,33.0,9.00
48438,SAMUTSONGKRAM,สมุทรสงคราม,สมุทรสงคราม,13.40778,100.03222,0.00,07-25-2019,19:00:00,0.00,30.20,3.7,1008.38,28.1,24.2,79,320,1008.82,32.3,10.00
48439,KABIN BURI,กบินทร์บุรี,ปราจีนบุรี,13.98333,101.70722,10.00,07-25-2019,19:00:00,0.10,31.88,0.0,1007.31,26.4,25.1,93,000,1008.73,29.5,8.00
48440,SA KAEW,สระแก้ว,สระแก้ว,13.78889,102.03472,10.50,07-25-2019,19:00:00,0.00,31.76,0.0,1004.20,26.2,25.0,93,000,1009.15,29.9,7.00
48450,KANCHANA BURI,กาญจนบุรี,กาญจนบุรี,14.02250,99.53583,0.01,07-25-2019,19:00:00,0.00,26.29,7.4,1005.72,28.3,21.9,68,300,1009.01,34.7,12.00
48451,NAKHONPATHOM,นครปฐม,นครปฐม,14.01167,99.97000,0.01,07-25-2019,19:00:00,0.00,30.56,0.0,1007.70,28.0,24.4,81,000,1008.80,34.3,10.00
48453,BANG NA AGROMET.,กรุงเทพฯ บางนา สกษ.,กรุงเทพมหานคร,13.66639,100.60611,1.20,07-25-2019,19:00:00,1.00,29.23,3.7,1008.98,26.0,23.7,87,290,1009.28,33.0,7.00
48454,BANGKOK PORT (KLONG TOEI),กรุงเทพฯ ท่าเรือคลองเตย,กรุงเทพมหานคร,13.70694,100.56805,15.30,07-25-2019,19:00:00,15.30,30.07,0.0,1008.45,25.3,24.1,93,000,1009.14,34.1,8.00
48455,BANGKOK METROPOLIS,กรุงเทพมหานคร,กรุงเทพมหานคร,13.72639,100.56000,11.50,07-25-2019,19:00:00,11.50,30.17,0.0,1008.61,25.5,24.2,93,000,1009.10,34.3,8.00
48456,DON MUANG AIRPORT,สนามบินดอนเมือง,กรุงเทพมหานคร,13.91917,100.60500,0.01,07-25-2019,19:00:00,0.01,28.90,11.1,1008.30,26.4,23.5,84,200,1009.71,33.1,10.00
48457,PILOT STATION,นำร่อง,สมุทรปราการ,13.39389,100.59944,0.40,07-25-2019,19:00:00,0.00,34.07,3.7,1007.23,28.9,26.2,86,310,1008.91,30.3,10.00
48458,CHACHOENGSAO,ฉะเชิงเทรา,ฉะเชิงเทรา,13.51556,101.45833,14.00,07-25-2019,19:00:00,0.00,31.08,0.0,1002.27,25.7,24.7,94,000,1010.34,30.5,10.00
48459,CHON BURI,ชลบุรี,ชลบุรี,13.36667,100.98333,4.10,07-25-2019,19:00:00,0.00,32.13,3.7,1008.52,29.5,25.2,78,340,1008.80,31.0,10.00
48460,KO SICHANG,เกาะสีชัง,ชลบุรี,13.16167,100.80194,2.00,07-25-2019,19:00:00,0.00,29.71,0.0,1005.85,29.7,23.9,71,000,1008.96,31.0,10.00
48461,PHATTHAYA,พัทยา,ชลบุรี,12.92000,100.86944,0.40,07-25-2019,19:00:00,0.01,27.30,7.4,1002.40,29.0,22.5,68,210,1009.31,32.5,10.00
48462,ARANYA PRATHET,อรัญประเทศ,สระแก้ว,13.70000,102.58333,10.80,07-25-2019,19:00:00,0.01,30.43,0.0,1003.84,26.5,24.3,88,000,1009.46,32.5,7.00
48463,LAEM CHABANG,แหลมฉบัง,ชลบุรี,13.07694,100.87583,1.00,07-25-2019,19:00:00,0.00,28.56,20.4,1000.72,29.1,23.3,71,240,1009.99,33.7,8.00
48464,RATCHA BURI,ราชบุรี,ราชบุรี,13.48931,99.79239,5.90,07-25-2019,19:00:00,0.00,32.53,0.0,1008.62,27.3,25.4,90,000,1009.88,32.2,10.00
48465,PHETCHA BURI,เพชรบุรี,เพชรบุรี,12.99944,100.06056,0.30,07-25-2019,19:00:00,0.00,23.93,5.6,1008.42,29.6,20.4,58,220,1008.85,33.1,11.00
48474,NONG PHLUB AGROMET.,หนองพลับ สกษ.,ประจวบคีรีขันธ์,12.58333,99.73333,0.50,07-25-2019,19:00:00,0.00,23.81,0.0,997.08,28.2,20.3,62,000,1009.32,32.1,10.00
48475,HUA HIN,หัวหิน,ประจวบคีรีขันธ์,12.58611,99.96250,12.20,07-25-2019,19:00:00,0.00,26.32,0.0,1008.42,28.9,21.9,66,000,1009.13,33.0,10.00
48477,SATTAHIP,สัตหีบ,ชลบุรี,12.68333,100.98333,0.40,07-25-2019,19:00:00,0.01,29.49,11.1,1007.65,29.3,23.8,72,190,1010.07,33.7,10.00
48478,RAYONG,ระยอง,ระยอง,12.63222,101.34361,11.20,07-25-2019,19:00:00,0.01,31.69,9.3,1008.72,29.0,25.0,79,240,1009.23,31.5,7.00
48479,HUAI PONG AGROMET.,ห้วยโป่ง สกษ.,ระยอง,12.73333,101.13333,0.30,07-25-2019,19:00:00,0.01,30.42,0.0,1004.22,28.5,24.3,78,000,1009.36,33.4,10.00
48480,CHANTHA BURI,จันทบุรี,จันทบุรี,12.61667,102.11333,58.30,07-25-2019,19:00:00,9.90,32.01,0.0,1009.58,25.9,25.2,96,000,1010.00,31.5,5.00
48481,PHLIU  AGROMET.,พลิ้ว สกษ.,จันทบุรี,12.50861,102.17305,104.60,07-25-2019,19:00:00,42.50,30.58,0.0,1007.60,25.0,24.4,97,000,1010.39,29.8,8.00
48500,PRACHUAP KHIRIKHAN,ประจวบคีรีขันธ์,ประจวบคีรีขันธ์,11.83333,99.83333,0.00,07-25-2019,19:00:00,0.00,26.13,3.7,1008.79,28.5,21.8,67,350,1009.57,33.0,10.00
48501,TRAD,ตราด,ตราด,11.76667,102.88333,26.30,07-25-2019,19:00:00,3.20,27.70,5.6,1010.68,25.0,22.8,88,080,1011.14,30.5,6.00
48517,CHUMPHON,ชุมพร,ชุมพร,10.49875,99.18847,3.90,07-25-2019,19:00:00,0.70,28.11,3.7,1008.85,24.5,23.0,91,310,1009.54,30.1,8.00
48520,SAWI AGROMET.,สวี สกษ.,ชุมพร,10.33333,99.10000,4.20,07-25-2019,19:00:00,0.00,32.30,0.0,1008.03,26.9,25.3,91,000,1009.56,31.8,6.00
48532,RANONG,ระนอง,ระนอง,9.98333,98.61667,0.00,07-25-2019,19:00:00,0.00,32.55,0.0,1009.38,29.0,25.5,81,000,1010.30,32.5,10.00
48550,KO SAMUI,เกาะสมุย,สุราษฎร์ธานี,9.46667,100.05000,0.00,07-25-2019,19:00:00,0.00,31.93,0.0,1009.48,29.4,25.1,78,000,1010.17,33.4,10.00
48551,SURAT THANI,สุราษฎร์ธานี,สุราษฎร์ธานี,9.13556,99.15194,0.00,07-25-2019,19:00:00,0.00,31.09,0.0,1009.22,28.7,24.7,79,000,1010.01,34.8,9.00
48552,NAKHONSI THAMMARAT,นครศรีธรรมราช,นครศรีธรรมราช,8.53778,99.96389,0.00,07-25-2019,19:00:00,0.00,32.55,0.0,1009.29,29.0,25.5,81,000,1009.93,31.5,10.00
48554,NAKHONSI THAMMARAT AGROMET.,นครศรีธรรมราช สกษ.,นครศรีธรรมราช,8.35931,100.00000,0.00,07-25-2019,19:00:00,0.00,32.83,0.0,1009.76,29.0,25.6,82,000,1010.17,31.9,10.00
48555,SURAT THANI AGROMET.,สุราษฎร์ธานี สกษ.,สุราษฎร์ธานี,9.10000,99.63333,0.00,07-25-2019,19:00:00,0.00,28.10,0.0,1007.51,27.7,23.0,76,000,1011.73,33.0,7.00
48556,PHRA SANG,พระแสง สอท.,สุราษฎร์ธานี,8.57022,99.25825,0.00,07-25-2019,19:00:00,0.00,33.25,0.0,1008.53,27.8,25.8,89,000,1010.14,31.4,12.00
48557,CHAWANG,ฉวาง,นครศรีธรรมราช,8.43194,99.51194,0.00,07-25-2019,19:00:00,0.00,32.93,0.0,1006.84,27.5,25.7,90,000,1010.32,34.0,10.00
48560,PHATTHALUNG AGROMET.,พัทลุง สกษ.,พัทลุง,7.58333,100.16667,0.00,07-25-2019,19:00:00,0.00,31.18,0.0,1008.38,28.6,24.7,80,000,1009.73,32.3,7.00
48561,TAKUA PA,ตะกั่วป่า,พังงา,8.68417,98.25222,0.00,07-25-2019,19:00:00,0.00,32.14,0.0,1009.07,28.8,25.2,81,000,1009.95,32.4,10.00
48563,KRABI,กระบี่,กระบี่,8.10361,98.97528,0.00,07-25-2019,19:00:00,0.00,31.95,0.0,1006.40,28.0,25.1,85,000,1009.96,31.5,10.00
48564,PHUKET,ภูเก็ต,ภูเก็ต,7.88333,98.40000,0.00,07-25-2019,19:00:00,0.00,31.89,0.0,1009.84,29.8,25.1,76,000,1010.27,31.5,10.00
48565,PHUKET AIRPORT,ภูเก็ต (ศูนย์ฯ),ภูเก็ต,8.14500,98.31444,0.00,07-25-2019,19:00:00,0.00,33.37,3.7,1008.59,29.4,25.9,81,120,1009.57,31.9,10.00
48566,KO LANTA,เกาะลันตา,กระบี่,7.53333,99.05000,3.00,07-25-2019,19:00:00,0.00,26.92,5.6,1009.40,26.9,22.3,76,080,1010.22,31.6,10.00
48567,TRANG AIRPORT,ตรัง,ตรัง,7.51667,99.61667,0.00,07-25-2019,19:00:00,0.00,30.31,0.0,1008.51,28.3,24.3,79,000,1010.32,31.4,10.00
48568,SONGKHLA,สงขลา,สงขลา,7.18211,100.60769,1.00,07-25-2019,19:00:00,0.00,28.71,7.4,1009.55,27.6,23.4,78,240,1010.30,30.5,10.00
48569,HAT YAI AIRPORT,หาดใหญ่,สงขลา,6.91667,100.43333,1.40,07-25-2019,19:00:00,0.40,29.46,0.0,1006.60,25.4,23.8,91,000,1010.63,33.0,10.00
48570,SATUN,สตูล,สตูล,6.65000,100.08333,0.40,07-25-2019,19:00:00,0.00,29.88,0.0,1009.71,27.5,24.0,81,000,1010.39,32.4,10.00
48571,KHO HONG AGROMET.,คอหงษ์ สกษ.,สงขลา,7.00000,100.50000,22.20,07-25-2019,19:00:00,2.00,29.79,0.0,1009.14,25.0,24.0,94,000,1010.26,32.1,9.00
48574,SA DAO,สะเดา,สงขลา,6.79806,100.39056,0.00,07-25-2019,19:00:00,0.00,31.62,0.0,1007.44,28.4,25.0,82,000,1010.35,32.9,10.00
48580,PATTANI AIRPORT,ปัตตานี,ปัตตานี,6.78333,101.15000,0.00,07-25-2019,19:00:00,0.00,30.29,0.0,1009.27,29.0,24.3,76,000,1009.95,33.8,8.00
48581,YALA AGROMET.,ยะลา สกษ.,ยะลา,6.51667,101.28333,3.20,07-25-2019,19:00:00,0.00,32.68,3.7,1006.83,27.8,25.5,88,120,1010.96,33.8,8.00
48583,NARATHIWAT,นราธิวาส,นราธิวาส,6.41667,101.81667,0.30,07-25-2019,19:00:00,0.00,29.19,0.0,1009.78,28.0,23.6,77,000,1010.37,29.8,10.00
