WmoStationNumber,StationNameEnglish,StationNameThai,Province,Latitude,Longitude,RelativeHumidity,Date,Time,Rainfall,AirTemperature,DewPoint,WindSpeed,StationPressure,Rainfall24Hr,LandVisibility,MeanSeaLevelPressure,WindDirection,VaporPressure
48300,MAE HONG SON,แม่ฮ่องสอน,แม่ฮ่องสอน,19.29897,97.97578,83,07-31-2019,10:00:00,0.30,27.3,24.1,0.0,975.89,4.30,10.00,1006.67,000,30.04
48302,DOI ANG KANG,ดอยอ่างขาง,เชียงใหม่,19.93139,99.04833,99,07-31-2019,10:00:00,0.00,18.2,18.0,14.8,844.41,8.50,7.00,1005.78,270,20.67
48303,CHIANG RAI,เชียงราย,เชียงราย,19.96139,99.88139,82,07-31-2019,10:00:00,0.00,28.2,24.8,11.1,961.42,16.30,10.00,1004.57,130,31.23
48304,CHAING RAI AGROMET.,เชียงราย สกษ.,เชียงราย,19.87083,99.78278,81,07-31-2019,10:00:00,0.00,27.5,24.0,0.0,959.50,16.20,15.00,1004.64,000,29.88
48307,THUNG CHANG,ทุ่งช้าง,น่าน,19.41194,100.88353,97,07-31-2019,10:00:00,25.50,24.8,24.4,0.0,968.14,53.60,12.00,1005.84,000,30.48
48310,PHAYAO,พะเยา,พะเยา,19.13333,99.90000,97,07-31-2019,10:00:00,3.00,24.0,23.4,5.6,960.54,30.10,8.00,1005.80,140,28.78
48315,THA WANGPHA,ท่าวังผา,น่าน,19.11056,100.80250,97,07-31-2019,10:00:00,27.00,24.3,23.9,0.0,979.47,122.60,6.00,1006.34,000,29.57
48324,THOEN,เถิน,ลำปาง,17.63661,99.24475,80,07-31-2019,10:00:00,0.00,26.7,23.0,0.0,984.49,0.80,10.00,1006.20,000,28.13
48325,MAE SARIANG,แม่สะเรียง,แม่ฮ่องสอน,18.16667,97.93333,81,07-31-2019,10:00:00,0.00,27.0,23.5,0.0,983.47,0.40,8.00,1007.53,000,28.94
48327,CHIANG MAI,เชียงใหม่,เชียงใหม่,18.79000,98.97694,90,07-31-2019,10:00:00,0.40,25.1,23.3,0.0,972.12,13.20,10.00,1006.72,000,28.66
48328,LAMPANG,ลำปาง,ลำปาง,18.28333,99.51667,91,07-31-2019,10:00:00,1.60,25.1,23.5,0.0,979.12,4.40,8.00,1006.75,000,28.92
48329,LAMPHUN,ลำพูน,ลำพูน,18.56722,99.03389,88,07-31-2019,10:00:00,1.30,25.5,23.3,0.0,972.80,7.70,8.00,1006.40,000,28.59
48330,PHRAE,แพร่,แพร่,18.16667,100.16667,92,07-31-2019,10:00:00,2.50,26.0,24.6,3.7,987.58,15.70,3.00,1006.10,260,30.84
48331,NAN,น่าน,น่าน,18.77972,100.77778,97,07-31-2019,10:00:00,9.80,24.2,23.6,0.0,982.89,57.70,6.00,1005.85,000,29.13
48333,NAN AGROMET.,น่าน สกษ.,น่าน,18.86667,100.75000,97,07-31-2019,10:00:00,14.00,23.8,23.4,0.0,975.63,78.00,6.00,1005.73,000,28.69
48334,LAMPANG AGROMET.,ลำปาง สกษ.,ลำปาง,18.31667,99.28333,87,07-31-2019,10:00:00,1.00,25.4,23.0,0.0,970.75,2.40,6.00,1006.32,000,28.15
48350,LOEI AGROMET.,เลย สกษ.,เลย,17.40000,101.73333,86,07-31-2019,10:00:00,0.00,27.4,24.8,3.7,974.70,5.40,14.00,1004.23,140,31.33
48351,UTTARADIT,อุตรดิตถ์,อุตรดิตถ์,17.61667,100.10000,86,07-31-2019,10:00:00,0.01,26.5,23.9,0.0,998.48,8.30,7.00,1005.79,000,29.62
48352,NONG KHAI,หนองคาย,หนองคาย,17.86717,102.73303,77,07-31-2019,10:00:00,0.00,28.8,24.3,7.4,984.63,0.60,15.00,1004.34,260,30.46
48353,LOEI,เลย,เลย,17.45000,101.73333,77,07-31-2019,10:00:00,0.00,27.6,23.2,3.7,976.31,7.70,13.00,1004.81,130,28.45
48354,UDON THANI,อุดรธานี,อุดรธานี,17.38333,102.80000,81,07-31-2019,10:00:00,0.00,28.0,24.4,9.3,984.81,27.80,15.00,1004.85,250,30.56
48355,SAKON NAKHON AGROMET.,สกลนคร สกษ.,สกลนคร,17.12503,104.06100,74,07-31-2019,10:00:00,0.00,29.3,24.3,7.4,983.07,0.90,12.00,1004.57,280,30.32
48356,SAKON NAKHON,สกลนคร,สกลนคร,17.15000,104.13333,75,07-31-2019,10:00:00,0.00,28.9,24.0,5.6,984.95,2.80,15.00,1004.25,300,29.82
48357,NAKHON PHANOM,นครพนม,นครพนม,17.41083,104.78250,81,07-31-2019,10:00:00,0.00,28.1,24.5,5.6,988.05,0.90,12.00,1004.69,290,30.75
48358,NAKHON PHANOM AGROMET.,นครพนม สกษ.,นครพนม,17.44306,104.77361,85,07-31-2019,10:00:00,0.20,27.8,25.1,0.0,987.56,2.60,12.00,1004.87,000,31.84
48360,NONG BUA LAM PHU,หนองบัวลำภู,หนองบัวลำภู,17.23250,102.42944,85,07-31-2019,10:00:00,0.01,27.9,25.2,5.6,978.43,13.90,15.00,1004.04,260,32.03
48372,SUKHOTHAI*,สุโขทัย,สุโขทัย,17.10611,99.80000,76,07-31-2019,10:00:00,0.00,29.8,25.1,0.0,1000.44,0.00,10.00,1006.17,000,31.89
48373,SI SAMRONG AGROMET.,ศรีสำโรง สกษ.,สุโขทัย,17.16136,99.86167,73,07-31-2019,10:00:00,0.00,29.5,24.2,0.0,999.57,0.00,10.00,1005.71,000,30.16
48374,LOM SAK,หล่มสัก,เพชรบูรณ์,16.77361,101.24944,81,07-31-2019,10:00:00,0.20,27.2,23.6,0.0,990.31,4.50,8.00,1006.72,000,29.04
48375,MAE SOT,แม่สอด,ตาก,16.65917,98.55083,84,07-31-2019,10:00:00,0.60,26.5,23.6,0.0,983.91,8.20,10.00,1006.24,000,29.08
48376,TAK,ตาก,ตาก,16.87833,99.14333,60,07-31-2019,10:00:00,0.00,29.9,21.4,18.5,992.38,0.00,10.00,1006.62,260,25.50
48377,BHUMIBOL DAM,เขื่อนภูมิพล,ตาก,17.24389,99.00250,54,07-31-2019,10:00:00,0.00,32.1,21.6,11.1,989.28,0.00,12.00,1005.36,260,25.82
48378,PHITSANULOK,พิษณุโลก,พิษณุโลก,16.79481,100.27930,75,07-31-2019,10:00:00,0.01,29.4,24.5,0.0,1000.89,2.40,10.00,1006.07,000,30.80
48379,PHETCHABUN,เพชรบูรณ์,เพชรบูรณ์,16.43333,101.15000,81,07-31-2019,10:00:00,0.00,28.0,24.4,0.0,991.75,2.20,12.00,1004.87,000,30.56
48380,KAMPHAENG PHET,กำแพงเพชร,กำแพงเพชร,16.48681,99.52697,64,07-31-2019,10:00:00,0.00,30.0,22.4,5.6,996.77,0.00,12.00,1005.99,220,27.01
48381,KHON KAEN,ขอนแก่น,ขอนแก่น,16.46111,102.78972,77,07-31-2019,10:00:00,0.01,28.2,23.9,7.4,983.40,13.40,10.00,1004.95,270,29.57
48382,MAHASARAKHAM,มหาสารคาม,มหาสารคาม,16.24722,103.06805,83,07-31-2019,10:00:00,0.00,28.0,24.8,3.7,988.24,23.30,10.00,1005.65,230,31.39
48383,MUKDAHAN,มุกดาหาร,มุกดาหาร,16.54139,104.72889,84,07-31-2019,10:00:00,0.00,27.0,24.1,7.4,988.61,13.90,12.00,1004.40,230,30.02
48384,THA PHRA AGROMET.,ท่าพระ สกษ.,ขอนแก่น,16.33333,102.81667,78,07-31-2019,10:00:00,0.00,29.0,24.7,1.9,985.36,4.60,8.00,1004.06,140,31.13
48385,UMPHANG,อุ้มผาง,ตาก,16.02472,98.86444,82,07-31-2019,10:00:00,0.30,25.2,21.9,0.0,957.94,7.30,9.00,1009.36,000,26.27
48386,PICHIT AGROMET.,พิจิตร สกษ.,พิจิตร,16.43806,100.29250,70,07-31-2019,10:00:00,0.00,29.3,23.3,0.0,1002.01,0.80,7.00,1005.93,000,28.67
48387,DOI MU SOE AGROMET.,ดอยมูเซอร์ สกษ.,ตาก,16.75000,98.93333,90,07-31-2019,10:00:00,0.00,21.8,20.1,18.5,912.39,4.10,4.00,1007.43,250,23.49
48390,KALASIN,กาฬสินธุ์,กาฬสินธุ์,16.33250,103.58833,90,07-31-2019,10:00:00,0.01,26.4,24.7,3.7,989.31,14.60,10.00,1005.30,270,31.05
48400,NAKHON SAWAN,นครสวรรค์ ,นครสวรรค์,15.67183,100.13236,65,07-31-2019,10:00:00,0.00,30.6,23.4,0.0,1002.02,0.00,12.00,1006.01,000,28.70
48401,TAKFA AGROMET.,ตากฟ้า สกษ.,นครสวรรค์,15.34944,100.53028,57,07-31-2019,10:00:00,0.00,31.0,21.3,0.0,996.59,0.20,10.00,1007.13,000,25.39
48402,CHAINAT AGROMET.,ชัยนาท สกษ.,ชัยนาท,15.15000,100.18333,54,07-31-2019,10:00:00,0.00,32.0,21.7,5.6,1005.07,0.00,10.00,1006.96,210,25.91
48403,CHAIYAPHUM,ชัยภูมิ,ชัยภูมิ,15.80000,102.03333,69,07-31-2019,10:00:00,0.10,28.8,22.5,5.6,985.10,5.90,10.00,1005.81,270,27.20
48404,ROI ET AGROMET.,ร้อยเอ็ด สกษ.,ร้อยเอ็ด,16.07322,103.60844,92,07-31-2019,10:00:00,3.00,25.5,24.0,9.3,987.54,23.90,10.00,1005.26,280,29.91
48405,ROI ET,ร้อยเอ็ด,ร้อยเอ็ด,16.02000,103.74389,92,07-31-2019,10:00:00,3.80,25.5,24.0,7.4,988.61,19.40,10.00,1004.81,250,29.91
48407,UBON RATCHATHANI,อุบลราชธานี (ศูนย์ฯ),อุบลราชธานี,15.25000,104.86667,83,07-31-2019,10:00:00,0.80,26.8,23.7,3.7,991.84,36.00,10.00,1005.87,280,29.37
48408,UBON RATCHATHANI AGROMET.,อุบลราชธานี สกษ.,อุบลราชธานี,15.23914,105.02350,86,07-31-2019,10:00:00,1.50,26.9,24.4,1.9,991.15,33.20,10.00,1005.96,310,30.64
48409,SI SAKET AGROMET.,ศรีสะเกษ,ศรีสะเกษ,15.00000,104.05000,87,07-31-2019,10:00:00,0.20,26.8,24.5,3.7,990.77,2.70,8.00,1005.42,240,30.72
48410,UTHAITHANI,อุทัยธานี,อุทัยธานี,15.37417,100.03889,50,07-31-2019,10:00:00,0.00,32.2,20.5,0.0,1003.14,0.00,10.00,1006.10,"{'@attributes': {'Unit': 'degree'}, '0': '   '}",24.14
48413,WICHIAN BURI,วิเชียรบุรี,เพชรบูรณ์,15.65700,101.10800,70,07-31-2019,10:00:00,0.00,29.4,23.4,0.0,998.47,8.00,10.00,1006.35,000,28.86
48415,AYUTTHAYA,พระนครศรีอยุธยา,พระนครศรีอยุธยา,14.53472,100.72500,63,07-31-2019,10:00:00,0.00,30.2,22.3,9.3,1005.63,0.00,8.00,1006.72,220,26.85
48416,THA TUM,ท่าตูม,สุรินทร์,15.31667,103.68333,76,07-31-2019,10:00:00,0.00,28.2,23.5,0.0,992.18,13.30,8.00,1006.80,000,29.03
48417,NAKORNNAYOK,นครนายก,นครนายก,14.36222,101.39278,97,07-31-2019,10:00:00,0.00,20.7,20.2,7.4,873.21,0.00,8.00,1007.80,290,23.70
48418,BUA CHUM,บัวชุม  ,ลพบุรี,15.26667,101.18736,66,07-31-2019,10:00:00,0.00,30.4,23.5,3.7,1000.60,0.20,10.00,1006.41,200,28.86
48419,PATHUMTHANI,ปทุมธานี สกษ.,ปทุมธานี,14.10000,100.61667,64,07-31-2019,10:00:00,0.00,30.2,22.6,18.5,1007.08,0.00,10.00,1007.87,270,27.39
48420,Samut Prakarn,สมุทรปราการ สกษ.,สมุทรปราการ,13.51667,100.76167,59,07-31-2019,10:00:00,0.00,32.0,23.0,14.8,1007.10,0.00,10.00,1007.54,230,28.10
48421,THONG PHAPHUM,ทองผาภูมิ,กาญจนบุรี,14.74222,98.63639,66,07-31-2019,10:00:00,0.00,28.1,21.2,5.6,997.18,0.50,8.00,1008.46,040,25.16
48425,SUPHAN BURI,สุพรรณบุรี,สุพรรณบุรี,14.47444,100.13889,64,07-31-2019,10:00:00,0.00,30.7,23.0,3.7,1006.29,0.00,10.00,1007.29,240,28.06
48426,LOP BURI,ลพบุรี,ลพบุรี,14.79972,100.64500,54,07-31-2019,10:00:00,0.00,32.0,21.7,9.3,1005.27,0.00,10.00,1007.06,250,25.91
48427,U THONG AGROMET.,อู่ทอง สกษ.,สุพรรณบุรี,14.30361,99.86472,60,07-31-2019,10:00:00,0.00,31.2,22.4,0.0,1006.30,0.00,9.00,1007.06,000,27.11
48429,SUVARNABHUMI AIRPORT,สนามบินสุวรรณภูมิ,สมุทรปราการ,13.68639,100.76750,61,07-31-2019,10:00:00,0.00,30.9,22.6,20.4,1007.13,0.00,10.00,1007.82,270,27.35
48430,PRACHIN BURI,ปราจีนบุรี,ปราจีนบุรี,14.05842,101.36930,61,07-31-2019,10:00:00,0.00,31.6,23.0,9.3,1006.45,0.00,10.00,1007.14,270,28.15
48431,NAKHON RATCHASIMA,นครราชสีมา,นครราชสีมา,14.96830,102.08603,60,07-31-2019,10:00:00,0.00,30.3,21.7,3.7,985.21,0.00,10.00,1006.12,250,25.96
48432,SURIN,สุรินทร์,สุรินทร์,14.88333,103.50000,70,07-31-2019,10:00:00,0.00,29.0,23.0,9.3,989.17,2.00,9.00,1005.75,240,28.10
48433,SURIN AGROMET.,สุรินทร์ สกษ.,สุรินทร์,14.88333,103.45000,69,07-31-2019,10:00:00,0.00,28.8,22.6,5.6,989.90,2.00,8.00,1006.22,270,27.46
48434,CHOK CHAI,โชคชัย,นครราชสีมา,14.71889,102.16861,54,07-31-2019,10:00:00,0.00,30.7,20.3,18.5,984.53,4.00,10.00,1006.10,300,23.80
48435,PAKCHONG AGROMET.,ปากช่อง สกษ.,นครราชสีมา,14.64389,101.33194,61,07-31-2019,10:00:00,0.00,28.3,20.1,18.5,963.84,0.00,10.00,1006.89,230,23.48
48436,NANG RONG,นางรอง,บุรีรัมย์,14.58333,102.80000,55,07-31-2019,10:00:00,0.00,30.2,20.0,18.5,985.78,0.00,12.00,1006.11,240,23.44
48437,BURIRUM,บุรีรัมย์,บุรีรัมย์,15.22575,103.24808,84,07-31-2019,10:00:00,0.00,27.2,24.3,14.8,986.73,3.20,9.00,1007.54,260,30.39
48438,SAMUTSONGKRAM,สมุทรสงคราม,สมุทรสงคราม,13.40778,100.03222,59,07-31-2019,10:00:00,0.00,31.2,22.2,16.7,1007.14,0.00,11.00,1007.57,280,26.83
48439,KABIN BURI,กบินทร์บุรี,ปราจีนบุรี,13.98333,101.70722,68,07-31-2019,10:00:00,0.00,29.6,23.0,3.7,1005.43,0.00,11.00,1006.84,250,28.15
48440,SA KAEW,สระแก้ว,สระแก้ว,13.78889,102.03472,62,07-31-2019,10:00:00,0.00,31.1,23.0,7.4,1002.02,0.00,9.00,1006.89,260,28.01
48450,KANCHANA BURI,กาญจนบุรี,กาญจนบุรี,14.02250,99.53583,77,07-31-2019,10:00:00,0.30,27.4,23.0,3.7,1004.77,0.30,10.00,1008.06,260,28.08
48451,NAKHONPATHOM,นครปฐม,นครปฐม,14.01167,99.97000,60,07-31-2019,10:00:00,0.00,30.5,21.8,14.8,1006.45,0.00,10.00,1007.55,280,26.06
48453,BANG NA AGROMET.,กรุงเทพฯ บางนา สกษ.,กรุงเทพมหานคร,13.66639,100.60611,60,07-31-2019,10:00:00,0.00,31.7,23.0,7.4,1007.31,0.00,10.00,1007.61,340,28.07
48454,BANGKOK PORT (KLONG TOEI),กรุงเทพฯ ท่าเรือคลองเตย,กรุงเทพมหานคร,13.70694,100.56805,58,07-31-2019,10:00:00,0.00,31.8,22.6,5.6,1008.24,0.00,10.00,1008.92,230,27.43
48455,BANGKOK METROPOLIS,กรุงเทพมหานคร,กรุงเทพมหานคร,13.72639,100.56000,58,07-31-2019,10:00:00,0.00,30.3,21.2,9.3,1007.44,0.00,10.00,1007.93,270,25.17
48456,DON MUANG AIRPORT,สนามบินดอนเมือง,กรุงเทพมหานคร,13.91917,100.60500,64,07-31-2019,10:00:00,0.00,29.7,22.2,25.9,1006.17,0.00,10.00,1007.57,260,26.72
48457,PILOT STATION,นำร่อง,สมุทรปราการ,13.39389,100.59944,61,07-31-2019,10:00:00,0.00,31.8,23.4,9.3,1006.02,0.00,10.00,1007.67,230,28.82
48458,CHACHOENGSAO,ฉะเชิงเทรา,ฉะเชิงเทรา,13.51556,101.45833,55,07-31-2019,10:00:00,0.00,30.9,20.9,7.4,1001.69,0.00,12.00,1009.61,270,24.68
48459,CHON BURI,ชลบุรี,ชลบุรี,13.36667,100.98333,68,07-31-2019,10:00:00,0.00,31.5,24.8,11.1,1007.46,0.00,12.00,1007.74,280,31.35
48460,KO SICHANG,เกาะสีชัง,ชลบุรี,13.16167,100.80194,65,07-31-2019,10:00:00,0.00,30.6,23.2,5.6,1003.60,0.00,10.00,1006.69,300,28.42
48461,PHATTHAYA,พัทยา,ชลบุรี,12.92000,100.86944,60,07-31-2019,10:00:00,0.00,31.4,22.6,0.0,1001.21,0.00,10.00,1008.05,000,27.49
48462,ARANYA PRATHET,อรัญประเทศ,สระแก้ว,13.70000,102.58333,68,07-31-2019,10:00:00,0.00,29.5,22.9,18.5,1001.64,1.70,7.00,1007.19,240,27.96
48463,LAEM CHABANG,แหลมฉบัง,ชลบุรี,13.07694,100.87583,60,07-31-2019,10:00:00,0.00,32.5,23.7,11.1,999.48,0.00,12.00,1008.64,290,29.38
48464,RATCHA BURI,ราชบุรี,ราชบุรี,13.48931,99.79239,64,07-31-2019,10:00:00,0.00,29.0,21.6,7.4,1006.92,0.00,14.00,1008.17,270,25.71
48465,PHETCHA BURI,เพชรบุรี,เพชรบุรี,12.99944,100.06056,56,07-31-2019,10:00:00,0.00,30.5,20.8,18.5,1006.98,0.00,11.00,1007.41,210,24.48
48474,NONG PHLUB AGROMET.,หนองพลับ สกษ.,ประจวบคีรีขันธ์,12.58333,99.73333,55,07-31-2019,10:00:00,0.00,30.9,20.7,7.4,995.75,0.00,10.00,1007.86,240,24.42
48475,HUA HIN,หัวหิน,ประจวบคีรีขันธ์,12.58611,99.96250,59,07-31-2019,10:00:00,0.00,31.6,22.7,13.0,1007.00,0.00,10.00,1007.70,300,27.60
48477,SATTAHIP,สัตหีบ,ชลบุรี,12.68333,100.98333,52,07-31-2019,10:00:00,0.00,33.3,22.0,11.1,1005.59,0.00,10.00,1007.98,290,26.48
48478,RAYONG,ระยอง,ระยอง,12.63222,101.34361,67,07-31-2019,10:00:00,0.00,31.4,24.4,14.8,1007.56,0.10,12.00,1008.07,260,30.57
48479,HUAI PONG AGROMET.,ห้วยโป่ง สกษ.,ระยอง,12.73333,101.13333,51,07-31-2019,10:00:00,0.00,32.6,21.2,24.1,1002.75,0.00,12.00,1007.82,290,25.14
48480,CHANTHA BURI,จันทบุรี,จันทบุรี,12.61667,102.11333,78,07-31-2019,10:00:00,0.01,30.0,25.8,9.3,1007.85,0.01,8.00,1008.26,250,33.17
48481,PHLIU  AGROMET.,พลิ้ว สกษ.,จันทบุรี,12.50861,102.17305,72,07-31-2019,10:00:00,0.00,30.5,24.8,0.0,1005.76,0.00,8.00,1008.50,000,31.31
48500,PRACHUAP KHIRIKHAN,ประจวบคีรีขันธ์,ประจวบคีรีขันธ์,11.83333,99.83333,56,07-31-2019,10:00:00,0.00,31.6,21.9,9.3,1007.62,0.00,10.00,1008.39,030,26.23
48501,TRAD,ตราด,ตราด,11.76667,102.88333,78,07-31-2019,10:00:00,0.00,30.0,25.8,9.3,1007.69,0.50,7.00,1008.15,220,33.17
48517,CHUMPHON,ชุมพร,ชุมพร,10.49875,99.18847,70,07-31-2019,10:00:00,0.00,30.3,24.1,11.1,1008.77,0.20,8.00,1009.44,270,30.06
48520,SAWI AGROMET.,สวี สกษ.,ชุมพร,10.33333,99.10000,73,07-31-2019,10:00:00,0.00,30.2,24.8,3.7,1007.45,1.60,6.00,1008.96,240,31.27
48532,RANONG,ระนอง,ระนอง,9.98333,98.61667,72,07-31-2019,10:00:00,0.00,30.5,24.8,9.3,1009.72,1.90,10.00,1010.63,200,31.31
48550,KO SAMUI,เกาะสมุย,สุราษฎร์ธานี,9.46667,100.05000,76,07-31-2019,10:00:00,0.00,30.1,25.3,0.0,1009.00,0.00,10.00,1009.68,000,32.21
48551,SURAT THANI,สุราษฎร์ธานี,สุราษฎร์ธานี,9.13556,99.15194,81,07-31-2019,10:00:00,0.00,29.0,25.5,7.4,1009.71,0.00,9.00,1010.50,230,32.55
48552,NAKHONSI THAMMARAT,นครศรีธรรมราช,นครศรีธรรมราช,8.53778,99.96389,58,07-31-2019,10:00:00,0.00,31.6,22.4,5.6,1009.29,0.00,10.00,1009.92,210,27.05
48554,NAKHONSI THAMMARAT AGROMET.,นครศรีธรรมราช สกษ.,นครศรีธรรมราช,8.35931,100.00000,66,07-31-2019,10:00:00,0.00,31.8,24.7,7.4,1009.12,0.00,10.00,1009.52,220,31.10
48555,SURAT THANI AGROMET.,สุราษฎร์ธานี สกษ.,สุราษฎร์ธานี,9.10000,99.63333,67,07-31-2019,10:00:00,0.00,30.5,23.6,7.4,1007.53,0.00,8.00,1011.71,250,29.06
48556,PHRA SANG,พระแสง สอท.,สุราษฎร์ธานี,8.57022,99.25825,70,07-31-2019,10:00:00,0.00,30.6,24.6,0.0,1008.79,0.00,12.00,1010.39,000,30.94
48557,CHAWANG,ฉวาง,นครศรีธรรมราช,8.43194,99.51194,75,07-31-2019,10:00:00,0.00,31.0,26.1,0.0,1006.90,11.80,12.00,1010.34,000,33.81
48560,PHATTHALUNG AGROMET.,พัทลุง สกษ.,พัทลุง,7.58333,100.16667,65,07-31-2019,10:00:00,0.00,30.5,23.2,13.0,1008.69,0.00,8.00,1010.03,300,28.50
48561,TAKUA PA,ตะกั่วป่า,พังงา,8.68417,98.25222,72,07-31-2019,10:00:00,0.00,30.1,24.5,9.3,1009.72,0.00,10.00,1010.60,270,30.79
48563,KRABI,กระบี่,กระบี่,8.10361,98.97528,68,07-31-2019,10:00:00,0.00,31.0,24.3,9.3,1006.45,0.00,10.00,1009.97,260,30.33
48564,PHUKET,ภูเก็ต,ภูเก็ต,7.88333,98.40000,63,07-31-2019,10:00:00,0.00,30.9,23.1,7.4,1010.04,0.00,10.00,1010.47,290,28.17
48565,PHUKET AIRPORT,ภูเก็ต (ศูนย์ฯ),ภูเก็ต,8.14500,98.31444,67,07-31-2019,10:00:00,0.00,31.7,24.9,5.6,1009.00,0.00,10.00,1009.98,340,31.47
48566,KO LANTA,เกาะลันตา,กระบี่,7.53333,99.05000,76,07-31-2019,10:00:00,0.00,30.3,25.6,18.5,1011.39,0.00,10.00,1012.20,260,32.92
48567,TRANG AIRPORT,ตรัง,ตรัง,7.51667,99.61667,71,07-31-2019,10:00:00,0.00,30.8,25.0,11.1,1008.78,0.00,10.00,1010.57,230,31.64
48568,SONGKHLA,สงขลา,สงขลา,7.18211,100.60769,64,07-31-2019,10:00:00,0.00,31.5,23.9,13.0,1009.27,0.00,10.00,1010.01,240,29.63
48569,HAT YAI AIRPORT,หาดใหญ่,สงขลา,6.91667,100.43333,57,07-31-2019,10:00:00,0.00,31.4,22.0,20.4,1006.57,0.00,10.00,1010.52,250,26.40
48570,SATUN,สตูล,สตูล,6.65000,100.08333,66,07-31-2019,10:00:00,0.00,31.4,24.3,11.1,1009.66,0.00,10.00,1010.34,270,30.28
48571,KHO HONG AGROMET.,คอหงษ์ สกษ.,สงขลา,7.00000,100.50000,65,07-31-2019,10:00:00,0.00,31.6,24.3,0.0,1008.96,0.00,10.00,1010.07,000,30.41
48574,SA DAO,สะเดา,สงขลา,6.79806,100.39056,68,07-31-2019,10:00:00,0.00,31.2,24.7,5.6,1007.62,0.00,12.00,1010.51,300,31.02
48580,PATTANI AIRPORT,ปัตตานี,ปัตตานี,6.78333,101.15000,72,07-31-2019,10:00:00,0.00,30.6,24.9,0.0,1009.41,0.00,10.00,1010.09,000,31.51
48581,YALA AGROMET.,ยะลา สกษ.,ยะลา,6.51667,101.28333,70,07-31-2019,10:00:00,0.00,30.2,24.2,3.7,1007.04,0.00,8.00,1011.13,280,30.14
48583,NARATHIWAT,นราธิวาส,นราธิวาส,6.41667,101.81667,59,07-31-2019,10:00:00,0.00,30.5,21.6,18.5,1010.18,0.00,12.00,1010.77,250,25.80
