WmoStationNumber,StationNameEnglish,StationNameThai,Province,Latitude,Longitude,VaporPressure,Date,Time,Rainfall,MeanSeaLevelPressure,AirTemperature,StationPressure,RelativeHumidity,LandVisibility,Rainfall24Hr,WindDirection,DewPoint,WindSpeed
48300,MAE HONG SON,แม่ฮ่องสอน,แม่ฮ่องสอน,19.29897,97.97578,31.25,08-06-2019,01:00:00,0.60,1002.81,25.5,971.97,96,6.00,9.20,000,24.8,0.0
48302,DOI ANG KANG,ดอยอ่างขาง,เชียงใหม่,19.93139,99.04833,20.75,08-06-2019,01:00:00,0.50,1002.55,18.1,841.66,100,.10,46.20,120,18.1,3.7
48303,CHIANG RAI,เชียงราย,เชียงราย,19.96139,99.88139,27.78,08-06-2019,01:00:00,0.00,1004.41,24.6,960.76,90,10.00,33.90,000,22.8,0.0
48304,CHAING RAI AGROMET.,เชียงราย สกษ.,เชียงราย,19.87083,99.78278,28.27,08-06-2019,01:00:00,0.00,1004.31,24.0,958.67,95,10.00,31.80,000,23.1,0.0
48307,THUNG CHANG,ทุ่งช้าง,น่าน,19.41194,100.88353,30.46,08-06-2019,01:00:00,0.00,1003.18,24.5,965.54,99,5.00,22.70,000,24.3,0.0
48310,PHAYAO,พะเยา,พะเยา,19.13333,99.90000,27.76,08-06-2019,01:00:00,0.00,1004.72,24.0,959.51,93,10.00,6.50,170,22.8,7.4
48315,THA WANGPHA,ท่าวังผา,น่าน,19.11056,100.80250,30.32,08-06-2019,01:00:00,0.00,1005.59,25.0,978.81,96,6.00,18.60,000,24.3,0.0
48324,THOEN,เถิน,ลำปาง,17.63661,99.24475,30.40,08-06-2019,01:00:00,0.00,1004.81,24.9,983.00,97,10.00,11.60,000,24.3,0.0
48325,MAE SARIANG,แม่สะเรียง,แม่ฮ่องสอน,18.16667,97.93333,29.41,08-06-2019,01:00:00,0.70,1004.47,24.5,980.29,96,6.00,23.60,000,23.8,0.0
48327,CHIANG MAI,เชียงใหม่,เชียงใหม่,18.79000,98.97694,28.64,08-06-2019,01:00:00,0.01,1004.10,24.8,969.55,92,10.00,18.30,000,23.3,0.0
48328,LAMPANG,ลำปาง,ลำปาง,18.28333,99.51667,30.32,08-06-2019,01:00:00,0.60,1004.99,25.0,977.40,96,7.00,53.40,000,24.3,0.0
48329,LAMPHUN,ลำพูน,ลำพูน,18.56722,99.03389,29.69,08-06-2019,01:00:00,0.10,1004.27,24.8,970.66,95,9.00,21.80,000,23.9,0.0
48330,PHRAE,แพร่,แพร่,18.16667,100.16667,29.52,08-06-2019,01:00:00,0.00,1004.83,25.0,986.27,93,10.00,4.60,270,23.8,5.6
48331,NAN,น่าน,น่าน,18.77972,100.77778,30.48,08-06-2019,01:00:00,1.40,1005.18,24.8,982.28,97,10.00,7.50,000,24.4,0.0
48333,NAN AGROMET.,น่าน สกษ.,น่าน,18.86667,100.75000,29.07,08-06-2019,01:00:00,0.00,1005.52,24.6,975.52,94,6.00,9.00,000,23.6,0.0
48334,LAMPANG AGROMET.,ลำปาง สกษ.,ลำปาง,18.31667,99.28333,29.93,08-06-2019,01:00:00,0.20,1003.63,24.5,968.05,97,2.00,38.20,000,24.1,0.0
48350,LOEI AGROMET.,เลย สกษ.,เลย,17.40000,101.73333,30.85,08-06-2019,01:00:00,0.60,1004.74,25.0,974.97,97,8.00,3.80,000,24.6,0.0
48351,UTTARADIT,อุตรดิตถ์,อุตรดิตถ์,17.61667,100.10000,30.92,08-06-2019,01:00:00,0.40,1005.78,25.9,998.46,93,7.00,9.70,000,24.6,0.0
48352,NONG KHAI,หนองคาย,หนองคาย,17.86717,102.73303,33.19,08-06-2019,01:00:00,0.00,1005.02,26.5,985.14,96,11.00,3.00,000,25.8,0.0
48353,LOEI,เลย,เลย,17.45000,101.73333,30.84,08-06-2019,01:00:00,0.10,1005.18,26.0,976.53,92,10.00,2.40,000,24.6,0.0
48354,UDON THANI,อุดรธานี,อุดรธานี,17.38333,102.80000,31.38,08-06-2019,01:00:00,0.00,1005.50,26.0,985.31,93,10.00,1.30,000,24.8,0.0
48355,SAKON NAKHON AGROMET.,สกลนคร สกษ.,สกลนคร,17.12503,104.06100,32.20,08-06-2019,01:00:00,0.00,1005.82,26.0,984.06,96,10.00,48.00,000,25.3,0.0
48356,SAKON NAKHON,สกลนคร,สกลนคร,17.15000,104.13333,31.63,08-06-2019,01:00:00,0.00,1004.99,25.7,985.47,96,10.00,29.40,000,25.0,0.0
48357,NAKHON PHANOM,นครพนม,นครพนม,17.41083,104.78250,29.00,08-06-2019,01:00:00,0.01,1005.57,25.0,988.75,92,10.00,0.01,330,23.5,3.7
48358,NAKHON PHANOM AGROMET.,นครพนม สกษ.,นครพนม,17.44306,104.77361,30.32,08-06-2019,01:00:00,1.30,1005.74,25.0,988.25,96,10.00,1.40,000,24.3,0.0
48360,NONG BUA LAM PHU,หนองบัวลำภู,หนองบัวลำภู,17.23250,102.42944,30.51,08-06-2019,01:00:00,0.50,1003.61,26.4,977.89,89,9.00,0.50,110,24.4,3.7
48372,SUKHOTHAI*,สุโขทัย,สุโขทัย,17.10611,99.80000,33.51,08-06-2019,01:00:00,0.01,1005.11,26.1,999.32,99,8.00,17.50,000,25.9,0.0
48373,SI SAMRONG AGROMET.,ศรีสำโรง สกษ.,สุโขทัย,17.16136,99.86167,31.08,08-06-2019,01:00:00,0.00,1004.11,25.7,997.91,94,7.00,15.10,000,24.7,0.0
48374,LOM SAK,หล่มสัก,เพชรบูรณ์,16.77361,101.24944,29.66,08-06-2019,01:00:00,0.00,1006.08,25.8,989.60,89,8.00,3.80,000,23.9,0.0
48375,MAE SOT,แม่สอด,ตาก,16.65917,98.55083,27.25,08-06-2019,01:00:00,8.30,1004.15,23.7,981.65,93,7.00,37.70,210,22.5,5.6
48376,TAK,ตาก,ตาก,16.87833,99.14333,31.25,08-06-2019,01:00:00,3.80,1004.96,25.5,990.53,96,8.00,10.10,000,24.8,0.0
48377,BHUMIBOL DAM,เขื่อนภูมิพล,ตาก,17.24389,99.00250,30.02,08-06-2019,01:00:00,2.90,1005.08,24.4,988.59,98,6.00,13.80,000,24.1,0.0
48378,PHITSANULOK,พิษณุโลก,พิษณุโลก,16.79481,100.27930,31.97,08-06-2019,01:00:00,0.01,1005.34,27.3,1000.13,88,7.00,4.70,160,25.2,3.7
48379,PHETCHABUN,เพชรบูรณ์,เพชรบูรณ์,16.43333,101.15000,30.67,08-06-2019,01:00:00,0.00,1004.36,26.2,991.17,90,10.00,6.50,000,24.5,0.0
48380,KAMPHAENG PHET,กำแพงเพชร,กำแพงเพชร,16.48681,99.52697,32.35,08-06-2019,01:00:00,0.40,1004.84,26.5,995.52,93,2.00,5.20,000,25.4,0.0
48381,KHON KAEN,ขอนแก่น,ขอนแก่น,16.46111,102.78972,28.84,08-06-2019,01:00:00,0.00,1005.53,26.8,983.87,82,10.00,0.01,000,23.4,0.0
48382,MAHASARAKHAM,มหาสารคาม,มหาสารคาม,16.24722,103.06805,30.34,08-06-2019,01:00:00,0.00,1003.24,26.6,985.78,87,12.00,0.00,200,24.3,11.1
48383,MUKDAHAN,มุกดาหาร,มุกดาหาร,16.54139,104.72889,27.66,08-06-2019,01:00:00,38.00,1005.48,23.5,989.48,96,6.00,38.00,000,22.8,0.0
48384,THA PHRA AGROMET.,ท่าพระ สกษ.,ขอนแก่น,16.33333,102.81667,31.46,08-06-2019,01:00:00,0.00,1004.59,26.9,985.75,89,8.00,0.40,000,24.9,0.0
48385,UMPHANG,อุ้มผาง,ตาก,16.02472,98.86444,25.76,08-06-2019,01:00:00,3.50,1005.75,22.8,954.11,93,4.00,15.50,000,21.6,0.0
48386,PICHIT AGROMET.,พิจิตร สกษ.,พิจิตร,16.43806,100.29250,30.53,08-06-2019,01:00:00,0.10,1004.85,26.7,1000.90,87,7.00,0.10,180,24.4,16.7
48387,DOI MU SOE AGROMET.,ดอยมูเซอร์ สกษ.,ตาก,16.75000,98.93333,23.34,08-06-2019,01:00:00,9.00,1005.54,20.3,910.22,98,2.50,27.40,000,20.0,0.0
48390,KALASIN,กาฬสินธุ์,กาฬสินธุ์,16.33250,103.58833,31.60,08-06-2019,01:00:00,0.50,1005.27,25.4,989.23,97,6.00,2.50,000,25.0,0.0
48400,NAKHON SAWAN,นครสวรรค์ ,นครสวรรค์,15.67183,100.13236,34.24,08-06-2019,01:00:00,1.40,1006.38,26.6,1002.35,98,8.00,1.60,300,26.3,1.9
48401,TAKFA AGROMET.,ตากฟ้า สกษ.,นครสวรรค์,15.34944,100.53028,29.86,08-06-2019,01:00:00,0.00,1006.68,26.2,995.98,88,8.00,0.60,000,24.0,0.0
48402,CHAINAT AGROMET.,ชัยนาท สกษ.,ชัยนาท,15.15000,100.18333,30.43,08-06-2019,01:00:00,0.00,1006.26,26.5,1004.32,88,9.00,1.50,190,24.3,5.6
48403,CHAIYAPHUM,ชัยภูมิ,ชัยภูมิ,15.80000,102.03333,27.47,08-06-2019,01:00:00,0.00,1001.51,27.5,980.80,75,10.00,0.00,260,22.6,3.7
48404,ROI ET AGROMET.,ร้อยเอ็ด สกษ.,ร้อยเอ็ด,16.07322,103.60844,30.01,08-06-2019,01:00:00,0.00,1005.01,25.7,987.31,91,10.00,0.00,000,24.1,0.0
48405,ROI ET,ร้อยเอ็ด,ร้อยเอ็ด,16.02000,103.74389,30.05,08-06-2019,01:00:00,0.00,1004.85,26.3,988.69,88,10.00,0.00,000,24.1,0.0
48407,UBON RATCHATHANI,อุบลราชธานี (ศูนย์ฯ),อุบลราชธานี,15.25000,104.86667,30.53,08-06-2019,01:00:00,0.00,1005.49,27.7,991.51,82,10.00,0.00,000,24.4,0.0
48408,UBON RATCHATHANI AGROMET.,อุบลราชธานี สกษ.,อุบลราชธานี,15.23914,105.02350,31.63,08-06-2019,01:00:00,0.00,1006.03,26.7,991.20,90,8.00,0.00,000,25.0,0.0
48409,SI SAKET AGROMET.,ศรีสะเกษ,ศรีสะเกษ,15.00000,104.05000,31.46,08-06-2019,01:00:00,0.00,1005.59,26.9,990.93,89,10.00,0.00,200,24.9,5.6
48410,UTHAITHANI,อุทัยธานี,อุทัยธานี,15.37417,100.03889,31.00,08-06-2019,01:00:00,0.20,1005.41,26.8,1002.39,88,8.00,0.90,"{'0': '   ', '@attributes': {'Unit': 'degree'}}",24.6,0.0
48413,WICHIAN BURI,วิเชียรบุรี,เพชรบูรณ์,15.65700,101.10800,29.64,08-06-2019,01:00:00,0.00,1005.57,26.8,997.62,84,7.00,0.00,120,23.9,7.4
48415,AYUTTHAYA,พระนครศรีอยุธยา,พระนครศรีอยุธยา,14.53472,100.72500,30.26,08-06-2019,01:00:00,0.00,1006.13,26.7,1005.02,86,8.00,0.50,100,24.2,3.7
48416,THA TUM,ท่าตูม,สุรินทร์,15.31667,103.68333,30.94,08-06-2019,01:00:00,0.00,1005.80,27.2,991.15,86,8.00,0.00,000,24.6,0.0
48417,NAKORNNAYOK,นครนายก,นครนายก,14.36222,101.39278,22.57,08-06-2019,01:00:00,2.20,1007.48,19.6,872.48,99,.05,25.80,230,19.4,5.6
48418,BUA CHUM,บัวชุม  ,ลพบุรี,15.26667,101.18736,30.26,08-06-2019,01:00:00,0.00,1006.07,26.7,1000.19,86,10.00,0.10,190,24.2,5.6
48419,PATHUMTHANI,ปทุมธานี สกษ.,ปทุมธานี,14.10000,100.61667,33.62,08-06-2019,01:00:00,0.00,1006.42,27.0,1005.62,94,8.00,1.90,000,26.0,0.0
48420,Samut Prakarn,สมุทรปราการ สกษ.,สมุทรปราการ,13.51667,100.76167,31.77,08-06-2019,01:00:00,0.00,1006.01,28.9,1005.56,80,10.00,3.00,210,25.1,14.8
48421,THONG PHAPHUM,ทองผาภูมิ,กาญจนบุรี,14.74222,98.63639,29.41,08-06-2019,01:00:00,23.50,1006.79,24.5,995.40,96,3.00,32.00,000,23.8,0.0
48425,SUPHAN BURI,สุพรรณบุรี,สุพรรณบุรี,14.47444,100.13889,32.86,08-06-2019,01:00:00,0.00,1006.35,26.9,1005.34,93,10.00,3.30,000,25.6,0.0
48426,LOP BURI,ลพบุรี,ลพบุรี,14.79972,100.64500,30.37,08-06-2019,01:00:00,0.00,1006.13,26.9,1004.30,86,7.00,0.00,130,24.3,5.6
48427,U THONG AGROMET.,อู่ทอง สกษ.,สุพรรณบุรี,14.30361,99.86472,31.79,08-06-2019,01:00:00,0.00,1006.50,26.5,1005.73,92,4.00,1.30,000,25.1,0.0
48429,SUVARNABHUMI AIRPORT,สนามบินสุวรรณภูมิ,สมุทรปราการ,13.68639,100.76750,31.72,08-06-2019,01:00:00,0.01,1006.57,27.6,1005.86,86,10.00,12.00,200,25.0,11.1
48430,PRACHIN BURI,ปราจีนบุรี,ปราจีนบุรี,14.05842,101.36930,31.79,08-06-2019,01:00:00,2.30,1006.53,26.5,1005.83,92,6.00,2.90,000,25.1,0.0
48431,NAKHON RATCHASIMA,นครราชสีมา,นครราชสีมา,14.96830,102.08603,28.98,08-06-2019,01:00:00,0.00,1005.75,27.6,984.67,79,10.00,0.00,210,23.5,3.7
48432,SURIN,สุรินทร์,สุรินทร์,14.88333,103.50000,29.44,08-06-2019,01:00:00,0.00,1005.48,27.7,988.83,79,7.00,0.30,000,23.8,0.0
48433,SURIN AGROMET.,สุรินทร์ สกษ.,สุรินทร์,14.88333,103.45000,30.02,08-06-2019,01:00:00,0.00,1006.25,27.0,989.84,84,7.00,1.00,180,24.1,7.4
48434,CHOK CHAI,โชคชัย,นครราชสีมา,14.71889,102.16861,27.10,08-06-2019,01:00:00,0.00,1006.21,27.0,984.37,76,10.00,0.00,270,22.4,3.7
48435,PAKCHONG AGROMET.,ปากช่อง สกษ.,นครราชสีมา,14.64389,101.33194,25.37,08-06-2019,01:00:00,0.00,1006.51,26.3,963.20,74,10.00,0.00,250,21.3,7.4
48436,NANG RONG,นางรอง,บุรีรัมย์,14.58333,102.80000,27.11,08-06-2019,01:00:00,0.00,1005.70,27.3,985.19,75,10.00,0.00,230,22.4,7.4
48437,BURIRUM,บุรีรัมย์,บุรีรัมย์,15.22575,103.24808,30.29,08-06-2019,01:00:00,0.00,1007.38,27.0,986.56,85,8.00,0.00,230,24.3,11.1
48438,SAMUTSONGKRAM,สมุทรสงคราม,สมุทรสงคราม,13.40778,100.03222,30.87,08-06-2019,01:00:00,0.00,1006.05,28.3,1005.62,80,10.00,9.60,220,24.6,7.4
48439,KABIN BURI,กบินทร์บุรี,ปราจีนบุรี,13.98333,101.70722,31.05,08-06-2019,01:00:00,0.00,1006.59,26.4,1005.17,90,6.00,0.00,000,24.7,0.0
48440,SA KAEW,สระแก้ว,สระแก้ว,13.78889,102.03472,31.76,08-06-2019,01:00:00,0.00,1006.50,26.2,1001.56,93,7.00,0.00,000,25.0,0.0
48450,KANCHANA BURI,กาญจนบุรี,กาญจนบุรี,14.02250,99.53583,31.60,08-06-2019,01:00:00,0.30,1006.69,26.4,1003.39,92,5.00,4.50,000,25.0,0.0
48451,NAKHONPATHOM,นครปฐม,นครปฐม,14.01167,99.97000,32.94,08-06-2019,01:00:00,0.00,1005.59,26.8,1004.48,94,10.00,1.10,000,25.7,0.0
48453,BANG NA AGROMET.,กรุงเทพฯ บางนา สกษ.,กรุงเทพมหานคร,13.66639,100.60611,32.68,08-06-2019,01:00:00,0.00,1006.33,27.8,1006.03,88,10.00,22.80,000,25.5,0.0
48455,BANGKOK METROPOLIS,กรุงเทพมหานคร,กรุงเทพมหานคร,13.72639,100.56000,31.16,08-06-2019,01:00:00,0.00,1006.21,26.6,1005.72,90,10.00,23.50,000,24.7,0.0
48456,DON MUANG AIRPORT,สนามบินดอนเมือง,กรุงเทพมหานคร,13.91917,100.60500,33.66,08-06-2019,01:00:00,0.00,1006.26,27.3,1004.85,93,10.00,9.20,140,26.0,3.7
48458,CHACHOENGSAO,ฉะเชิงเทรา,ฉะเชิงเทรา,13.51556,101.45833,29.50,08-06-2019,01:00:00,0.00,1008.29,26.0,1000.25,88,10.00,20.40,000,23.8,0.0
48459,CHON BURI,ชลบุรี,ชลบุรี,13.36667,100.98333,33.94,08-06-2019,01:00:00,0.00,1006.14,28.0,1005.86,90,10.00,6.80,000,26.2,0.0
48460,KO SICHANG,เกาะสีชัง,ชลบุรี,13.16167,100.80194,28.37,08-06-2019,01:00:00,0.00,1006.31,29.0,1003.20,71,10.00,0.50,000,23.2,0.0
48461,PHATTHAYA,พัทยา,ชลบุรี,12.92000,100.86944,30.31,08-06-2019,01:00:00,0.00,1006.33,28.3,999.43,79,10.00,0.60,240,24.3,13.0
48462,ARANYA PRATHET,อรัญประเทศ,สระแก้ว,13.70000,102.58333,30.02,08-06-2019,01:00:00,0.01,1006.98,27.0,1001.38,84,7.00,0.01,000,24.1,0.0
48464,RATCHA BURI,ราชบุรี,ราชบุรี,13.48931,99.79239,32.79,08-06-2019,01:00:00,0.01,1007.03,26.3,1005.77,96,8.00,6.30,000,25.6,0.0
48465,PHETCHA BURI,เพชรบุรี,เพชรบุรี,12.99944,100.06056,30.31,08-06-2019,01:00:00,0.00,1006.48,28.3,1006.05,79,11.00,3.30,270,24.3,5.6
48474,NONG PHLUB AGROMET.,หนองพลับ สกษ.,ประจวบคีรีขันธ์,12.58333,99.73333,29.54,08-06-2019,01:00:00,0.00,1006.48,25.3,994.16,92,10.00,15.90,000,23.8,0.0
48475,HUA HIN,หัวหิน,ประจวบคีรีขันธ์,12.58611,99.96250,32.00,08-06-2019,01:00:00,0.00,1006.59,27.6,1005.88,87,10.00,6.40,220,25.2,3.7
48477,SATTAHIP,สัตหีบ,ชลบุรี,12.68333,100.98333,29.79,08-06-2019,01:00:00,0.00,1006.57,28.6,1004.15,76,10.00,2.60,230,24.0,11.1
48478,RAYONG,ระยอง,ระยอง,12.63222,101.34361,32.14,08-06-2019,01:00:00,0.00,1006.67,28.8,1006.15,81,10.00,7.40,260,25.2,14.8
48479,HUAI PONG AGROMET.,ห้วยโป่ง สกษ.,ระยอง,12.73333,101.13333,31.00,08-06-2019,01:00:00,0.00,1006.60,27.8,1001.46,83,10.00,4.80,000,24.6,0.0
48480,CHANTHA BURI,จันทบุรี,จันทบุรี,12.61667,102.11333,32.66,08-06-2019,01:00:00,0.00,1007.08,26.8,1006.66,93,7.00,66.10,000,25.5,0.0
48481,PHLIU  AGROMET.,พลิ้ว สกษ.,จันทบุรี,12.50861,102.17305,32.20,08-06-2019,01:00:00,0.00,1007.30,26.0,1004.52,96,8.00,42.10,000,25.3,0.0
48500,PRACHUAP KHIRIKHAN,ประจวบคีรีขันธ์,ประจวบคีรีขันธ์,11.83333,99.83333,29.50,08-06-2019,01:00:00,0.00,1005.87,26.0,1005.08,88,10.00,14.60,000,23.8,0.0
48501,TRAD,ตราด,ตราด,11.76667,102.88333,31.49,08-06-2019,01:00:00,0.00,1007.51,25.2,1007.04,98,6.00,68.20,050,24.9,5.6
48517,CHUMPHON,ชุมพร,ชุมพร,10.49875,99.18847,31.17,08-06-2019,01:00:00,1.40,1007.36,25.6,1006.68,95,7.00,10.60,000,24.7,0.0
48520,SAWI AGROMET.,สวี สกษ.,ชุมพร,10.33333,99.10000,29.91,08-06-2019,01:00:00,2.00,1007.87,25.5,1006.33,92,7.00,10.00,000,24.0,0.0
48532,RANONG,ระนอง,ระนอง,9.98333,98.61667,30.30,08-06-2019,01:00:00,8.60,1008.12,26.0,1007.20,90,10.00,36.10,190,24.3,9.3
48550,KO SAMUI,เกาะสมุย,สุราษฎร์ธานี,9.46667,100.05000,30.26,08-06-2019,01:00:00,0.00,1008.08,27.7,1007.40,81,10.00,12.30,000,24.2,0.0
48551,SURAT THANI,สุราษฎร์ธานี,สุราษฎร์ธานี,9.13556,99.15194,31.49,08-06-2019,01:00:00,0.00,1008.36,25.2,1007.56,98,7.00,17.80,000,24.9,0.0
48552,NAKHONSI THAMMARAT,นครศรีธรรมราช,นครศรีธรรมราช,8.53778,99.96389,30.53,08-06-2019,01:00:00,0.00,1007.68,26.7,1007.04,87,10.00,2.60,250,24.4,1.9
48554,NAKHONSI THAMMARAT AGROMET.,นครศรีธรรมราช สกษ.,นครศรีธรรมราช,8.35931,100.00000,29.60,08-06-2019,01:00:00,0.00,1007.84,27.5,1007.44,81,10.00,0.00,000,23.9,0.0
48555,SURAT THANI AGROMET.,สุราษฎร์ธานี สกษ.,สุราษฎร์ธานี,9.10000,99.63333,28.18,08-06-2019,01:00:00,0.00,1010.21,26.0,1005.98,84,5.00,2.60,000,23.1,0.0
48556,PHRA SANG,พระแสง สอท.,สุราษฎร์ธานี,8.57022,99.25825,31.60,08-06-2019,01:00:00,0.00,1008.64,25.4,1007.02,97,7.00,0.00,000,25.0,0.0
48557,CHAWANG,ฉวาง,นครศรีธรรมราช,8.43194,99.51194,31.17,08-06-2019,01:00:00,0.00,1008.85,25.6,1005.35,95,10.00,0.20,000,24.7,0.0
48560,PHATTHALUNG AGROMET.,พัทลุง สกษ.,พัทลุง,7.58333,100.16667,30.02,08-06-2019,01:00:00,0.00,1008.14,27.0,1006.78,84,8.00,0.00,000,24.1,0.0
48561,TAKUA PA,ตะกั่วป่า,พังงา,8.68417,98.25222,29.74,08-06-2019,01:00:00,0.00,1008.60,29.0,1007.72,74,10.00,2.70,240,23.9,18.5
48563,KRABI,กระบี่,กระบี่,8.10361,98.97528,30.13,08-06-2019,01:00:00,0.00,1008.52,26.2,1004.95,89,10.00,0.00,000,24.2,0.0
48564,PHUKET,ภูเก็ต,ภูเก็ต,7.88333,98.40000,27.71,08-06-2019,01:00:00,0.00,1008.38,29.8,1007.95,66,10.00,0.00,000,22.8,0.0
48565,PHUKET AIRPORT,ภูเก็ต (ศูนย์ฯ),ภูเก็ต,8.14500,98.31444,28.40,08-06-2019,01:00:00,0.00,1007.94,29.3,1006.95,70,10.00,0.00,290,23.2,16.7
48566,KO LANTA,เกาะลันตา,กระบี่,7.53333,99.05000,31.36,08-06-2019,01:00:00,0.00,1008.55,29.4,1007.75,77,10.00,6.20,250,24.8,24.1
48567,TRANG AIRPORT,ตรัง,ตรัง,7.51667,99.61667,32.89,08-06-2019,01:00:00,0.00,1008.61,27.2,1006.79,91,10.00,7.00,000,25.6,0.0
48568,SONGKHLA,สงขลา,สงขลา,7.18211,100.60769,30.15,08-06-2019,01:00:00,0.00,1008.18,27.5,1007.43,82,8.00,0.00,250,24.2,5.6
48569,HAT YAI AIRPORT,หาดใหญ่,สงขลา,6.91667,100.43333,30.84,08-06-2019,01:00:00,0.00,1008.45,26.0,1004.44,92,10.00,0.00,000,24.6,0.0
48570,SATUN,สตูล,สตูล,6.65000,100.08333,32.58,08-06-2019,01:00:00,0.00,1008.56,26.9,1007.88,92,10.00,0.00,000,25.5,0.0
48571,KHO HONG AGROMET.,คอหงษ์ สกษ.,สงขลา,7.00000,100.50000,29.60,08-06-2019,01:00:00,0.00,1008.19,27.5,1007.08,81,10.00,0.00,000,23.9,0.0
48574,SA DAO,สะเดา,สงขลา,6.79806,100.39056,31.05,08-06-2019,01:00:00,0.00,1008.49,26.4,1005.56,90,10.00,0.00,000,24.7,0.0
