WmoStationNumber,StationNameEnglish,StationNameThai,Province,Latitude,Longitude,DewPoint,Date,Time,RelativeHumidity,Rainfall24Hr,WindSpeed,VaporPressure,AirTemperature,Rainfall,LandVisibility,StationPressure,MeanSeaLevelPressure,WindDirection
48300,MAE HONG SON,แม่ฮ่องสอน,แม่ฮ่องสอน,19.29897,97.97578,25.9,08-05-2019,16:00:00,76,10.60,3.7,33.34,30.5,0.01,10.00,967.73,997.92,020
48302,DOI ANG KANG,ดอยอ่างขาง,เชียงใหม่,19.93139,99.04833,19.0,08-05-2019,16:00:00,100,52.90,5.6,21.95,19.0,3.80,.10,839.00,998.86,120
48303,CHIANG RAI,เชียงราย,เชียงราย,19.96139,99.88139,23.8,08-05-2019,16:00:00,88,62.20,9.3,29.50,26.0,0.80,10.00,957.79,1001.10,120
48304,CHAING RAI AGROMET.,เชียงราย สกษ.,เชียงราย,19.87083,99.78278,23.8,08-05-2019,16:00:00,90,53.60,0.0,29.56,25.6,1.60,8.00,955.67,1000.92,000
48307,THUNG CHANG,ทุ่งช้าง,น่าน,19.41194,100.88353,24.3,08-05-2019,16:00:00,88,38.60,7.4,30.43,26.5,0.20,7.00,965.06,1002.43,150
48310,PHAYAO,พะเยา,พะเยา,19.13333,99.90000,24.3,08-05-2019,16:00:00,88,18.70,9.3,30.43,26.5,1.10,7.00,956.57,1001.26,150
48315,THA WANGPHA,ท่าวังผา,น่าน,19.11056,100.80250,24.9,08-05-2019,16:00:00,90,60.90,5.6,31.55,26.8,2.10,8.00,976.41,1002.96,190
48324,THOEN,เถิน,ลำปาง,17.63661,99.24475,23.8,08-05-2019,16:00:00,78,16.50,3.7,29.46,28.0,0.00,12.00,980.01,1001.53,030
48325,MAE SARIANG,แม่สะเรียง,แม่ฮ่องสอน,18.16667,97.93333,24.3,08-05-2019,16:00:00,96,21.70,0.0,30.32,25.0,5.20,6.00,976.82,1000.87,000
48327,CHIANG MAI,เชียงใหม่,เชียงใหม่,18.79000,98.97694,24.7,08-05-2019,16:00:00,94,21.50,3.7,31.08,25.7,5.80,8.00,966.61,1000.95,120
48328,LAMPANG,ลำปาง,ลำปาง,18.28333,99.51667,24.1,08-05-2019,16:00:00,79,54.90,0.0,30.01,28.0,0.00,10.00,974.41,1001.63,000
48329,LAMPHUN,ลำพูน,ลำพูน,18.56722,99.03389,23.6,08-05-2019,16:00:00,77,25.30,0.0,29.19,28.0,0.00,12.00,967.05,1000.18,000
48330,PHRAE,แพร่,แพร่,18.16667,100.16667,23.9,08-05-2019,16:00:00,76,11.40,1.9,29.60,28.5,0.00,10.00,983.29,1001.57,270
48331,NAN,น่าน,น่าน,18.77972,100.77778,24.3,08-05-2019,16:00:00,83,26.60,1.9,30.42,27.5,1.10,10.00,979.75,1002.39,220
48333,NAN AGROMET.,น่าน สกษ.,น่าน,18.86667,100.75000,25.0,08-05-2019,16:00:00,91,32.10,0.0,31.71,26.6,1.10,8.00,972.77,1002.49,000
48334,LAMPANG AGROMET.,ลำปาง สกษ.,ลำปาง,18.31667,99.28333,24.0,08-05-2019,16:00:00,92,40.80,0.0,29.91,25.5,0.40,6.00,979.66,1015.54,000
48350,LOEI AGROMET.,เลย สกษ.,เลย,17.40000,101.73333,24.4,08-05-2019,16:00:00,73,3.20,3.7,30.47,29.8,0.00,15.00,972.12,1001.33,050
48351,UTTARADIT,อุตรดิตถ์,อุตรดิตถ์,17.61667,100.10000,24.5,08-05-2019,16:00:00,75,13.00,0.0,30.72,29.5,0.00,8.00,995.49,1002.70,000
48352,NONG KHAI,หนองคาย,หนองคาย,17.86717,102.73303,25.4,08-05-2019,16:00:00,73,0.00,0.0,32.51,30.8,0.00,20.00,982.18,1001.72,000
48353,LOEI,เลย,เลย,17.45000,101.73333,24.4,08-05-2019,16:00:00,73,2.70,5.6,30.55,29.7,0.60,12.00,973.52,1001.73,160
48354,UDON THANI,อุดรธานี,อุดรธานี,17.38333,102.80000,24.3,08-05-2019,16:00:00,71,1.20,3.7,30.31,30.0,1.00,10.00,982.18,1002.04,120
48355,SAKON NAKHON AGROMET.,สกลนคร สกษ.,สกลนคร,17.12503,104.06100,25.7,08-05-2019,16:00:00,80,5.50,14.8,33.00,29.5,5.50,7.00,980.80,1002.23,050
48356,SAKON NAKHON,สกลนคร,สกลนคร,17.15000,104.13333,25.0,08-05-2019,16:00:00,75,0.00,5.6,31.72,30.0,0.00,10.00,981.89,1001.06,340
48357,NAKHON PHANOM,นครพนม,นครพนม,17.41083,104.78250,23.6,08-05-2019,16:00:00,60,11.50,3.7,29.18,32.4,0.00,12.00,985.39,1001.75,130
48358,NAKHON PHANOM AGROMET.,นครพนม สกษ.,นครพนม,17.44306,104.77361,23.8,08-05-2019,16:00:00,66,0.50,0.0,29.48,31.0,0.00,12.00,984.97,1002.05,000
48360,NONG BUA LAM PHU,หนองบัวลำภู,หนองบัวลำภู,17.23250,102.42944,22.6,08-05-2019,16:00:00,71,0.00,3.7,27.44,28.5,0.00,15.00,975.29,1000.76,090
48372,SUKHOTHAI*,สุโขทัย,สุโขทัย,17.10611,99.80000,25.6,08-05-2019,16:00:00,75,16.30,0.0,32.75,30.5,0.00,8.00,996.77,1002.47,000
48373,SI SAMRONG AGROMET.,ศรีสำโรง สกษ.,สุโขทัย,17.16136,99.86167,25.7,08-05-2019,16:00:00,77,14.70,0.0,33.00,30.2,0.01,10.00,995.70,1001.79,000
48374,LOM SAK,หล่มสัก,เพชรบูรณ์,16.77361,101.24944,24.4,08-05-2019,16:00:00,81,4.20,0.0,30.56,28.0,0.50,10.00,986.61,1002.92,000
48375,MAE SOT,แม่สอด,ตาก,16.65917,98.55083,22.9,08-05-2019,16:00:00,90,47.50,5.6,27.95,24.7,2.70,8.00,979.40,1001.77,200
48376,TAK,ตาก,ตาก,16.87833,99.14333,24.0,08-05-2019,16:00:00,72,13.30,0.0,29.88,29.5,0.00,8.00,988.31,1002.51,000
48377,BHUMIBOL DAM,เขื่อนภูมิพล,ตาก,17.24389,99.00250,25.0,08-05-2019,16:00:00,89,13.10,0.0,31.66,27.0,0.50,6.00,985.61,1001.91,000
48378,PHITSANULOK,พิษณุโลก,พิษณุโลก,16.79481,100.27930,24.0,08-05-2019,16:00:00,66,6.80,11.1,29.88,31.2,0.00,10.00,997.09,1002.22,170
48379,PHETCHABUN,เพชรบูรณ์,เพชรบูรณ์,16.43333,101.15000,26.4,08-05-2019,16:00:00,80,20.80,0.0,34.39,30.3,5.10,12.00,988.46,1001.44,000
48380,KAMPHAENG PHET,กำแพงเพชร,กำแพงเพชร,16.48681,99.52697,23.7,08-05-2019,16:00:00,70,4.80,3.7,29.36,29.8,0.00,10.00,992.89,1002.08,100
48381,KHON KAEN,ขอนแก่น,ขอนแก่น,16.46111,102.78972,22.3,08-05-2019,16:00:00,55,0.01,5.6,26.86,32.5,0.00,10.00,980.16,1001.34,210
48382,MAHASARAKHAM,มหาสารคาม,มหาสารคาม,16.24722,103.06805,23.3,08-05-2019,16:00:00,60,0.00,14.8,28.66,32.0,0.00,12.00,984.65,1001.78,220
48383,MUKDAHAN,มุกดาหาร,มุกดาหาร,16.54139,104.72889,23.7,08-05-2019,16:00:00,60,0.00,7.4,29.38,32.5,0.00,12.00,985.42,1000.87,220
48384,THA PHRA AGROMET.,ท่าพระ สกษ.,ขอนแก่น,16.33333,102.81667,22.2,08-05-2019,16:00:00,52,0.00,0.0,26.75,33.3,0.00,10.00,982.03,1000.40,000
48385,UMPHANG,อุ้มผาง,ตาก,16.02472,98.86444,22.6,08-05-2019,16:00:00,80,13.90,0.0,27.41,26.3,0.30,9.00,951.40,1002.28,000
48386,PICHIT AGROMET.,พิจิตร สกษ.,พิจิตร,16.43806,100.29250,23.7,08-05-2019,16:00:00,71,0.01,11.1,29.24,29.6,0.00,8.00,998.34,1002.24,180
48387,DOI MU SOE AGROMET.,ดอยมูเซอร์ สกษ.,ตาก,16.75000,98.93333,20.5,08-05-2019,16:00:00,93,26.40,0.0,24.04,21.7,1.70,.80,908.72,1003.41,000
48390,KALASIN,กาฬสินธุ์,กาฬสินธุ์,16.33250,103.58833,24.7,08-05-2019,16:00:00,67,0.40,5.6,31.19,31.7,0.00,10.00,985.98,1001.64,210
48400,NAKHON SAWAN,นครสวรรค์ ,นครสวรรค์,15.67183,100.13236,24.6,08-05-2019,16:00:00,73,0.20,9.3,30.95,29.9,0.00,10.00,999.04,1003.02,170
48401,TAKFA AGROMET.,ตากฟ้า สกษ.,นครสวรรค์,15.34944,100.53028,23.7,08-05-2019,16:00:00,71,14.50,5.6,29.33,29.5,0.00,10.00,993.60,1004.15,210
48402,CHAINAT AGROMET.,ชัยนาท สกษ.,ชัยนาท,15.15000,100.18333,23.0,08-05-2019,16:00:00,66,1.80,9.3,28.09,30.0,0.00,12.00,1001.62,1003.52,180
48403,CHAIYAPHUM,ชัยภูมิ,ชัยภูมิ,15.80000,102.03333,21.0,08-05-2019,16:00:00,48,0.00,7.4,24.86,33.6,0.00,10.00,981.24,1001.55,200
48404,ROI ET AGROMET.,ร้อยเอ็ด สกษ.,ร้อยเอ็ด,16.07322,103.60844,22.4,08-05-2019,16:00:00,52,0.10,5.6,27.15,33.5,0.00,11.00,983.70,1000.88,330
48405,ROI ET,ร้อยเอ็ด,ร้อยเอ็ด,16.02000,103.74389,21.8,08-05-2019,16:00:00,49,0.00,11.1,26.18,34.0,0.00,10.00,985.14,1000.83,230
48407,UBON RATCHATHANI,อุบลราชธานี (ศูนย์ฯ),อุบลราชธานี,15.25000,104.86667,23.8,08-05-2019,16:00:00,63,2.40,11.1,29.39,31.8,0.00,10.00,988.14,1001.88,280
48408,UBON RATCHATHANI AGROMET.,อุบลราชธานี สกษ.,อุบลราชธานี,15.23914,105.02350,25.9,08-05-2019,16:00:00,68,0.00,0.0,33.47,32.5,0.00,10.00,988.38,1002.88,000
48409,SI SAKET AGROMET.,ศรีสะเกษ,ศรีสะเกษ,15.00000,104.05000,24.3,08-05-2019,16:00:00,65,0.00,13.0,30.32,31.7,0.00,10.00,987.99,1002.37,270
48410,UTHAITHANI,อุทัยธานี,อุทัยธานี,15.37417,100.03889,25.1,08-05-2019,16:00:00,82,8.70,0.0,31.90,28.4,0.10,10.00,999.93,1002.92,"{'@attributes': {'Unit': 'degree'}, '0': '   '}"
48413,WICHIAN BURI,วิเชียรบุรี,เพชรบูรณ์,15.65700,101.10800,22.7,08-05-2019,16:00:00,61,0.00,11.1,27.65,31.2,0.00,10.00,995.09,1002.90,160
48415,AYUTTHAYA,พระนครศรีอยุธยา,พระนครศรีอยุธยา,14.53472,100.72500,22.2,08-05-2019,16:00:00,56,2.10,7.4,26.72,32.0,0.00,9.00,1002.16,1003.25,180
48416,THA TUM,ท่าตูม,สุรินทร์,15.31667,103.68333,25.5,08-05-2019,16:00:00,67,0.00,3.7,32.58,32.5,0.00,8.00,987.48,1001.83,200
48417,NAKORNNAYOK,นครนายก,นครนายก,14.36222,101.39278,19.8,08-05-2019,16:00:00,97,11.60,7.4,23.12,20.3,0.00,2.00,870.69,1005.08,200
48418,BUA CHUM,บัวชุม  ,ลพบุรี,15.26667,101.18736,24.2,08-05-2019,16:00:00,64,19.60,0.0,30.16,31.9,0.00,10.00,997.29,1003.05,000
48419,PATHUMTHANI,ปทุมธานี สกษ.,ปทุมธานี,14.10000,100.61667,26.4,08-05-2019,16:00:00,78,2.20,7.4,34.44,30.6,1.20,8.00,1002.85,1003.64,060
48420,Samut Prakarn,สมุทรปราการ สกษ.,สมุทรปราการ,13.51667,100.76167,23.7,08-05-2019,16:00:00,71,2.50,20.4,29.33,29.5,0.00,10.00,1003.39,1003.83,210
48421,THONG PHAPHUM,ทองผาภูมิ,กาญจนบุรี,14.74222,98.63639,25.9,08-05-2019,16:00:00,88,25.30,0.0,33.37,28.0,0.80,6.00,992.18,1003.41,000
48425,SUPHAN BURI,สุพรรณบุรี,สุพรรณบุรี,14.47444,100.13889,23.9,08-05-2019,16:00:00,67,3.70,0.0,29.73,30.7,0.00,12.00,1002.34,1003.33,000
48426,LOP BURI,ลพบุรี,ลพบุรี,14.79972,100.64500,22.5,08-05-2019,16:00:00,59,0.01,11.1,27.21,31.4,0.00,8.00,1001.62,1003.41,160
48427,U THONG AGROMET.,อู่ทอง สกษ.,สุพรรณบุรี,14.30361,99.86472,23.1,08-05-2019,16:00:00,63,1.30,7.4,28.29,31.1,0.00,9.00,1002.18,1002.93,200
48429,SUVARNABHUMI AIRPORT,สนามบินสุวรรณภูมิ,สมุทรปราการ,13.68639,100.76750,24.3,08-05-2019,16:00:00,71,7.60,24.1,30.31,30.0,0.00,10.00,1003.38,1004.07,200
48430,PRACHIN BURI,ปราจีนบุรี,ปราจีนบุรี,14.05842,101.36930,25.2,08-05-2019,16:00:00,63,0.20,5.6,32.00,33.2,0.00,7.00,1001.74,1002.43,240
48431,NAKHON RATCHASIMA,นครราชสีมา,นครราชสีมา,14.96830,102.08603,23.3,08-05-2019,16:00:00,51,0.00,11.1,28.63,34.8,0.00,12.00,981.37,1001.89,260
48432,SURIN,สุรินทร์,สุรินทร์,14.88333,103.50000,22.2,08-05-2019,16:00:00,54,0.00,5.6,26.69,32.7,0.00,11.00,985.57,1001.90,240
48433,SURIN AGROMET.,สุรินทร์ สกษ.,สุรินทร์,14.88333,103.45000,22.9,08-05-2019,16:00:00,55,0.00,3.7,27.84,33.0,0.00,9.00,986.46,1002.49,200
48434,CHOK CHAI,โชคชัย,นครราชสีมา,14.71889,102.16861,20.3,08-05-2019,16:00:00,44,0.00,9.3,23.85,34.5,0.00,10.00,980.71,1001.92,270
48435,PAKCHONG AGROMET.,ปากช่อง สกษ.,นครราชสีมา,14.64389,101.33194,21.1,08-05-2019,16:00:00,61,1.30,22.2,24.95,29.3,0.00,10.00,960.43,1003.18,240
48436,NANG RONG,นางรอง,บุรีรัมย์,14.58333,102.80000,20.5,08-05-2019,16:00:00,45,0.00,14.8,24.10,34.2,0.00,10.00,981.78,1001.75,120
48437,BURIRUM,บุรีรัมย์,บุรีรัมย์,15.22575,103.24808,22.9,08-05-2019,16:00:00,56,0.00,16.7,27.92,32.9,0.00,10.00,982.68,1003.01,250
48438,SAMUTSONGKRAM,สมุทรสงคราม,สมุทรสงคราม,13.40778,100.03222,25.0,08-05-2019,16:00:00,87,11.80,7.4,31.61,27.4,2.60,8.00,1003.48,1003.92,270
48439,KABIN BURI,กบินทร์บุรี,ปราจีนบุรี,13.98333,101.70722,24.2,08-05-2019,16:00:00,59,0.00,0.0,30.16,33.3,0.00,11.00,1001.92,1003.31,000
48440,SA KAEW,สระแก้ว,สระแก้ว,13.78889,102.03472,25.0,08-05-2019,16:00:00,67,0.01,1.9,31.60,31.9,0.00,8.00,999.02,1003.86,300
48450,KANCHANA BURI,กาญจนบุรี,กาญจนบุรี,14.02250,99.53583,24.3,08-05-2019,16:00:00,73,1.10,7.4,30.35,29.6,0.00,12.00,1000.04,1003.29,220
48451,NAKHONPATHOM,นครปฐม,นครปฐม,14.01167,99.97000,25.6,08-05-2019,16:00:00,73,0.80,0.0,32.84,31.1,0.01,8.00,1002.52,1003.61,000
48453,BANG NA AGROMET.,กรุงเทพฯ บางนา สกษ.,กรุงเทพมหานคร,13.66639,100.60611,23.7,08-05-2019,16:00:00,67,18.20,11.1,29.33,30.5,0.00,10.00,1003.63,1003.92,220
48454,BANGKOK PORT (KLONG TOEI),กรุงเทพฯ ท่าเรือคลองเตย,กรุงเทพมหานคร,13.70694,100.56805,24.6,08-05-2019,16:00:00,70,7.90,9.3,30.94,30.6,0.00,10.00,1002.91,1003.59,170
48455,BANGKOK METROPOLIS,กรุงเทพมหานคร,กรุงเทพมหานคร,13.72639,100.56000,24.2,08-05-2019,16:00:00,70,14.30,3.7,30.14,30.2,0.00,10.00,1003.43,1003.91,270
48456,DON MUANG AIRPORT,สนามบินดอนเมือง,กรุงเทพมหานคร,13.91917,100.60500,24.1,08-05-2019,16:00:00,70,4.00,20.4,30.06,30.3,0.01,10.00,1002.27,1003.66,190
48457,PILOT STATION,นำร่อง,สมุทรปราการ,13.39389,100.59944,22.5,08-05-2019,16:00:00,63,0.00,22.2,27.30,30.3,0.00,10.00,1002.76,1004.41,190
48458,CHACHOENGSAO,ฉะเชิงเทรา,ฉะเชิงเทรา,13.51556,101.45833,23.3,08-05-2019,16:00:00,63,20.70,14.8,28.68,31.3,0.00,10.00,997.42,1005.30,230
48459,CHON BURI,ชลบุรี,ชลบุรี,13.36667,100.98333,25.1,08-05-2019,16:00:00,73,6.80,0.0,31.88,30.5,0.00,10.00,1003.66,1003.94,000
48460,KO SICHANG,เกาะสีชัง,ชลบุรี,13.16167,100.80194,22.1,08-05-2019,16:00:00,65,0.50,9.3,26.62,29.5,0.00,10.00,1000.69,1003.79,300
48461,PHATTHAYA,พัทยา,ชลบุรี,12.92000,100.86944,22.4,08-05-2019,16:00:00,62,0.60,5.6,27.14,30.5,0.00,12.00,998.04,1004.88,210
48462,ARANYA PRATHET,อรัญประเทศ,สระแก้ว,13.70000,102.58333,23.9,08-05-2019,16:00:00,60,0.00,11.1,29.58,32.6,0.00,7.00,998.30,1003.77,240
48463,LAEM CHABANG,แหลมฉบัง,ชลบุรี,13.07694,100.87583,22.2,08-05-2019,16:00:00,68,0.40,22.2,26.75,28.7,0.00,15.00,996.29,1005.53,210
48464,RATCHA BURI,ราชบุรี,ราชบุรี,13.48931,99.79239,25.8,08-05-2019,16:00:00,90,9.00,3.7,33.21,27.5,2.90,12.00,1003.77,1005.03,230
48465,PHETCHA BURI,เพชรบุรี,เพชรบุรี,12.99944,100.06056,23.1,08-05-2019,16:00:00,64,2.90,9.3,28.34,30.7,0.00,11.00,1003.35,1003.77,210
48474,NONG PHLUB AGROMET.,หนองพลับ สกษ.,ประจวบคีรีขันธ์,12.58333,99.73333,24.2,08-05-2019,16:00:00,74,21.10,7.4,30.13,29.2,0.00,10.00,991.98,1004.12,230
48475,HUA HIN,หัวหิน,ประจวบคีรีขันธ์,12.58611,99.96250,25.4,08-05-2019,16:00:00,76,7.40,3.7,32.50,30.1,0.01,9.00,1003.79,1004.50,190
48477,SATTAHIP,สัตหีบ,ชลบุรี,12.68333,100.98333,22.0,08-05-2019,16:00:00,55,2.60,11.1,26.47,32.3,0.00,10.00,1002.85,1005.23,260
48478,RAYONG,ระยอง,ระยอง,12.63222,101.34361,22.9,08-05-2019,16:00:00,70,7.40,14.8,27.83,29.0,0.00,10.00,1004.72,1005.24,290
48479,HUAI PONG AGROMET.,ห้วยโป่ง สกษ.,ระยอง,12.73333,101.13333,22.5,08-05-2019,16:00:00,64,4.80,3.7,27.28,30.0,0.00,12.00,999.40,1004.49,250
48480,CHANTHA BURI,จันทบุรี,จันทบุรี,12.61667,102.11333,25.1,08-05-2019,16:00:00,80,72.90,7.4,31.77,28.9,16.00,8.00,1004.79,1005.20,210
48481,PHLIU  AGROMET.,พลิ้ว สกษ.,จันทบุรี,12.50861,102.17305,25.1,08-05-2019,16:00:00,82,49.30,0.0,31.82,28.5,5.00,8.00,1002.87,1005.63,000
48500,PRACHUAP KHIRIKHAN,ประจวบคีรีขันธ์,ประจวบคีรีขันธ์,11.83333,99.83333,23.0,08-05-2019,16:00:00,72,15.20,0.0,28.16,28.6,0.00,10.00,1004.52,1005.30,000
48501,TRAD,ตราด,ตราด,11.76667,102.88333,24.8,08-05-2019,16:00:00,93,125.10,5.6,31.38,26.0,3.30,7.00,1005.72,1006.18,340
48517,CHUMPHON,ชุมพร,ชุมพร,10.49875,99.18847,24.7,08-05-2019,16:00:00,81,10.50,3.7,31.14,28.3,0.00,7.00,1004.91,1005.59,200
48520,SAWI AGROMET.,สวี สกษ.,ชุมพร,10.33333,99.10000,24.7,08-05-2019,16:00:00,82,7.80,0.0,31.11,28.0,0.80,8.00,1004.04,1005.56,000
48532,RANONG,ระนอง,ระนอง,9.98333,98.61667,24.6,08-05-2019,16:00:00,91,24.20,11.1,30.94,26.2,8.80,7.00,1005.61,1006.53,210
48550,KO SAMUI,เกาะสมุย,สุราษฎร์ธานี,9.46667,100.05000,24.9,08-05-2019,16:00:00,92,10.80,7.4,31.41,26.3,10.80,10.00,1004.95,1005.64,270
48551,SURAT THANI,สุราษฎร์ธานี,สุราษฎร์ธานี,9.13556,99.15194,26.4,08-05-2019,16:00:00,94,12.90,3.7,34.36,27.5,3.30,10.00,1005.94,1006.73,300
48552,NAKHONSI THAMMARAT,นครศรีธรรมราช,นครศรีธรรมราช,8.53778,99.96389,22.3,08-05-2019,16:00:00,62,0.00,11.1,26.95,30.4,0.00,10.00,1004.64,1005.27,230
48554,NAKHONSI THAMMARAT AGROMET.,นครศรีธรรมราช สกษ.,นครศรีธรรมราช,8.35931,100.00000,24.5,08-05-2019,16:00:00,73,0.00,14.8,30.75,29.8,0.00,10.00,1005.34,1005.74,240
48555,SURAT THANI AGROMET.,สุราษฎร์ธานี สกษ.,สุราษฎร์ธานี,9.10000,99.63333,25.8,08-05-2019,16:00:00,90,1.40,0.0,33.21,27.5,1.30,5.00,1003.64,1007.85,000
48556,PHRA SANG,พระแสง สอท.,สุราษฎร์ธานี,8.57022,99.25825,21.6,08-05-2019,16:00:00,54,0.00,18.5,25.82,32.1,0.00,10.00,1004.12,1005.70,230
48557,CHAWANG,ฉวาง,นครศรีธรรมราช,8.43194,99.51194,24.1,08-05-2019,16:00:00,67,4.90,0.0,30.05,31.0,0.00,10.00,1002.90,1006.32,000
48560,PHATTHALUNG AGROMET.,พัทลุง สกษ.,พัทลุง,7.58333,100.16667,21.0,08-05-2019,16:00:00,49,0.00,7.4,24.81,33.0,0.00,10.00,1003.93,1005.25,270
48561,TAKUA PA,ตะกั่วป่า,พังงา,8.68417,98.25222,24.4,08-05-2019,16:00:00,73,2.90,13.0,30.55,29.7,0.00,10.00,1005.53,1006.41,210
48563,KRABI,กระบี่,กระบี่,8.10361,98.97528,24.1,08-05-2019,16:00:00,67,0.00,14.8,30.05,31.0,0.00,10.00,1002.96,1006.47,220
48564,PHUKET,ภูเก็ต,ภูเก็ต,7.88333,98.40000,23.4,08-05-2019,16:00:00,56,0.60,11.1,28.84,33.5,0.00,10.00,1006.04,1006.46,210
48565,PHUKET AIRPORT,ภูเก็ต (ศูนย์ฯ),ภูเก็ต,8.14500,98.31444,23.3,08-05-2019,16:00:00,64,0.01,18.5,28.65,31.0,0.00,10.00,1005.48,1006.46,230
48566,KO LANTA,เกาะลันตา,กระบี่,7.53333,99.05000,25.5,08-05-2019,16:00:00,71,6.20,25.9,32.60,31.4,0.00,10.00,1005.60,1006.40,220
48567,TRANG AIRPORT,ตรัง,ตรัง,7.51667,99.61667,23.7,08-05-2019,16:00:00,64,7.00,11.1,29.35,31.5,0.00,10.00,1004.13,1005.91,220
48568,SONGKHLA,สงขลา,สงขลา,7.18211,100.60769,21.1,08-05-2019,16:00:00,46,0.00,16.7,24.94,34.5,0.00,10.00,1004.25,1004.98,220
48569,HAT YAI AIRPORT,หาดใหญ่,สงขลา,6.91667,100.43333,20.7,08-05-2019,16:00:00,46,0.00,20.4,24.34,33.9,0.00,10.00,1001.40,1005.30,230
48570,SATUN,สตูล,สตูล,6.65000,100.08333,24.0,08-05-2019,16:00:00,62,0.00,0.0,29.83,32.3,0.00,10.00,1005.52,1006.19,000
48571,KHO HONG AGROMET.,คอหงษ์ สกษ.,สงขลา,7.00000,100.50000,23.8,08-05-2019,16:00:00,56,0.00,16.7,29.54,33.7,0.00,11.00,1004.07,1005.16,240
48574,SA DAO,สะเดา,สงขลา,6.79806,100.39056,23.1,08-05-2019,16:00:00,52,0.00,14.8,28.18,34.3,0.00,11.00,1003.16,1006.01,270
48580,PATTANI AIRPORT,ปัตตานี,ปัตตานี,6.78333,101.15000,23.0,08-05-2019,16:00:00,51,0.00,9.3,28.02,34.5,0.00,10.00,1004.54,1005.21,220
48581,YALA AGROMET.,ยะลา สกษ.,ยะลา,6.51667,101.28333,21.5,08-05-2019,16:00:00,46,0.00,13.0,25.63,35.0,0.00,9.00,1001.38,1005.38,200
48583,NARATHIWAT,นราธิวาส,นราธิวาส,6.41667,101.81667,22.6,08-05-2019,16:00:00,50,0.00,11.1,27.45,34.5,0.00,10.00,1005.51,1006.08,170
