WmoStationNumber,StationNameEnglish,StationNameThai,Province,Latitude,Longitude,DewPoint,Date,Time,AirTemperature,LandVisibility,Rainfall24Hr,Rainfall,WindSpeed,RelativeHumidity,WindDirection,StationPressure,MeanSeaLevelPressure,VaporPressure
48300,MAE HONG SON,แม่ฮ่องสอน,แม่ฮ่องสอน,19.29897,97.97578,23.9,08-02-2019,04:00:00,24.8,6.00,5.00,0.70,0.0,95,000,973.21,1004.16,29.69
48302,DOI ANG KANG,ดอยอ่างขาง,เชียงใหม่,19.93139,99.04833,18.2,08-02-2019,04:00:00,18.4,8.00,30.10,0.00,5.6,99,260,842.21,1003.04,20.93
48303,CHIANG RAI,เชียงราย,เชียงราย,19.96139,99.88139,21.9,08-02-2019,04:00:00,24.5,10.00,0.30,0.00,0.0,86,000,958.82,1002.40,26.34
48304,CHAING RAI AGROMET.,เชียงราย สกษ.,เชียงราย,19.87083,99.78278,22.8,08-02-2019,04:00:00,23.5,12.00,0.00,0.00,0.0,96,000,957.18,1002.83,27.66
48307,THUNG CHANG,ทุ่งช้าง,น่าน,19.41194,100.88353,25.2,08-02-2019,04:00:00,25.4,6.00,0.00,0.00,0.0,99,000,965.59,1003.12,32.15
48310,PHAYAO,พะเยา,พะเยา,19.13333,99.90000,23.5,08-02-2019,04:00:00,24.5,8.00,1.80,0.00,0.0,94,000,958.00,1003.07,28.89
48315,THA WANGPHA,ท่าวังผา,น่าน,19.11056,100.80250,23.8,08-02-2019,04:00:00,26.0,7.00,0.20,0.00,0.0,88,000,977.17,1003.82,29.50
48324,THOEN,เถิน,ลำปาง,17.63661,99.24475,23.9,08-02-2019,04:00:00,24.8,10.00,7.50,0.00,0.0,95,000,982.24,1004.04,29.69
48325,MAE SARIANG,แม่สะเรียง,แม่ฮ่องสอน,18.16667,97.93333,23.2,08-02-2019,04:00:00,24.2,6.00,5.90,0.40,0.0,94,000,980.86,1005.08,28.36
48327,CHIANG MAI,เชียงใหม่,เชียงใหม่,18.79000,98.97694,24.0,08-02-2019,04:00:00,25.2,10.00,12.80,1.80,0.0,93,000,968.64,1003.11,29.89
48328,LAMPANG,ลำปาง,ลำปาง,18.28333,99.51667,23.9,08-02-2019,04:00:00,24.3,10.00,18.70,0.00,0.0,97,000,977.15,1004.80,29.57
48329,LAMPHUN,ลำพูน,ลำพูน,18.56722,99.03389,23.9,08-02-2019,04:00:00,25.8,10.00,4.30,0.00,0.0,89,000,969.69,1003.15,29.66
48331,NAN,น่าน,น่าน,18.77972,100.77778,24.1,08-02-2019,04:00:00,25.6,10.00,0.00,0.00,0.0,92,000,980.64,1003.44,30.09
48333,NAN AGROMET.,น่าน สกษ.,น่าน,18.86667,100.75000,23.7,08-02-2019,04:00:00,24.6,8.00,0.40,0.00,0.0,95,000,973.37,1003.31,29.33
48334,LAMPANG AGROMET.,ลำปาง สกษ.,ลำปาง,18.31667,99.28333,24.8,08-02-2019,04:00:00,25.5,6.00,33.60,0.00,0.0,96,000,968.07,1003.53,31.25
48350,LOEI AGROMET.,เลย สกษ.,เลย,17.40000,101.73333,22.4,08-02-2019,04:00:00,24.8,12.00,1.80,0.00,0.0,87,000,971.84,1001.53,27.10
48351,UTTARADIT,อุตรดิตถ์,อุตรดิตถ์,17.61667,100.10000,23.4,08-02-2019,04:00:00,25.2,8.00,5.50,0.00,0.0,90,000,996.66,1003.99,28.83
48352,NONG KHAI,หนองคาย,หนองคาย,17.86717,102.73303,23.6,08-02-2019,04:00:00,26.4,11.00,0.90,0.00,3.7,85,260,982.13,1001.95,29.17
48353,LOEI,เลย,เลย,17.45000,101.73333,20.5,08-02-2019,04:00:00,26.6,13.00,0.30,0.00,11.1,69,200,973.94,1002.46,24.12
48354,UDON THANI,อุดรธานี,อุดรธานี,17.38333,102.80000,23.2,08-02-2019,04:00:00,25.6,12.00,3.70,0.00,5.6,87,200,982.35,1002.50,28.51
48355,SAKON NAKHON AGROMET.,สกลนคร สกษ.,สกลนคร,17.12503,104.06100,22.6,08-02-2019,04:00:00,25.4,10.00,8.40,0.00,3.7,84,260,981.20,1002.94,27.38
48356,SAKON NAKHON,สกลนคร,สกลนคร,17.15000,104.13333,22.8,08-02-2019,04:00:00,25.5,10.00,2.90,0.00,0.0,85,000,982.16,1001.62,27.81
48357,NAKHON PHANOM,นครพนม,นครพนม,17.41083,104.78250,24.2,08-02-2019,04:00:00,25.2,10.00,26.50,0.80,0.0,94,000,985.88,1002.64,30.15
48358,NAKHON PHANOM AGROMET.,นครพนม สกษ.,นครพนม,17.44306,104.77361,24.4,08-02-2019,04:00:00,25.4,10.00,3.80,0.50,0.0,94,000,985.27,1002.68,30.52
48360,NONG BUA LAM PHU,หนองบัวลำภู,หนองบัวลำภู,17.23250,102.42944,23.7,08-02-2019,04:00:00,24.7,9.00,4.80,0.00,0.0,94,000,976.31,1002.14,29.25
48372,SUKHOTHAI*,สุโขทัย,สุโขทัย,17.10611,99.80000,24.6,08-02-2019,04:00:00,26.0,10.00,1.30,0.00,0.0,92,000,998.02,1003.80,30.84
48373,SI SAMRONG AGROMET.,ศรีสำโรง สกษ.,สุโขทัย,17.16136,99.86167,24.6,08-02-2019,04:00:00,26.0,7.00,1.10,0.00,0.0,92,000,997.20,1003.39,30.84
48374,LOM SAK,หล่มสัก,เพชรบูรณ์,16.77361,101.24944,22.4,08-02-2019,04:00:00,24.2,8.00,0.40,0.00,0.0,90,000,988.03,1004.58,27.09
48375,MAE SOT,แม่สอด,ตาก,16.65917,98.55083,22.4,08-02-2019,04:00:00,23.0,8.00,52.40,5.30,0.0,96,000,982.11,1004.67,27.07
48376,TAK,ตาก,ตาก,16.87833,99.14333,22.0,08-02-2019,04:00:00,26.6,6.00,2.80,0.00,5.6,76,280,990.22,1004.59,26.39
48377,BHUMIBOL DAM,เขื่อนภูมิพล,ตาก,17.24389,99.00250,21.9,08-02-2019,04:00:00,27.0,8.00,0.50,0.00,0.0,74,000,987.22,1003.55,26.32
48378,PHITSANULOK,พิษณุโลก,พิษณุโลก,16.79481,100.27930,24.6,08-02-2019,04:00:00,25.8,10.00,2.50,0.10,0.0,93,000,999.28,1004.51,31.00
48379,PHETCHABUN,เพชรบูรณ์,เพชรบูรณ์,16.43333,101.15000,22.8,08-02-2019,04:00:00,24.0,10.00,6.20,0.00,0.0,93,000,989.98,1003.25,27.76
48380,KAMPHAENG PHET,กำแพงเพชร,กำแพงเพชร,16.48681,99.52697,24.2,08-02-2019,04:00:00,25.4,10.00,4.40,0.00,0.0,93,000,994.66,1004.00,30.25
48381,KHON KAEN,ขอนแก่น,ขอนแก่น,16.46111,102.78972,22.9,08-02-2019,04:00:00,25.1,10.00,0.20,0.00,1.9,88,200,981.55,1003.29,27.88
48382,MAHASARAKHAM,มหาสารคาม,มหาสารคาม,16.24722,103.06805,23.3,08-02-2019,04:00:00,25.5,10.00,0.00,0.00,14.8,88,230,986.03,1003.56,28.59
48383,MUKDAHAN,มุกดาหาร,มุกดาหาร,16.54139,104.72889,22.7,08-02-2019,04:00:00,25.8,10.00,26.60,0.00,5.6,83,240,986.26,1002.07,27.56
48384,THA PHRA AGROMET.,ท่าพระ สกษ.,ขอนแก่น,16.33333,102.81667,23.1,08-02-2019,04:00:00,25.0,8.00,0.00,0.00,5.6,89,200,983.49,1002.41,28.22
48385,UMPHANG,อุ้มผาง,ตาก,16.02472,98.86444,21.0,08-02-2019,04:00:00,22.2,5.00,23.90,1.80,0.0,93,000,954.98,1006.78,24.81
48386,PICHIT AGROMET.,พิจิตร สกษ.,พิจิตร,16.43806,100.29250,23.9,08-02-2019,04:00:00,24.8,5.00,4.70,0.00,0.0,95,000,1000.14,1004.11,29.69
48387,DOI MU SOE AGROMET.,ดอยมูเซอร์ สกษ.,ตาก,16.75000,98.93333,19.2,08-02-2019,04:00:00,20.0,3.00,30.80,0.20,18.5,95,230,909.88,1005.26,22.24
48390,KALASIN,กาฬสินธุ์,กาฬสินธุ์,16.33250,103.58833,22.6,08-02-2019,04:00:00,25.3,6.00,9.50,0.00,0.0,85,000,987.12,1003.14,27.46
48400,NAKHON SAWAN,นครสวรรค์ ,นครสวรรค์,15.67183,100.13236,23.0,08-02-2019,04:00:00,26.2,10.00,0.90,0.00,5.6,82,240,1000.59,1004.63,28.01
48401,TAKFA AGROMET.,ตากฟ้า สกษ.,นครสวรรค์,15.34944,100.53028,22.8,08-02-2019,04:00:00,23.5,7.00,8.70,0.00,0.0,96,000,995.29,1006.07,27.66
48402,CHAINAT AGROMET.,ชัยนาท สกษ.,ชัยนาท,15.15000,100.18333,22.0,08-02-2019,04:00:00,25.0,8.00,3.10,0.00,1.9,83,180,1003.30,1005.24,26.43
48403,CHAIYAPHUM,ชัยภูมิ,ชัยภูมิ,15.80000,102.03333,21.6,08-02-2019,04:00:00,23.7,10.00,0.00,0.00,0.0,88,000,983.73,1004.76,25.76
48404,ROI ET AGROMET.,ร้อยเอ็ด สกษ.,ร้อยเอ็ด,16.07322,103.60844,21.6,08-02-2019,04:00:00,25.5,10.00,2.20,0.00,22.2,79,250,985.16,1002.84,25.77
48405,ROI ET,ร้อยเอ็ด,ร้อยเอ็ด,16.02000,103.74389,21.7,08-02-2019,04:00:00,25.5,10.00,1.70,0.00,16.7,80,200,986.61,1002.78,26.02
48407,UBON RATCHATHANI,อุบลราชธานี (ศูนย์ฯ),อุบลราชธานี,15.25000,104.86667,20.7,08-02-2019,04:00:00,25.9,10.00,4.00,0.00,7.4,73,250,990.11,1004.16,24.45
48408,UBON RATCHATHANI AGROMET.,อุบลราชธานี สกษ.,อุบลราชธานี,15.23914,105.02350,22.0,08-02-2019,04:00:00,25.0,8.00,5.20,0.00,0.0,83,000,989.76,1004.65,26.43
48409,SI SAKET AGROMET.,ศรีสะเกษ,ศรีสะเกษ,15.00000,104.05000,22.7,08-02-2019,04:00:00,25.2,5.00,2.70,0.00,7.4,86,220,990.13,1004.86,27.54
48410,UTHAITHANI,อุทัยธานี,อุทัยธานี,15.37417,100.03889,23.1,08-02-2019,04:00:00,25.0,10.00,0.50,0.10,0.0,89,"{'@attributes': {'Unit': 'degree'}, '0': '   '}",1002.11,1005.14,28.22
48413,WICHIAN BURI,วิเชียรบุรี,เพชรบูรณ์,15.65700,101.10800,21.4,08-02-2019,04:00:00,24.4,6.00,4.70,0.00,9.3,83,140,996.75,1004.75,25.43
48415,AYUTTHAYA,พระนครศรีอยุธยา,พระนครศรีอยุธยา,14.53472,100.72500,21.8,08-02-2019,04:00:00,24.4,8.00,0.60,0.00,3.7,86,230,1004.45,1005.56,26.17
48416,THA TUM,ท่าตูม,สุรินทร์,15.31667,103.68333,22.9,08-02-2019,04:00:00,25.9,8.00,0.00,0.00,0.0,84,000,990.03,1004.73,28.00
48417,NAKORNNAYOK,นครนายก,นครนายก,14.36222,101.39278,17.3,08-02-2019,04:00:00,17.6,.10,15.90,1.60,16.7,98,280,871.67,1007.53,19.69
48418,BUA CHUM,บัวชุม  ,ลพบุรี,15.26667,101.18736,22.8,08-02-2019,04:00:00,23.5,10.00,10.30,0.00,3.7,96,210,999.38,1005.32,27.66
48419,PATHUMTHANI,ปทุมธานี สกษ.,ปทุมธานี,14.10000,100.61667,20.8,08-02-2019,04:00:00,27.3,8.00,0.00,0.00,5.6,68,240,1007.40,1008.21,24.55
48420,Samut Prakarn,สมุทรปราการ สกษ.,สมุทรปราการ,13.51667,100.76167,23.8,08-02-2019,04:00:00,28.6,10.00,0.00,0.00,9.3,75,230,1005.89,1006.34,29.52
48421,THONG PHAPHUM,ทองผาภูมิ,กาญจนบุรี,14.74222,98.63639,22.4,08-02-2019,04:00:00,23.2,4.00,32.00,0.00,0.0,96,000,997.19,1008.65,27.16
48425,SUPHAN BURI,สุพรรณบุรี,สุพรรณบุรี,14.47444,100.13889,22.2,08-02-2019,04:00:00,25.2,10.00,0.50,0.00,0.0,84,000,1004.75,1005.77,26.78
48426,LOP BURI,ลพบุรี,ลพบุรี,14.79972,100.64500,22.7,08-02-2019,04:00:00,24.3,7.00,1.60,0.00,0.0,91,000,1003.90,1005.74,27.51
48427,U THONG AGROMET.,อู่ทอง สกษ.,สุพรรณบุรี,14.30361,99.86472,21.2,08-02-2019,04:00:00,24.8,7.00,0.01,0.00,0.0,80,000,1004.51,1005.28,25.10
48429,SUVARNABHUMI AIRPORT,สนามบินสุวรรณภูมิ,สมุทรปราการ,13.68639,100.76750,21.2,08-02-2019,04:00:00,26.2,10.00,0.80,0.00,3.7,74,210,1005.68,1006.39,25.20
48430,PRACHIN BURI,ปราจีนบุรี,ปราจีนบุรี,14.05842,101.36930,23.2,08-02-2019,04:00:00,25.8,7.00,15.00,0.20,3.7,85,290,1005.10,1005.81,28.34
48431,NAKHON RATCHASIMA,นครราชสีมา,นครราชสีมา,14.96830,102.08603,22.3,08-02-2019,04:00:00,24.1,10.00,1.00,0.01,7.4,90,270,983.61,1004.92,26.92
48432,SURIN,สุรินทร์,สุรินทร์,14.88333,103.50000,22.4,08-02-2019,04:00:00,24.8,6.00,0.20,0.00,0.0,87,000,987.91,1004.71,27.10
48433,SURIN AGROMET.,สุรินทร์ สกษ.,สุรินทร์,14.88333,103.45000,21.3,08-02-2019,04:00:00,24.5,6.00,0.30,0.00,3.7,82,230,988.68,1005.22,25.35
48434,CHOK CHAI,โชคชัย,นครราชสีมา,14.71889,102.16861,21.3,08-02-2019,04:00:00,24.9,10.00,0.10,0.10,3.7,80,270,982.98,1004.94,25.27
48435,PAKCHONG AGROMET.,ปากช่อง สกษ.,นครราชสีมา,14.64389,101.33194,19.6,08-02-2019,04:00:00,23.5,10.00,1.60,0.01,13.0,79,240,961.99,1005.66,22.80
48436,NANG RONG,นางรอง,บุรีรัมย์,14.58333,102.80000,20.8,08-02-2019,04:00:00,25.8,10.00,0.01,0.00,11.1,74,210,984.10,1004.69,24.53
48437,BURIRUM,บุรีรัมย์,บุรีรัมย์,15.22575,103.24808,22.2,08-02-2019,04:00:00,24.7,8.00,0.20,0.00,14.8,86,240,984.80,1005.75,26.68
48438,SAMUTSONGKRAM,สมุทรสงคราม,สมุทรสงคราม,13.40778,100.03222,21.9,08-02-2019,04:00:00,26.5,10.00,0.01,0.00,3.7,76,290,1005.83,1006.27,26.22
48439,KABIN BURI,กบินทร์บุรี,ปราจีนบุรี,13.98333,101.70722,23.2,08-02-2019,04:00:00,24.1,6.00,12.40,0.30,0.0,95,000,1004.44,1005.87,28.44
48440,SA KAEW,สระแก้ว,สระแก้ว,13.78889,102.03472,23.8,08-02-2019,04:00:00,24.5,6.00,9.20,0.00,0.0,96,000,1001.22,1006.19,29.41
48450,KANCHANA BURI,กาญจนบุรี,กาญจนบุรี,14.02250,99.53583,22.1,08-02-2019,04:00:00,26.4,10.00,0.01,0.00,3.7,77,300,1002.59,1005.89,26.56
48451,NAKHONPATHOM,นครปฐม,นครปฐม,14.01167,99.97000,22.1,08-02-2019,04:00:00,24.9,10.00,0.01,0.00,0.0,84,000,1004.88,1005.99,26.52
48453,BANG NA AGROMET.,กรุงเทพฯ บางนา สกษ.,กรุงเทพมหานคร,13.66639,100.60611,21.9,08-02-2019,04:00:00,27.0,10.00,0.01,0.00,0.0,74,000,1005.76,1006.06,26.32
48455,BANGKOK METROPOLIS,กรุงเทพมหานคร,กรุงเทพมหานคร,13.72639,100.56000,21.1,08-02-2019,04:00:00,26.8,10.00,0.50,0.00,1.9,71,300,1005.89,1006.38,24.96
48456,DON MUANG AIRPORT,สนามบินดอนเมือง,กรุงเทพมหานคร,13.91917,100.60500,21.9,08-02-2019,04:00:00,25.8,10.00,0.20,0.01,11.1,79,260,1005.40,1006.82,26.28
48458,CHACHOENGSAO,ฉะเชิงเทรา,ฉะเชิงเทรา,13.51556,101.45833,23.2,08-02-2019,04:00:00,24.1,10.00,2.70,0.00,0.0,95,000,999.36,1007.44,28.44
48459,CHON BURI,ชลบุรี,ชลบุรี,13.36667,100.98333,24.0,08-02-2019,04:00:00,27.8,10.00,2.20,0.00,3.7,80,300,1006.04,1006.33,29.90
48460,KO SICHANG,เกาะสีชัง,ชลบุรี,13.16167,100.80194,23.2,08-02-2019,04:00:00,28.2,10.00,0.00,0.00,5.6,75,220,1003.24,1006.36,28.49
48461,PHATTHAYA,พัทยา,ชลบุรี,12.92000,100.86944,22.9,08-02-2019,04:00:00,28.5,10.00,0.00,0.00,7.4,72,210,999.47,1006.37,27.97
48462,ARANYA PRATHET,อรัญประเทศ,สระแก้ว,13.70000,102.58333,23.1,08-02-2019,04:00:00,25.0,7.00,14.20,0.00,0.0,89,000,1000.25,1005.88,28.22
48464,RATCHA BURI,ราชบุรี,ราชบุรี,13.48931,99.79239,22.5,08-02-2019,04:00:00,24.7,10.00,0.01,0.01,0.0,87,000,1006.32,1007.59,27.19
48465,PHETCHA BURI,เพชรบุรี,เพชรบุรี,12.99944,100.06056,21.5,08-02-2019,04:00:00,27.5,11.00,0.00,0.00,0.0,70,000,1005.75,1006.18,25.65
48474,NONG PHLUB AGROMET.,หนองพลับ สกษ.,ประจวบคีรีขันธ์,12.58333,99.73333,23.4,08-02-2019,04:00:00,24.7,8.00,9.80,0.00,0.0,92,000,994.50,1006.85,28.72
48475,HUA HIN,หัวหิน,ประจวบคีรีขันธ์,12.58611,99.96250,24.1,08-02-2019,04:00:00,26.9,10.00,3.70,0.00,0.0,85,000,1005.91,1006.62,30.10
48477,SATTAHIP,สัตหีบ,ชลบุรี,12.68333,100.98333,22.0,08-02-2019,04:00:00,28.8,10.00,0.01,0.00,5.6,67,250,1005.04,1007.46,26.40
48478,RAYONG,ระยอง,ระยอง,12.63222,101.34361,24.1,08-02-2019,04:00:00,29.0,10.00,0.01,0.00,14.8,75,250,1005.85,1006.37,30.01
48479,HUAI PONG AGROMET.,ห้วยโป่ง สกษ.,ระยอง,12.73333,101.13333,23.6,08-02-2019,04:00:00,27.4,8.00,0.00,0.00,0.0,80,000,1001.20,1006.34,29.15
48480,CHANTHA BURI,จันทบุรี,จันทบุรี,12.61667,102.11333,24.3,08-02-2019,04:00:00,26.0,7.00,5.40,0.00,0.0,90,000,1006.08,1006.49,30.30
48481,PHLIU  AGROMET.,พลิ้ว สกษ.,จันทบุรี,12.50861,102.17305,24.2,08-02-2019,04:00:00,25.8,8.00,1.50,0.00,0.0,91,000,1004.22,1007.00,30.19
48500,PRACHUAP KHIRIKHAN,ประจวบคีรีขันธ์,ประจวบคีรีขันธ์,11.83333,99.83333,22.5,08-02-2019,04:00:00,25.5,10.00,2.80,0.00,0.0,84,000,1006.21,1007.00,27.29
48501,TRAD,ตราด,ตราด,11.76667,102.88333,24.4,08-02-2019,04:00:00,27.9,6.00,12.40,0.60,3.7,82,280,1006.67,1007.13,30.64
48517,CHUMPHON,ชุมพร,ชุมพร,10.49875,99.18847,25.3,08-02-2019,04:00:00,26.0,7.00,4.00,1.20,0.0,96,000,1007.26,1007.94,32.20
48520,SAWI AGROMET.,สวี สกษ.,ชุมพร,10.33333,99.10000,25.2,08-02-2019,04:00:00,26.2,8.00,5.80,0.00,0.0,94,000,1006.23,1007.76,32.04
48532,RANONG,ระนอง,ระนอง,9.98333,98.61667,24.7,08-02-2019,04:00:00,27.0,7.00,13.80,2.40,7.4,87,210,1007.47,1008.39,31.11
48550,KO SAMUI,เกาะสมุย,สุราษฎร์ธานี,9.46667,100.05000,24.3,08-02-2019,04:00:00,28.0,10.00,0.00,0.00,0.0,80,000,1007.62,1008.31,30.28
48551,SURAT THANI,สุราษฎร์ธานี,สุราษฎร์ธานี,9.13556,99.15194,24.2,08-02-2019,04:00:00,25.1,8.00,0.00,0.00,3.7,95,190,1007.83,1008.63,30.23
48552,NAKHONSI THAMMARAT,นครศรีธรรมราช,นครศรีธรรมราช,8.53778,99.96389,24.6,08-02-2019,04:00:00,25.3,10.00,5.70,0.00,0.0,96,000,1007.83,1008.47,30.87
48554,NAKHONSI THAMMARAT AGROMET.,นครศรีธรรมราช สกษ.,นครศรีธรรมราช,8.35931,100.00000,23.7,08-02-2019,04:00:00,25.0,8.00,1.10,0.00,0.0,92,000,1008.36,1008.77,29.26
48555,SURAT THANI AGROMET.,สุราษฎร์ธานี สกษ.,สุราษฎร์ธานี,9.10000,99.63333,24.2,08-02-2019,04:00:00,25.2,5.00,0.00,0.00,0.0,94,000,1006.13,1010.38,30.15
48556,PHRA SANG,พระแสง สอท.,สุราษฎร์ธานี,8.57022,99.25825,24.2,08-02-2019,04:00:00,24.5,5.00,1.40,0.00,0.0,98,000,1007.21,1008.84,30.20
48557,CHAWANG,ฉวาง,นครศรีธรรมราช,8.43194,99.51194,24.1,08-02-2019,04:00:00,25.0,10.00,0.90,0.00,0.0,95,000,1005.65,1009.15,30.05
48560,PHATTHALUNG AGROMET.,พัทลุง สกษ.,พัทลุง,7.58333,100.16667,24.2,08-02-2019,04:00:00,24.8,7.00,6.50,0.00,0.0,97,000,1007.69,1009.05,30.22
48561,TAKUA PA,ตะกั่วป่า,พังงา,8.68417,98.25222,24.6,08-02-2019,04:00:00,28.2,10.00,7.90,0.00,9.3,81,240,1007.88,1008.77,30.95
48563,KRABI,กระบี่,กระบี่,8.10361,98.97528,24.0,08-02-2019,04:00:00,25.5,10.00,0.00,0.00,0.0,92,000,1005.23,1008.81,29.91
48564,PHUKET,ภูเก็ต,ภูเก็ต,7.88333,98.40000,24.9,08-02-2019,04:00:00,28.6,10.00,0.00,0.00,0.0,80,000,1008.28,1008.72,31.46
48565,PHUKET AIRPORT,ภูเก็ต (ศูนย์ฯ),ภูเก็ต,8.14500,98.31444,25.0,08-02-2019,04:00:00,29.6,10.00,0.00,0.00,5.6,77,290,1007.50,1008.49,31.77
48566,KO LANTA,เกาะลันตา,กระบี่,7.53333,99.05000,24.8,08-02-2019,04:00:00,28.8,10.00,0.00,0.00,14.8,79,270,1008.10,1008.91,31.29
48567,TRANG AIRPORT,ตรัง,ตรัง,7.51667,99.61667,24.3,08-02-2019,04:00:00,25.2,10.00,1.50,0.00,0.0,95,000,1007.49,1009.32,30.42
48568,SONGKHLA,สงขลา,สงขลา,7.18211,100.60769,23.4,08-02-2019,04:00:00,25.5,10.00,0.70,0.00,5.6,88,250,1008.91,1009.67,28.85
48569,HAT YAI AIRPORT,หาดใหญ่,สงขลา,6.91667,100.43333,23.5,08-02-2019,04:00:00,23.9,8.00,2.00,0.00,0.0,97,000,1005.70,1009.74,28.86
48570,SATUN,สตูล,สตูล,6.65000,100.08333,23.5,08-02-2019,04:00:00,24.5,10.00,5.40,0.00,0.0,94,000,1008.98,1009.67,28.89
48571,KHO HONG AGROMET.,คอหงษ์ สกษ.,สงขลา,7.00000,100.50000,24.6,08-02-2019,04:00:00,26.0,10.00,0.20,0.00,0.0,92,000,1008.11,1009.23,30.84
48574,SA DAO,สะเดา,สงขลา,6.79806,100.39056,24.1,08-02-2019,04:00:00,24.8,10.00,0.00,0.00,0.0,96,000,1006.81,1009.76,29.95
