WmoStationNumber,StationNameEnglish,StationNameThai,Province,Latitude,Longitude,StationPressure,Date,Time,RelativeHumidity,DewPoint,MeanSeaLevelPressure,WindSpeed,VaporPressure,Rainfall,WindDirection,Rainfall24Hr,LandVisibility,AirTemperature
48300,MAE HONG SON,แม่ฮ่องสอน,แม่ฮ่องสอน,19.29897,97.97578,974.88,08-01-2019,10:00:00,86,24.2,1005.68,0.0,30.26,0.00,000,32.70,10.00,26.7
48302,DOI ANG KANG,ดอยอ่างขาง,เชียงใหม่,19.93139,99.04833,842.78,08-01-2019,10:00:00,93,19.6,1002.37,9.3,22.79,0.00,300,0.00,6.00,20.7
48303,CHIANG RAI,เชียงราย,เชียงราย,19.96139,99.88139,961.11,08-01-2019,10:00:00,78,23.5,1004.32,0.0,28.90,0.00,000,27.00,12.00,27.7
48304,CHAING RAI AGROMET.,เชียงราย สกษ.,เชียงราย,19.87083,99.78278,959.45,08-01-2019,10:00:00,82,23.3,1004.71,0.0,28.65,0.00,000,49.20,15.00,26.7
48307,THUNG CHANG,ทุ่งช้าง,น่าน,19.41194,100.88353,967.35,08-01-2019,10:00:00,81,24.9,1004.55,0.0,31.54,0.00,000,33.00,12.00,28.5
48310,PHAYAO,พะเยา,พะเยา,19.13333,99.90000,959.98,08-01-2019,10:00:00,82,24.8,1004.57,5.6,31.23,0.00,180,33.00,12.00,28.2
48315,THA WANGPHA,ท่าวังผา,น่าน,19.11056,100.80250,979.01,08-01-2019,10:00:00,81,24.2,1005.55,0.0,30.26,0.00,000,21.00,8.00,27.7
48324,THOEN,เถิน,ลำปาง,17.63661,99.24475,983.66,08-01-2019,10:00:00,61,21.3,1005.16,9.3,25.30,0.00,250,0.01,15.00,29.5
48325,MAE SARIANG,แม่สะเรียง,แม่ฮ่องสอน,18.16667,97.93333,982.28,08-01-2019,10:00:00,83,23.5,1006.34,0.0,29.00,0.00,000,9.40,8.00,26.6
48327,CHIANG MAI,เชียงใหม่,เชียงใหม่,18.79000,98.97694,970.96,08-01-2019,10:00:00,87,23.8,1005.41,0.0,29.41,1.40,000,10.60,10.00,26.1
48328,LAMPANG,ลำปาง,ลำปาง,18.28333,99.51667,977.95,08-01-2019,10:00:00,83,24.0,1005.35,0.0,29.85,0.00,000,8.00,10.00,27.2
48329,LAMPHUN,ลำพูน,ลำพูน,18.56722,99.03389,971.82,08-01-2019,10:00:00,84,24.1,1005.22,0.0,30.02,0.90,000,6.50,10.00,27.0
48330,PHRAE,แพร่,แพร่,18.16667,100.16667,987.00,08-01-2019,10:00:00,86,24.7,1005.42,9.3,31.14,0.20,270,45.10,10.00,27.3
48331,NAN,น่าน,น่าน,18.77972,100.77778,982.41,08-01-2019,10:00:00,86,24.2,1005.16,0.0,30.26,0.00,000,51.60,10.00,26.7
48333,NAN AGROMET.,น่าน สกษ.,น่าน,18.86667,100.75000,975.42,08-01-2019,10:00:00,89,24.0,1005.28,0.0,29.76,0.40,000,22.00,8.00,26.0
48334,LAMPANG AGROMET.,ลำปาง สกษ.,ลำปาง,18.31667,99.28333,970.14,08-01-2019,10:00:00,89,24.4,1005.58,0.0,30.59,0.00,000,5.60,7.00,26.3
48350,LOEI AGROMET.,เลย สกษ.,เลย,17.40000,101.73333,974.70,08-01-2019,10:00:00,95,24.4,1004.44,3.7,30.60,0.70,140,1.80,13.00,25.3
48351,UTTARADIT,อุตรดิตถ์,อุตรดิตถ์,17.61667,100.10000,998.70,08-01-2019,10:00:00,86,24.2,1006.01,0.0,30.26,0.01,000,27.50,8.00,26.7
48352,NONG KHAI,หนองคาย,หนองคาย,17.86717,102.73303,984.36,08-01-2019,10:00:00,80,25.6,1004.03,9.3,32.79,0.00,240,11.00,14.00,29.4
48353,LOEI,เลย,เลย,17.45000,101.73333,976.20,08-01-2019,10:00:00,88,23.8,1004.84,0.0,29.50,0.30,000,0.30,12.00,26.0
48354,UDON THANI,อุดรธานี,อุดรธานี,17.38333,102.80000,984.57,08-01-2019,10:00:00,82,24.7,1004.61,3.7,31.11,0.00,260,41.30,12.00,28.0
48355,SAKON NAKHON AGROMET.,สกลนคร สกษ.,สกลนคร,17.12503,104.06100,984.49,08-01-2019,10:00:00,86,24.2,1006.20,3.7,30.18,0.60,160,17.90,12.00,26.8
48356,SAKON NAKHON,สกลนคร,สกลนคร,17.15000,104.13333,984.84,08-01-2019,10:00:00,88,24.5,1004.28,0.0,30.81,2.70,000,10.90,15.00,26.7
48357,NAKHON PHANOM,นครพนม,นครพนม,17.41083,104.78250,988.03,08-01-2019,10:00:00,94,24.7,1004.81,3.7,31.08,15.30,260,19.30,9.00,25.7
48358,NAKHON PHANOM AGROMET.,นครพนม สกษ.,นครพนม,17.44306,104.77361,987.20,08-01-2019,10:00:00,84,24.7,1004.52,7.4,31.08,1.30,280,31.50,12.00,27.7
48360,NONG BUA LAM PHU,หนองบัวลำภู,หนองบัวลำภู,17.23250,102.42944,978.47,08-01-2019,10:00:00,83,24.5,1004.09,3.7,30.81,0.00,270,8.50,10.00,27.7
48372,SUKHOTHAI*,สุโขทัย,สุโขทัย,17.10611,99.80000,999.78,08-01-2019,10:00:00,76,25.6,1005.49,0.0,32.92,0.00,000,0.00,10.00,30.3
48373,SI SAMRONG AGROMET.,ศรีสำโรง สกษ.,สุโขทัย,17.16136,99.86167,999.35,08-01-2019,10:00:00,78,24.7,1005.48,7.4,31.13,0.00,130,0.00,10.00,29.0
48374,LOM SAK,หล่มสัก,เพชรบูรณ์,16.77361,101.24944,989.81,08-01-2019,10:00:00,83,23.2,1006.27,9.3,28.46,0.01,180,16.40,10.00,26.3
48375,MAE SOT,แม่สอด,ตาก,16.65917,98.55083,982.99,08-01-2019,10:00:00,85,23.4,1005.35,9.3,28.70,0.00,150,21.00,10.00,26.0
48376,TAK,ตาก,ตาก,16.87833,99.14333,991.90,08-01-2019,10:00:00,68,22.5,1006.18,13.0,27.30,0.00,270,5.00,8.00,29.0
48377,BHUMIBOL DAM,เขื่อนภูมิพล,ตาก,17.24389,99.00250,989.00,08-01-2019,10:00:00,60,23.3,1005.08,0.0,28.58,0.00,000,0.00,12.00,32.1
48378,PHITSANULOK,พิษณุโลก,พิษณุโลก,16.79481,100.27930,1000.58,08-01-2019,10:00:00,69,23.0,1005.76,7.4,28.12,0.00,210,0.01,10.00,29.3
48379,PHETCHABUN,เพชรบูรณ์,เพชรบูรณ์,16.43333,101.15000,991.83,08-01-2019,10:00:00,88,23.7,1005.05,0.0,29.31,0.40,000,11.90,10.00,25.9
48380,KAMPHAENG PHET,กำแพงเพชร,กำแพงเพชร,16.48681,99.52697,996.81,08-01-2019,10:00:00,64,22.3,1006.03,7.4,26.91,0.00,130,5.60,12.00,29.8
48381,KHON KAEN,ขอนแก่น,ขอนแก่น,16.46111,102.78972,983.19,08-01-2019,10:00:00,75,23.6,1004.73,9.3,29.14,0.00,230,7.00,10.00,28.4
48382,MAHASARAKHAM,มหาสารคาม,มหาสารคาม,16.24722,103.06805,987.64,08-01-2019,10:00:00,73,24.9,1004.92,20.4,31.48,0.00,250,7.00,12.00,30.3
48383,MUKDAHAN,มุกดาหาร,มุกดาหาร,16.54139,104.72889,988.68,08-01-2019,10:00:00,91,24.7,1004.51,5.6,31.13,2.00,240,50.00,8.00,26.3
48384,THA PHRA AGROMET.,ท่าพระ สกษ.,ขอนแก่น,16.33333,102.81667,985.11,08-01-2019,10:00:00,77,23.9,1003.85,11.1,29.57,0.00,200,1.20,10.00,28.2
48385,UMPHANG,อุ้มผาง,ตาก,16.02472,98.86444,955.22,08-01-2019,10:00:00,91,21.5,1006.88,0.0,25.60,0.50,000,14.50,10.00,23.0
48386,PICHIT AGROMET.,พิจิตร สกษ.,พิจิตร,16.43806,100.29250,1002.15,08-01-2019,10:00:00,77,23.6,1006.09,13.0,29.19,0.00,110,2.90,10.00,28.0
48387,DOI MU SOE AGROMET.,ดอยมูเซอร์ สกษ.,ตาก,16.75000,98.93333,911.75,08-01-2019,10:00:00,99,20.8,1006.99,13.0,24.61,0.10,200,31.30,.60,21.0
48390,KALASIN,กาฬสินธุ์,กาฬสินธุ์,16.33250,103.58833,988.90,08-01-2019,10:00:00,84,24.9,1004.80,5.6,31.47,0.00,220,31.10,8.00,27.9
48400,NAKHON SAWAN,นครสวรรค์ ,นครสวรรค์,15.67183,100.13236,1002.57,08-01-2019,10:00:00,80,24.8,1006.58,3.7,31.38,0.00,200,2.20,10.00,28.7
48401,TAKFA AGROMET.,ตากฟ้า สกษ.,นครสวรรค์,15.34944,100.53028,997.03,08-01-2019,10:00:00,74,23.4,1007.66,5.6,28.78,0.00,190,8.20,10.00,28.5
48402,CHAINAT AGROMET.,ชัยนาท สกษ.,ชัยนาท,15.15000,100.18333,1005.24,08-01-2019,10:00:00,73,23.1,1007.16,9.3,28.24,0.00,180,1.20,10.00,28.5
48403,CHAIYAPHUM,ชัยภูมิ,ชัยภูมิ,15.80000,102.03333,985.08,08-01-2019,10:00:00,68,21.6,1005.83,13.0,25.85,0.00,240,2.60,10.00,28.2
48404,ROI ET AGROMET.,ร้อยเอ็ด สกษ.,ร้อยเอ็ด,16.07322,103.60844,987.25,08-01-2019,10:00:00,80,23.2,1004.87,14.8,28.41,0.00,250,5.00,10.00,27.0
48405,ROI ET,ร้อยเอ็ด,ร้อยเอ็ด,16.02000,103.74389,988.46,08-01-2019,10:00:00,77,22.6,1004.58,11.1,27.44,0.00,230,13.70,10.00,26.9
48407,UBON RATCHATHANI,อุบลราชธานี (ศูนย์ฯ),อุบลราชธานี,15.25000,104.86667,991.79,08-01-2019,10:00:00,70,22.3,1005.75,11.1,26.90,0.00,280,1.30,10.00,28.2
48408,UBON RATCHATHANI AGROMET.,อุบลราชธานี สกษ.,อุบลราชธานี,15.23914,105.02350,991.31,08-01-2019,10:00:00,76,23.2,1006.09,3.7,28.37,0.00,210,0.60,10.00,27.7
48409,SI SAKET AGROMET.,ศรีสะเกษ,ศรีสะเกษ,15.00000,104.05000,991.96,08-01-2019,10:00:00,78,23.2,1006.60,7.4,28.35,0.00,270,7.00,8.00,27.4
48410,UTHAITHANI,อุทัยธานี,อุทัยธานี,15.37417,100.03889,1003.20,08-01-2019,10:00:00,61,22.4,1006.18,0.0,27.16,0.00,"{'0': '   ', '@attributes': {'Unit': 'degree'}}",0.20,10.00,30.8
48413,WICHIAN BURI,วิเชียรบุรี,เพชรบูรณ์,15.65700,101.10800,998.62,08-01-2019,10:00:00,75,23.9,1006.52,0.0,29.71,0.00,000,3.60,10.00,28.7
48415,AYUTTHAYA,พระนครศรีอยุธยา,พระนครศรีอยุธยา,14.53472,100.72500,1007.13,08-01-2019,10:00:00,60,21.8,1008.23,22.2,26.15,0.00,230,0.00,8.00,30.4
48416,THA TUM,ท่าตูม,สุรินทร์,15.31667,103.68333,989.42,08-01-2019,10:00:00,85,25.0,1004.02,1.9,31.75,0.00,100,15.10,9.00,27.9
48417,NAKORNNAYOK,นครนายก,นครนายก,14.36222,101.39278,873.60,08-01-2019,10:00:00,98,18.4,1009.22,5.6,21.11,0.00,250,18.80,.10,18.7
48418,BUA CHUM,บัวชุม  ,ลพบุรี,15.26667,101.18736,1000.87,08-01-2019,10:00:00,72,23.9,1006.70,13.0,29.60,0.00,230,5.90,10.00,29.5
48419,PATHUMTHANI,ปทุมธานี สกษ.,ปทุมธานี,14.10000,100.61667,1006.91,08-01-2019,10:00:00,60,22.8,1007.70,9.3,27.68,0.00,240,0.00,10.00,31.5
48420,Samut Prakarn,สมุทรปราการ สกษ.,สมุทรปราการ,13.51667,100.76167,1007.62,08-01-2019,10:00:00,65,23.2,1008.06,18.5,28.50,0.00,230,0.00,10.00,30.5
48421,THONG PHAPHUM,ทองผาภูมิ,กาญจนบุรี,14.74222,98.63639,997.38,08-01-2019,10:00:00,94,24.4,1008.76,0.0,30.52,2.00,000,16.70,4.00,25.4
48425,SUPHAN BURI,สุพรรณบุรี,สุพรรณบุรี,14.47444,100.13889,1006.66,08-01-2019,10:00:00,65,22.5,1007.66,9.3,27.17,0.00,190,0.00,12.00,29.8
48426,LOP BURI,ลพบุรี,ลพบุรี,14.79972,100.64500,1005.77,08-01-2019,10:00:00,65,21.9,1007.58,7.4,26.34,0.00,190,0.20,8.00,29.2
48427,U THONG AGROMET.,อู่ทอง สกษ.,สุพรรณบุรี,14.30361,99.86472,1006.85,08-01-2019,10:00:00,61,21.4,1007.61,0.0,25.48,0.00,000,0.01,9.00,29.6
48429,SUVARNABHUMI AIRPORT,สนามบินสุวรรณภูมิ,สมุทรปราการ,13.68639,100.76750,1007.67,08-01-2019,10:00:00,67,22.8,1008.37,24.1,27.80,0.00,240,2.20,10.00,29.7
48430,PRACHIN BURI,ปราจีนบุรี,ปราจีนบุรี,14.05842,101.36930,1006.71,08-01-2019,10:00:00,75,25.2,1007.41,0.0,32.01,0.00,000,4.30,7.00,30.0
48431,NAKHON RATCHASIMA,นครราชสีมา,นครราชสีมา,14.96830,102.08603,985.33,08-01-2019,10:00:00,67,22.9,1006.28,18.5,27.88,0.10,230,2.80,10.00,29.6
48432,SURIN,สุรินทร์,สุรินทร์,14.88333,103.50000,989.66,08-01-2019,10:00:00,72,22.2,1006.32,9.3,26.78,0.00,230,18.30,9.00,27.7
48433,SURIN AGROMET.,สุรินทร์ สกษ.,สุรินทร์,14.88333,103.45000,990.38,08-01-2019,10:00:00,75,23.0,1006.76,11.1,28.02,0.00,230,21.00,10.00,27.8
48434,CHOK CHAI,โชคชัย,นครราชสีมา,14.71889,102.16861,984.26,08-01-2019,10:00:00,57,20.8,1005.84,9.3,24.57,0.00,270,2.90,10.00,30.4
48435,PAKCHONG AGROMET.,ปากช่อง สกษ.,นครราชสีมา,14.64389,101.33194,964.32,08-01-2019,10:00:00,69,20.8,1007.58,16.7,24.54,0.00,230,1.10,14.00,27.0
48436,NANG RONG,นางรอง,บุรีรัมย์,14.58333,102.80000,985.90,08-01-2019,10:00:00,60,21.7,1006.21,11.1,25.88,0.00,120,0.20,12.00,30.4
48437,BURIRUM,บุรีรัมย์,บุรีรัมย์,15.22575,103.24808,986.70,08-01-2019,10:00:00,78,23.9,1007.45,18.5,29.65,0.00,250,8.00,10.00,28.1
48438,SAMUTSONGKRAM,สมุทรสงคราม,สมุทรสงคราม,13.40778,100.03222,1007.78,08-01-2019,10:00:00,68,23.4,1008.21,18.5,28.72,0.00,250,0.01,10.00,29.9
48439,KABIN BURI,กบินทร์บุรี,ปราจีนบุรี,13.98333,101.70722,1006.10,08-01-2019,10:00:00,80,25.4,1007.51,3.7,32.38,0.00,270,0.80,10.00,29.2
48440,SA KAEW,สระแก้ว,สระแก้ว,13.78889,102.03472,1002.32,08-01-2019,10:00:00,78,24.9,1007.22,0.0,31.41,0.00,000,0.10,8.00,29.0
48450,KANCHANA BURI,กาญจนบุรี,กาญจนบุรี,14.02250,99.53583,1004.81,08-01-2019,10:00:00,69,22.4,1008.09,5.6,27.01,0.00,190,0.00,12.00,28.7
48451,NAKHONPATHOM,นครปฐม,นครปฐม,14.01167,99.97000,1006.85,08-01-2019,10:00:00,69,23.6,1007.94,7.4,29.19,0.00,230,0.70,10.00,30.0
48453,BANG NA AGROMET.,กรุงเทพฯ บางนา สกษ.,กรุงเทพมหานคร,13.66639,100.60611,1007.85,08-01-2019,10:00:00,66,23.3,1008.14,11.1,28.59,0.01,200,0.30,10.00,30.4
48454,BANGKOK PORT (KLONG TOEI),กรุงเทพฯ ท่าเรือคลองเตย,กรุงเทพมหานคร,13.70694,100.56805,1007.75,08-01-2019,10:00:00,65,23.2,1008.43,5.6,28.50,0.00,160,0.50,10.00,30.5
48455,BANGKOK METROPOLIS,กรุงเทพมหานคร,กรุงเทพมหานคร,13.72639,100.56000,1007.00,08-01-2019,10:00:00,65,22.7,1007.49,9.3,27.55,0.00,150,0.40,10.00,30.0
48456,DON MUANG AIRPORT,สนามบินดอนเมือง,กรุงเทพมหานคร,13.91917,100.60500,1006.57,08-01-2019,10:00:00,63,22.6,1007.97,22.2,27.49,0.00,240,0.40,10.00,30.4
48457,PILOT STATION,นำร่อง,สมุทรปราการ,13.39389,100.59944,1006.55,08-01-2019,10:00:00,67,23.7,1008.21,18.5,29.33,0.00,210,5.70,10.00,30.5
48458,CHACHOENGSAO,ฉะเชิงเทรา,ฉะเชิงเทรา,13.51556,101.45833,1001.82,08-01-2019,10:00:00,68,23.5,1009.76,3.7,28.91,0.00,220,2.50,10.00,30.0
48459,CHON BURI,ชลบุรี,ชลบุรี,13.36667,100.98333,1007.49,08-01-2019,10:00:00,74,25.5,1007.78,0.0,32.67,0.00,000,2.30,10.00,30.6
48460,KO SICHANG,เกาะสีชัง,ชลบุรี,13.16167,100.80194,1004.39,08-01-2019,10:00:00,68,24.0,1007.49,5.6,29.89,0.00,230,0.00,10.00,30.5
48461,PHATTHAYA,พัทยา,ชลบุรี,12.92000,100.86944,1001.74,08-01-2019,10:00:00,75,24.2,1008.64,16.7,30.21,0.00,270,0.80,10.00,29.1
48462,ARANYA PRATHET,อรัญประเทศ,สระแก้ว,13.70000,102.58333,1002.12,08-01-2019,10:00:00,69,23.7,1007.67,11.1,29.39,0.00,220,0.00,8.00,30.1
48463,LAEM CHABANG,แหลมฉบัง,ชลบุรี,13.07694,100.87583,999.88,08-01-2019,10:00:00,70,24.0,1009.12,18.5,29.75,0.00,270,2.00,10.00,30.0
48464,RATCHA BURI,ราชบุรี,ราชบุรี,13.48931,99.79239,1007.57,08-01-2019,10:00:00,70,23.5,1008.83,14.8,28.97,0.00,270,0.01,14.00,29.6
48465,PHETCHA BURI,เพชรบุรี,เพชรบุรี,12.99944,100.06056,1007.84,08-01-2019,10:00:00,68,22.9,1008.27,20.4,27.96,0.00,220,0.90,11.00,29.5
48474,NONG PHLUB AGROMET.,หนองพลับ สกษ.,ประจวบคีรีขันธ์,12.58333,99.73333,996.59,08-01-2019,10:00:00,86,23.7,1008.90,3.7,29.33,3.90,300,7.10,8.00,26.2
48475,HUA HIN,หัวหิน,ประจวบคีรีขันธ์,12.58611,99.96250,1008.18,08-01-2019,10:00:00,94,25.9,1008.90,11.1,33.34,1.60,210,2.30,9.00,27.0
48477,SATTAHIP,สัตหีบ,ชลบุรี,12.68333,100.98333,1006.28,08-01-2019,10:00:00,70,24.3,1008.69,25.9,30.46,0.00,270,10.30,10.00,30.5
48478,RAYONG,ระยอง,ระยอง,12.63222,101.34361,1008.00,08-01-2019,10:00:00,75,25.0,1008.51,18.5,31.72,0.00,280,12.50,10.00,30.0
48479,HUAI PONG AGROMET.,ห้วยโป่ง สกษ.,ระยอง,12.73333,101.13333,1003.23,08-01-2019,10:00:00,63,23.6,1008.31,5.6,29.15,0.00,280,16.80,10.00,31.4
48480,CHANTHA BURI,จันทบุรี,จันทบุรี,12.61667,102.11333,1008.00,08-01-2019,10:00:00,70,24.8,1008.41,0.0,31.27,0.01,000,21.90,6.00,30.9
48481,PHLIU  AGROMET.,พลิ้ว สกษ.,จันทบุรี,12.50861,102.17305,1006.07,08-01-2019,10:00:00,73,24.4,1008.82,7.4,30.55,0.00,240,32.60,8.00,29.7
48500,PRACHUAP KHIRIKHAN,ประจวบคีรีขันธ์,ประจวบคีรีขันธ์,11.83333,99.83333,1008.88,08-01-2019,10:00:00,72,22.9,1009.67,5.6,27.97,0.30,260,10.40,6.00,28.5
48501,TRAD,ตราด,ตราด,11.76667,102.88333,1008.52,08-01-2019,10:00:00,80,25.4,1008.97,3.7,32.38,3.20,220,26.40,7.00,29.2
48517,CHUMPHON,ชุมพร,ชุมพร,10.49875,99.18847,1008.04,08-01-2019,10:00:00,63,23.3,1008.72,7.4,28.68,0.00,260,0.01,8.00,31.3
48520,SAWI AGROMET.,สวี สกษ.,ชุมพร,10.33333,99.10000,1008.32,08-01-2019,10:00:00,67,24.3,1009.83,7.4,30.45,0.00,270,0.00,9.00,31.2
48532,RANONG,ระนอง,ระนอง,9.98333,98.61667,1010.55,08-01-2019,10:00:00,79,22.5,1011.47,3.7,27.25,7.70,140,7.70,10.00,26.5
48550,KO SAMUI,เกาะสมุย,สุราษฎร์ธานี,9.46667,100.05000,1009.33,08-01-2019,10:00:00,62,24.4,1010.01,5.6,30.53,0.00,270,0.00,10.00,32.5
48551,SURAT THANI,สุราษฎร์ธานี,สุราษฎร์ธานี,9.13556,99.15194,1010.28,08-01-2019,10:00:00,69,25.1,1011.07,7.4,31.93,0.00,270,0.00,10.00,31.5
48552,NAKHONSI THAMMARAT,นครศรีธรรมราช,นครศรีธรรมราช,8.53778,99.96389,1009.96,08-01-2019,10:00:00,63,23.6,1010.59,0.0,29.07,0.00,000,0.00,10.00,31.5
48554,NAKHONSI THAMMARAT AGROMET.,นครศรีธรรมราช สกษ.,นครศรีธรรมราช,8.35931,100.00000,1010.27,08-01-2019,10:00:00,78,25.8,1010.67,0.0,33.17,0.00,000,0.00,10.00,30.0
48555,SURAT THANI AGROMET.,สุราษฎร์ธานี สกษ.,สุราษฎร์ธานี,9.10000,99.63333,1007.82,08-01-2019,10:00:00,61,22.9,1011.99,7.4,27.93,0.00,230,0.00,6.00,31.2
48556,PHRA SANG,พระแสง สอท.,สุราษฎร์ธานี,8.57022,99.25825,1009.52,08-01-2019,10:00:00,62,22.4,1011.12,0.0,27.06,0.00,000,0.00,10.00,30.6
48557,CHAWANG,ฉวาง,นครศรีธรรมราช,8.43194,99.51194,1007.50,08-01-2019,10:00:00,71,24.7,1010.94,0.0,31.15,0.00,000,0.00,12.00,30.7
48560,PHATTHALUNG AGROMET.,พัทลุง สกษ.,พัทลุง,7.58333,100.16667,1009.26,08-01-2019,10:00:00,66,23.7,1010.60,9.3,29.28,0.00,300,0.00,8.00,30.9
48561,TAKUA PA,ตะกั่วป่า,พังงา,8.68417,98.25222,1010.53,08-01-2019,10:00:00,79,25.3,1011.42,22.2,32.30,6.20,270,10.80,10.00,29.3
48563,KRABI,กระบี่,กระบี่,8.10361,98.97528,1007.45,08-01-2019,10:00:00,67,24.2,1010.97,7.4,30.25,0.00,260,0.00,10.00,31.1
48564,PHUKET,ภูเก็ต,ภูเก็ต,7.88333,98.40000,1010.72,08-01-2019,10:00:00,62,24.0,1011.15,11.1,29.83,0.00,280,0.00,10.00,32.3
48565,PHUKET AIRPORT,ภูเก็ต (ศูนย์ฯ),ภูเก็ต,8.14500,98.31444,1009.63,08-01-2019,10:00:00,67,24.8,1010.61,7.4,31.27,0.00,290,0.00,10.00,31.6
48566,KO LANTA,เกาะลันตา,กระบี่,7.53333,99.05000,1010.26,08-01-2019,10:00:00,77,25.5,1011.07,27.8,32.59,0.00,270,0.00,10.00,30.0
48567,TRANG AIRPORT,ตรัง,ตรัง,7.51667,99.61667,1009.31,08-01-2019,10:00:00,80,25.7,1011.11,9.3,33.00,0.00,210,0.00,7.00,29.5
48568,SONGKHLA,สงขลา,สงขลา,7.18211,100.60769,1010.38,08-01-2019,10:00:00,59,22.8,1011.12,13.0,27.71,0.00,250,0.00,11.00,31.8
48569,HAT YAI AIRPORT,หาดใหญ่,สงขลา,6.91667,100.43333,1007.24,08-01-2019,10:00:00,66,24.1,1011.20,14.8,29.96,0.00,240,0.00,10.00,31.1
48570,SATUN,สตูล,สตูล,6.65000,100.08333,1011.22,08-01-2019,10:00:00,75,24.5,1011.90,0.0,30.80,0.00,000,0.00,10.00,29.4
48571,KHO HONG AGROMET.,คอหงษ์ สกษ.,สงขลา,7.00000,100.50000,1010.01,08-01-2019,10:00:00,68,24.4,1011.12,0.0,30.53,0.00,000,0.00,10.00,31.1
48574,SA DAO,สะเดา,สงขลา,6.79806,100.39056,1008.62,08-01-2019,10:00:00,74,25.3,1011.52,11.1,32.17,0.00,240,0.00,11.00,30.5
48581,YALA AGROMET.,ยะลา สกษ.,ยะลา,6.51667,101.28333,1007.75,08-01-2019,10:00:00,73,24.8,1011.85,9.3,31.27,0.00,260,0.00,8.00,30.2
