WmoStationNumber,StationNameEnglish,StationNameThai,Province,Latitude,Longitude,RelativeHumidity,Date,Time,Rainfall24Hr,DewPoint,Rainfall,MaximumTemperature,LandVisibility,StationPressure,WindSpeed,AirTemperature,VaporPressure,WindDirection,MeanSeaLevelPressure
48300,MAE HONG SON,แม่ฮ่องสอน,แม่ฮ่องสอน,19.29897,97.97578,84,08-06-2019,19:00:00,12.90,24.5,0.01,30.1,10.00,972.60,0.0,27.5,30.70,000,1003.25
48302,DOI ANG KANG,ดอยอ่างขาง,เชียงใหม่,19.93139,99.04833,98,08-06-2019,19:00:00,17.90,18.9,0.00,21.3,8.00,842.21,0.0,19.2,21.79,000,1002.57
48303,CHIANG RAI,เชียงราย,เชียงราย,19.96139,99.88139,86,08-06-2019,19:00:00,10.30,24.7,5.00,32.5,10.00,959.65,0.0,27.3,31.14,000,1002.86
48304,CHAING RAI AGROMET.,เชียงราย สกษ.,เชียงราย,19.87083,99.78278,87,08-06-2019,19:00:00,0.00,24.3,0.00,31.4,15.00,957.75,0.0,26.6,30.34,000,1002.94
48307,THUNG CHANG,ทุ่งช้าง,น่าน,19.41194,100.88353,92,08-06-2019,19:00:00,20.80,25.6,0.20,30.5,8.00,966.87,0.0,27.0,32.77,000,1004.24
48310,PHAYAO,พะเยา,พะเยา,19.13333,99.90000,78,08-06-2019,19:00:00,0.00,23.2,0.00,32.5,12.00,958.41,5.6,27.3,28.43,180,1003.06
48315,THA WANGPHA,ท่าวังผา,น่าน,19.11056,100.80250,79,08-06-2019,19:00:00,17.10,25.8,0.00,32.3,12.00,977.14,0.0,29.9,33.25,000,1003.44
48324,THOEN,เถิน,ลำปาง,17.63661,99.24475,82,08-06-2019,19:00:00,0.40,24.0,0.01,29.7,10.00,982.77,0.0,27.3,29.77,000,1004.40
48325,MAE SARIANG,แม่สะเรียง,แม่ฮ่องสอน,18.16667,97.93333,94,08-06-2019,19:00:00,17.00,24.2,6.50,27.5,5.00,980.49,0.0,25.2,30.15,000,1004.62
48327,CHIANG MAI,เชียงใหม่,เชียงใหม่,18.79000,98.97694,77,08-06-2019,19:00:00,0.60,23.6,0.00,30.7,10.00,969.80,0.0,28.0,29.19,000,1003.99
48328,LAMPANG,ลำปาง,ลำปาง,18.28333,99.51667,76,08-06-2019,19:00:00,5.10,23.5,0.00,31.5,10.00,976.82,0.0,28.2,29.03,000,1004.10
48329,LAMPHUN,ลำพูน,ลำพูน,18.56722,99.03389,88,08-06-2019,19:00:00,2.00,25.4,0.30,30.5,10.00,970.22,0.0,27.5,32.36,000,1003.51
48330,PHRAE,แพร่,แพร่,18.16667,100.16667,82,08-06-2019,19:00:00,4.00,24.9,0.00,31.9,15.00,985.55,0.0,28.2,31.51,000,1003.90
48331,NAN,น่าน,น่าน,18.77972,100.77778,71,08-06-2019,19:00:00,3.70,24.2,0.00,34.0,10.00,980.96,0.0,30.1,30.22,000,1003.43
48333,NAN AGROMET.,น่าน สกษ.,น่าน,18.86667,100.75000,73,08-06-2019,19:00:00,2.90,24.5,0.00,31.9,10.00,973.73,0.0,29.9,30.67,000,1003.15
48334,LAMPANG AGROMET.,ลำปาง สกษ.,ลำปาง,18.31667,99.28333,89,08-06-2019,19:00:00,2.20,25.2,0.00,29.8,6.00,970.17,0.0,27.2,32.05,000,1005.49
48350,LOEI AGROMET.,เลย สกษ.,เลย,17.40000,101.73333,67,08-06-2019,19:00:00,2.30,21.8,0.00,33.8,15.00,974.04,0.0,28.5,26.13,000,1003.43
48351,UTTARADIT,อุตรดิตถ์,อุตรดิตถ์,17.61667,100.10000,78,08-06-2019,19:00:00,27.80,24.7,0.00,33.5,10.00,996.62,0.0,29.0,31.13,000,1003.86
48352,NONG KHAI,หนองคาย,หนองคาย,17.86717,102.73303,71,08-06-2019,19:00:00,3.00,25.6,0.00,34.2,12.00,982.78,0.0,31.5,32.81,000,1002.28
48353,LOEI,เลย,เลย,17.45000,101.73333,59,08-06-2019,19:00:00,0.30,21.4,0.00,33.4,5.00,975.17,13.0,30.2,25.52,270,1003.38
48354,UDON THANI,อุดรธานี,อุดรธานี,17.38333,102.80000,68,08-06-2019,19:00:00,0.00,24.5,0.00,34.0,15.00,983.06,3.7,31.1,30.82,240,1002.86
48355,SAKON NAKHON AGROMET.,สกลนคร สกษ.,สกลนคร,17.12503,104.06100,83,08-06-2019,19:00:00,0.00,26.1,0.00,33.2,12.00,981.55,0.0,29.2,33.83,000,1003.02
48356,SAKON NAKHON,สกลนคร,สกลนคร,17.15000,104.13333,76,08-06-2019,19:00:00,0.00,25.6,0.00,33.1,15.00,983.59,0.0,30.4,32.84,000,1002.77
48357,NAKHON PHANOM,นครพนม,นครพนม,17.41083,104.78250,87,08-06-2019,19:00:00,2.00,25.2,0.80,31.6,10.00,987.01,0.0,27.6,32.00,000,1003.65
48358,NAKHON PHANOM AGROMET.,นครพนม สกษ.,นครพนม,17.44306,104.77361,88,08-06-2019,19:00:00,3.00,25.9,0.00,31.1,12.00,986.46,0.0,28.0,33.37,000,1003.74
48360,NONG BUA LAM PHU,หนองบัวลำภู,หนองบัวลำภู,17.23250,102.42944,86,08-06-2019,19:00:00,6.10,26.5,0.60,33.8,13.00,976.78,0.0,29.0,34.58,000,1002.25
48372,SUKHOTHAI*,สุโขทัย,สุโขทัย,17.10611,99.80000,91,08-06-2019,19:00:00,12.40,26.2,0.30,31.0,10.00,998.33,0.0,27.9,34.03,000,1004.08
48373,SI SAMRONG AGROMET.,ศรีสำโรง สกษ.,สุโขทัย,17.16136,99.86167,97,08-06-2019,19:00:00,24.20,25.8,0.70,30.7,10.00,997.82,0.0,26.4,33.27,000,1004.01
48374,LOM SAK,หล่มสัก,เพชรบูรณ์,16.77361,101.24944,71,08-06-2019,19:00:00,1.70,23.8,0.00,32.9,10.00,988.10,0.0,29.7,29.44,000,1004.35
48375,MAE SOT,แม่สอด,ตาก,16.65917,98.55083,92,08-06-2019,19:00:00,19.20,24.0,1.50,27.0,10.00,981.17,5.6,25.5,29.91,060,1003.52
48376,TAK,ตาก,ตาก,16.87833,99.14333,98,08-06-2019,19:00:00,6.40,26.4,0.20,29.5,6.00,990.41,0.0,26.8,34.36,000,1004.78
48377,BHUMIBOL DAM,เขื่อนภูมิพล,ตาก,17.24389,99.00250,93,08-06-2019,19:00:00,11.40,24.6,0.20,28.0,7.00,987.78,0.0,25.8,31.00,000,1004.18
48378,PHITSANULOK,พิษณุโลก,พิษณุโลก,16.79481,100.27930,77,08-06-2019,19:00:00,2.60,25.1,0.00,32.4,10.00,999.40,0.0,29.5,31.85,000,1004.57
48379,PHETCHABUN,เพชรบูรณ์,เพชรบูรณ์,16.43333,101.15000,74,08-06-2019,19:00:00,1.40,24.4,0.00,32.6,12.00,989.58,0.0,29.6,30.63,000,1002.60
48380,KAMPHAENG PHET,กำแพงเพชร,กำแพงเพชร,16.48681,99.52697,89,08-06-2019,19:00:00,4.20,25.8,0.01,31.2,9.00,994.89,3.7,27.8,33.25,270,1004.16
48381,KHON KAEN,ขอนแก่น,ขอนแก่น,16.46111,102.78972,56,08-06-2019,19:00:00,0.01,22.5,0.00,34.8,10.00,981.55,3.7,32.4,27.22,250,1002.77
48382,MAHASARAKHAM,มหาสารคาม,มหาสารคาม,16.24722,103.06805,71,08-06-2019,19:00:00,0.00,24.3,0.00,35.2,10.00,986.32,5.6,30.0,30.31,100,1003.59
48383,MUKDAHAN,มุกดาหาร,มุกดาหาร,16.54139,104.72889,85,08-06-2019,19:00:00,52.90,26.5,3.40,33.0,10.00,986.91,0.0,29.3,34.62,000,1002.55
48384,THA PHRA AGROMET.,ท่าพระ สกษ.,ขอนแก่น,16.33333,102.81667,63,08-06-2019,19:00:00,0.01,23.2,0.00,35.3,10.00,983.52,0.0,31.0,28.37,000,1002.07
48385,UMPHANG,อุ้มผาง,ตาก,16.02472,98.86444,95,08-06-2019,19:00:00,20.10,23.3,0.70,27.2,8.00,955.24,0.0,24.2,28.62,000,1006.69
48386,PICHIT AGROMET.,พิจิตร สกษ.,พิจิตร,16.43806,100.29250,75,08-06-2019,19:00:00,0.20,25.1,0.00,32.0,8.00,999.98,0.0,30.1,31.93,000,1003.88
48387,DOI MU SOE AGROMET.,ดอยมูเซอร์ สกษ.,ตาก,16.75000,98.93333,96,08-06-2019,19:00:00,17.90,20.8,0.30,22.5,.90,910.72,0.0,21.4,24.52,000,1005.71
48390,KALASIN,กาฬสินธุ์,กาฬสินธุ์,16.33250,103.58833,84,08-06-2019,19:00:00,2.50,27.9,0.00,34.0,8.00,987.29,0.0,30.9,37.54,000,1003.00
48400,NAKHON SAWAN,นครสวรรค์ ,นครสวรรค์,15.67183,100.13236,77,08-06-2019,19:00:00,2.90,26.0,0.00,32.2,8.00,1000.13,3.7,30.5,33.63,190,1004.11
48401,TAKFA AGROMET.,ตากฟ้า สกษ.,นครสวรรค์,15.34944,100.53028,74,08-06-2019,19:00:00,0.00,23.9,0.00,33.5,8.00,995.10,0.0,29.0,29.74,000,1005.69
48402,CHAINAT AGROMET.,ชัยนาท สกษ.,ชัยนาท,15.15000,100.18333,80,08-06-2019,19:00:00,1.10,25.4,0.00,32.5,9.00,1003.17,3.7,29.2,32.38,180,1005.08
48403,CHAIYAPHUM,ชัยภูมิ,ชัยภูมิ,15.80000,102.03333,43,08-06-2019,19:00:00,0.00,19.9,0.00,35.3,10.00,983.59,5.6,34.3,23.21,210,1003.90
48404,ROI ET AGROMET.,ร้อยเอ็ด สกษ.,ร้อยเอ็ด,16.07322,103.60844,62,08-06-2019,19:00:00,0.00,23.3,0.00,33.7,10.00,985.75,0.0,31.4,28.59,000,1003.09
48405,ROI ET,ร้อยเอ็ด,ร้อยเอ็ด,16.02000,103.74389,71,08-06-2019,19:00:00,0.00,25.8,0.00,34.0,10.00,986.57,0.0,31.7,33.24,000,1002.41
48407,UBON RATCHATHANI,อุบลราชธานี (ศูนย์ฯ),อุบลราชธานี,15.25000,104.86667,58,08-06-2019,19:00:00,0.60,21.8,0.00,32.4,10.00,989.29,0.0,31.1,26.11,000,1003.08
48408,UBON RATCHATHANI AGROMET.,อุบลราชธานี สกษ.,อุบลราชธานี,15.23914,105.02350,82,08-06-2019,19:00:00,1.00,26.5,0.00,32.5,8.00,989.37,0.0,30.0,34.64,000,1004.01
48409,SI SAKET AGROMET.,ศรีสะเกษ,ศรีสะเกษ,15.00000,104.05000,86,08-06-2019,19:00:00,0.01,24.4,0.01,33.2,8.00,989.61,3.7,27.0,30.56,200,1004.24
48410,UTHAITHANI,อุทัยธานี,อุทัยธานี,15.37417,100.03889,68,08-06-2019,19:00:00,0.70,24.5,0.00,32.5,10.00,1001.17,0.0,31.2,30.73,"{'0': '   ', '@attributes': {'Unit': 'degree'}}",1004.14
48413,WICHIAN BURI,วิเชียรบุรี,เพชรบูรณ์,15.65700,101.10800,68,08-06-2019,19:00:00,0.00,24.0,0.00,33.6,10.00,996.30,0.0,30.6,29.81,000,1004.14
48415,AYUTTHAYA,พระนครศรีอยุธยา,พระนครศรีอยุธยา,14.53472,100.72500,71,08-06-2019,19:00:00,6.60,24.3,0.00,33.7,6.00,1003.67,9.3,30.0,30.31,220,1004.76
48416,THA TUM,ท่าตูม,สุรินทร์,15.31667,103.68333,79,08-06-2019,19:00:00,18.10,23.9,0.00,33.0,8.00,990.25,0.0,28.0,29.74,000,1004.86
48417,NAKORNNAYOK,นครนายก,นครนายก,14.36222,101.39278,98,08-06-2019,19:00:00,18.80,19.5,0.00,23.1,.05,872.45,7.4,19.8,22.62,280,1007.35
48418,BUA CHUM,บัวชุม  ,ลพบุรี,15.26667,101.18736,69,08-06-2019,19:00:00,0.90,23.7,0.00,34.2,10.00,999.07,0.0,30.1,29.39,000,1004.87
48419,PATHUMTHANI,ปทุมธานี สกษ.,ปทุมธานี,14.10000,100.61667,73,08-06-2019,19:00:00,6.50,24.8,0.00,33.4,8.00,1004.75,0.0,30.2,31.27,000,1005.54
48420,Samut Prakarn,สมุทรปราการ สกษ.,สมุทรปราการ,13.51667,100.76167,75,08-06-2019,19:00:00,1.60,24.5,0.00,31.0,10.00,1006.25,7.4,29.4,30.80,210,1006.69
48421,THONG PHAPHUM,ทองผาภูมิ,กาญจนบุรี,14.74222,98.63639,90,08-06-2019,19:00:00,62.00,25.0,0.00,28.5,4.00,994.54,0.0,26.7,31.63,000,1005.84
48425,SUPHAN BURI,สุพรรณบุรี,สุพรรณบุรี,14.47444,100.13889,96,08-06-2019,19:00:00,17.50,25.0,14.40,33.2,10.00,1004.64,0.0,25.7,31.63,000,1005.66
48426,LOP BURI,ลพบุรี,ลพบุรี,14.79972,100.64500,71,08-06-2019,19:00:00,5.70,24.3,0.00,33.0,9.00,1003.32,0.0,30.0,30.31,000,1005.12
48427,U THONG AGROMET.,อู่ทอง สกษ.,สุพรรณบุรี,14.30361,99.86472,93,08-06-2019,19:00:00,3.40,25.7,0.50,31.7,7.00,1004.52,0.0,27.0,33.06,000,1005.29
48429,SUVARNABHUMI AIRPORT,สนามบินสุวรรณภูมิ,สมุทรปราการ,13.68639,100.76750,78,08-06-2019,19:00:00,5.80,24.1,0.01,32.7,10.00,1005.37,7.4,28.3,30.04,210,1006.07
48430,PRACHIN BURI,ปราจีนบุรี,ปราจีนบุรี,14.05842,101.36930,77,08-06-2019,19:00:00,10.00,25.7,0.00,33.2,7.00,1004.55,0.0,30.2,33.00,000,1005.25
48431,NAKHON RATCHASIMA,นครราชสีมา,นครราชสีมา,14.96830,102.08603,68,08-06-2019,19:00:00,0.00,24.0,0.00,35.6,10.00,983.89,3.7,30.5,29.89,250,1004.75
48432,SURIN,สุรินทร์,สุรินทร์,14.88333,103.50000,81,08-06-2019,19:00:00,0.50,24.3,0.10,34.2,9.00,987.19,0.0,27.9,30.37,000,1003.80
48433,SURIN AGROMET.,สุรินทร์ สกษ.,สุรินทร์,14.88333,103.45000,80,08-06-2019,19:00:00,1.70,24.0,0.70,34.7,8.00,987.55,0.0,27.8,29.90,000,1003.88
48434,CHOK CHAI,โชคชัย,นครราชสีมา,14.71889,102.16861,61,08-06-2019,19:00:00,0.01,21.9,0.00,35.1,10.00,983.23,5.6,30.3,26.23,290,1004.80
48435,PAKCHONG AGROMET.,ปากช่อง สกษ.,นครราชสีมา,14.64389,101.33194,80,08-06-2019,19:00:00,3.20,22.8,0.01,29.6,10.00,962.06,7.4,26.6,27.69,210,1005.27
48436,NANG RONG,นางรอง,บุรีรัมย์,14.58333,102.80000,56,08-06-2019,19:00:00,0.00,21.2,0.00,36.8,12.00,983.86,14.8,31.2,25.22,240,1004.08
48437,BURIRUM,บุรีรัมย์,บุรีรัมย์,15.22575,103.24808,83,08-06-2019,19:00:00,0.00,25.4,0.00,35.6,9.00,984.43,9.3,28.5,32.39,020,1005.10
48438,SAMUTSONGKRAM,สมุทรสงคราม,สมุทรสงคราม,13.40778,100.03222,83,08-06-2019,19:00:00,7.50,25.8,0.01,30.0,10.00,1005.14,5.6,29.0,33.12,170,1005.57
48439,KABIN BURI,กบินทร์บุรี,ปราจีนบุรี,13.98333,101.70722,83,08-06-2019,19:00:00,1.10,25.1,0.00,32.8,8.00,1003.18,0.0,28.2,31.79,000,1004.59
48440,SA KAEW,สระแก้ว,สระแก้ว,13.78889,102.03472,84,08-06-2019,19:00:00,1.30,24.8,0.00,32.4,7.00,1000.72,1.9,27.8,31.28,230,1005.63
48450,KANCHANA BURI,กาญจนบุรี,กาญจนบุรี,14.02250,99.53583,80,08-06-2019,19:00:00,4.80,24.6,0.00,30.3,10.00,1002.09,3.7,28.3,30.87,200,1005.36
48451,NAKHONPATHOM,นครปฐม,นครปฐม,14.01167,99.97000,78,08-06-2019,19:00:00,2.50,25.6,0.00,32.0,10.00,1005.07,0.0,29.8,32.75,000,1006.17
48453,BANG NA AGROMET.,กรุงเทพฯ บางนา สกษ.,กรุงเทพมหานคร,13.66639,100.60611,78,08-06-2019,19:00:00,1.20,24.8,0.01,33.5,10.00,1005.46,5.6,28.9,31.21,190,1005.76
48454,BANGKOK PORT (KLONG TOEI),กรุงเทพฯ ท่าเรือคลองเตย,กรุงเทพมหานคร,13.70694,100.56805,77,08-06-2019,19:00:00,5.60,24.9,0.00,32.4,10.00,1004.87,0.0,29.3,31.45,000,1005.55
48455,BANGKOK METROPOLIS,กรุงเทพมหานคร,กรุงเทพมหานคร,13.72639,100.56000,80,08-06-2019,19:00:00,5.30,25.1,0.00,33.2,10.00,1005.85,0.0,28.8,31.86,000,1006.34
48456,DON MUANG AIRPORT,สนามบินดอนเมือง,กรุงเทพมหานคร,13.91917,100.60500,85,08-06-2019,19:00:00,1.20,25.7,0.80,31.6,10.00,1004.75,0.0,28.5,32.96,000,1006.15
48457,PILOT STATION,นำร่อง,สมุทรปราการ,13.39389,100.59944,88,08-06-2019,19:00:00,19.00,25.4,0.00,30.0,10.00,1004.29,18.5,27.5,32.36,190,1005.97
48458,CHACHOENGSAO,ฉะเชิงเทรา,ฉะเชิงเทรา,13.51556,101.45833,86,08-06-2019,19:00:00,1.70,25.3,0.00,32.7,10.00,999.46,0.0,27.9,32.32,000,1007.44
48459,CHON BURI,ชลบุรี,ชลบุรี,13.36667,100.98333,75,08-06-2019,19:00:00,12.90,25.6,0.00,33.0,10.00,1005.38,0.0,30.5,32.75,000,1005.66
48460,KO SICHANG,เกาะสีชัง,ชลบุรี,13.16167,100.80194,78,08-06-2019,19:00:00,3.50,24.7,0.00,31.0,10.00,1002.28,9.3,29.0,31.13,270,1005.39
48461,PHATTHAYA,พัทยา,ชลบุรี,12.92000,100.86944,86,08-06-2019,19:00:00,11.70,25.3,0.00,30.4,10.00,999.40,0.0,27.9,32.32,000,1006.31
48462,ARANYA PRATHET,อรัญประเทศ,สระแก้ว,13.70000,102.58333,81,08-06-2019,19:00:00,0.20,24.9,0.00,34.0,8.00,1000.20,3.7,28.5,31.54,200,1005.76
48463,LAEM CHABANG,แหลมฉบัง,ชลบุรี,13.07694,100.87583,84,08-06-2019,19:00:00,1.60,24.9,0.00,32.7,10.00,997.83,16.7,27.8,31.56,220,1007.11
48464,RATCHA BURI,ราชบุรี,ราชบุรี,13.48931,99.79239,83,08-06-2019,19:00:00,17.20,25.5,0.00,31.5,10.00,1005.14,0.0,28.8,32.71,000,1006.40
48465,PHETCHA BURI,เพชรบุรี,เพชรบุรี,12.99944,100.06056,84,08-06-2019,19:00:00,5.40,26.1,0.00,31.7,11.00,1005.03,0.0,29.1,33.91,000,1005.46
48474,NONG PHLUB AGROMET.,หนองพลับ สกษ.,ประจวบคีรีขันธ์,12.58333,99.73333,93,08-06-2019,19:00:00,17.20,25.3,3.60,28.9,10.00,993.90,3.7,26.4,32.15,150,1006.17
48475,HUA HIN,หัวหิน,ประจวบคีรีขันธ์,12.58611,99.96250,94,08-06-2019,19:00:00,4.30,25.9,0.80,30.5,10.00,1005.24,0.0,27.0,33.34,000,1005.96
48477,SATTAHIP,สัตหีบ,ชลบุรี,12.68333,100.98333,82,08-06-2019,19:00:00,2.70,24.7,0.01,33.5,7.00,1004.01,3.7,28.0,31.11,190,1006.44
48478,RAYONG,ระยอง,ระยอง,12.63222,101.34361,88,08-06-2019,19:00:00,0.20,25.9,0.00,29.5,8.00,1005.97,5.6,28.0,33.37,150,1006.49
48479,HUAI PONG AGROMET.,ห้วยโป่ง สกษ.,ระยอง,12.73333,101.13333,84,08-06-2019,19:00:00,0.40,24.8,0.00,31.2,10.00,1001.30,5.6,27.8,31.28,220,1006.43
48480,CHANTHA BURI,จันทบุรี,จันทบุรี,12.61667,102.11333,91,08-06-2019,19:00:00,103.60,25.5,1.20,31.9,7.00,1006.49,0.0,27.1,32.69,000,1006.90
48481,PHLIU  AGROMET.,พลิ้ว สกษ.,จันทบุรี,12.50861,102.17305,79,08-06-2019,19:00:00,67.40,24.3,0.40,29.8,8.00,1004.33,0.0,28.3,30.31,000,1007.09
48500,PRACHUAP KHIRIKHAN,ประจวบคีรีขันธ์,ประจวบคีรีขันธ์,11.83333,99.83333,84,08-06-2019,19:00:00,4.60,24.6,4.50,31.7,6.00,1006.62,0.0,27.5,30.97,000,1007.41
48501,TRAD,ตราด,ตราด,11.76667,102.88333,96,08-06-2019,19:00:00,132.20,25.5,0.01,26.9,7.00,1007.03,0.0,26.2,32.59,000,1007.49
48517,CHUMPHON,ชุมพร,ชุมพร,10.49875,99.18847,78,08-06-2019,19:00:00,5.00,24.7,1.80,33.1,7.00,1006.27,0.0,29.0,31.13,000,1006.94
48520,SAWI AGROMET.,สวี สกษ.,ชุมพร,10.33333,99.10000,85,08-06-2019,19:00:00,2.60,25.7,0.20,32.8,6.00,1005.29,3.7,28.5,32.96,220,1006.81
48532,RANONG,ระนอง,ระนอง,9.98333,98.61667,84,08-06-2019,19:00:00,11.00,25.0,0.00,32.0,10.00,1007.20,3.7,28.0,31.67,240,1008.11
48550,KO SAMUI,เกาะสมุย,สุราษฎร์ธานี,9.46667,100.05000,57,08-06-2019,19:00:00,0.00,22.0,0.00,34.2,12.00,1006.07,5.6,31.4,26.40,270,1006.75
48551,SURAT THANI,สุราษฎร์ธานี,สุราษฎร์ธานี,9.13556,99.15194,68,08-06-2019,19:00:00,0.10,23.1,0.00,34.9,10.00,1007.13,3.7,29.5,28.23,250,1007.93
48552,NAKHONSI THAMMARAT,นครศรีธรรมราช,นครศรีธรรมราช,8.53778,99.96389,62,08-06-2019,19:00:00,0.00,22.7,0.00,35.7,10.00,1006.34,5.6,30.7,27.52,240,1006.97
48554,NAKHONSI THAMMARAT AGROMET.,นครศรีธรรมราช สกษ.,นครศรีธรรมราช,8.35931,100.00000,67,08-06-2019,19:00:00,0.00,23.2,0.00,36.2,10.00,1007.09,0.0,30.0,28.37,000,1007.49
48555,SURAT THANI AGROMET.,สุราษฎร์ธานี สกษ.,สุราษฎร์ธานี,9.10000,99.63333,59,08-06-2019,19:00:00,0.00,21.6,0.00,34.6,6.00,1004.66,5.6,30.6,25.72,240,1008.83
48556,PHRA SANG,พระแสง สอท.,สุราษฎร์ธานี,8.57022,99.25825,72,08-06-2019,19:00:00,0.00,23.3,0.00,33.8,10.00,1006.42,0.0,28.8,28.54,000,1008.02
48557,CHAWANG,ฉวาง,นครศรีธรรมราช,8.43194,99.51194,71,08-06-2019,19:00:00,0.00,23.2,0.00,35.0,10.00,1004.89,0.0,29.0,28.37,000,1008.34
48560,PHATTHALUNG AGROMET.,พัทลุง สกษ.,พัทลุง,7.58333,100.16667,62,08-06-2019,19:00:00,0.00,22.3,0.00,35.8,10.00,1005.91,5.6,30.5,26.87,320,1007.25
48561,TAKUA PA,ตะกั่วป่า,พังงา,8.68417,98.25222,70,08-06-2019,19:00:00,0.00,23.1,0.00,32.6,10.00,1007.08,9.3,29.2,28.21,240,1007.96
48563,KRABI,กระบี่,กระบี่,8.10361,98.97528,75,08-06-2019,19:00:00,0.00,23.5,0.00,33.2,10.00,1004.28,0.0,28.3,28.95,000,1007.83
48564,PHUKET,ภูเก็ต,ภูเก็ต,7.88333,98.40000,68,08-06-2019,19:00:00,0.00,24.2,0.00,35.1,10.00,1007.32,0.0,30.8,30.21,000,1007.76
48565,PHUKET AIRPORT,ภูเก็ต (ศูนย์ฯ),ภูเก็ต,8.14500,98.31444,63,08-06-2019,19:00:00,0.00,22.6,0.00,33.3,10.00,1006.58,5.6,30.4,27.49,320,1007.57
48566,KO LANTA,เกาะลันตา,กระบี่,7.53333,99.05000,72,08-06-2019,19:00:00,0.00,24.0,0.00,32.5,10.00,1007.14,0.0,29.5,29.88,000,1007.95
48567,TRANG AIRPORT,ตรัง,ตรัง,7.51667,99.61667,72,08-06-2019,19:00:00,0.00,24.7,0.00,34.6,10.00,1006.12,0.0,30.3,31.19,000,1007.91
48568,SONGKHLA,สงขลา,สงขลา,7.18211,100.60769,55,08-06-2019,19:00:00,0.00,21.8,0.00,36.3,11.00,1007.20,5.6,32.0,26.18,290,1007.94
48569,HAT YAI AIRPORT,หาดใหญ่,สงขลา,6.91667,100.43333,63,08-06-2019,19:00:00,0.00,22.9,0.00,35.9,10.00,1003.18,9.3,30.6,27.87,240,1007.12
48570,SATUN,สตูล,สตูล,6.65000,100.08333,71,08-06-2019,19:00:00,0.00,24.8,0.00,33.9,10.00,1007.00,0.0,30.6,31.23,000,1007.67
48571,KHO HONG AGROMET.,คอหงษ์ สกษ.,สงขลา,7.00000,100.50000,57,08-06-2019,19:00:00,0.00,22.5,0.00,36.0,10.00,1006.19,11.1,32.0,27.27,210,1007.29
48574,SA DAO,สะเดา,สงขลา,6.79806,100.39056,67,08-06-2019,19:00:00,0.00,23.9,0.00,34.9,10.00,1004.80,0.0,30.8,29.65,000,1007.69
48580,PATTANI AIRPORT,ปัตตานี,ปัตตานี,6.78333,101.15000,79,08-06-2019,19:00:00,0.00,26.6,0.00,35.0,8.00,1006.63,0.0,30.6,34.74,000,1007.31
48581,YALA AGROMET.,ยะลา สกษ.,ยะลา,6.51667,101.28333,71,08-06-2019,19:00:00,0.00,23.8,0.00,33.6,8.00,1003.51,0.0,29.6,29.52,000,1007.60
48583,NARATHIWAT,นราธิวาส,นราธิวาส,6.41667,101.81667,66,08-06-2019,19:00:00,0.00,23.2,0.00,33.5,10.00,1006.87,0.0,30.3,28.39,000,1007.45
