WmoStationNumber,StationNameEnglish,StationNameThai,Province,Latitude,Longitude,LandVisibility,Date,Time,DewPoint,Rainfall,VaporPressure,RelativeHumidity,Rainfall24Hr,WindDirection,StationPressure,WindSpeed,MeanSeaLevelPressure,AirTemperature
48300,MAE HONG SON,แม่ฮ่องสอน,แม่ฮ่องสอน,19.29897,97.97578,6.00,08-05-2019,04:00:00,24.1,0.00,30.05,95,10.00,000,968.31,0.0,999.08,25.0
48303,CHIANG RAI,เชียงราย,เชียงราย,19.96139,99.88139,8.00,08-05-2019,04:00:00,22.6,20.40,27.41,96,65.60,120,955.73,14.8,999.36,23.2
48304,CHAING RAI AGROMET.,เชียงราย สกษ.,เชียงราย,19.87083,99.78278,1.00,08-05-2019,04:00:00,22.2,26.20,26.82,97,75.80,000,953.91,0.0,999.53,22.7
48307,THUNG CHANG,ทุ่งช้าง,น่าน,19.41194,100.88353,4.00,08-05-2019,04:00:00,22.8,8.40,27.74,100,88.40,000,964.28,0.0,1002.09,22.8
48310,PHAYAO,พะเยา,พะเยา,19.13333,99.90000,5.00,08-05-2019,04:00:00,22.8,4.00,27.82,99,64.70,130,955.11,13.0,1000.27,23.0
48315,THA WANGPHA,ท่าวังผา,น่าน,19.11056,100.80250,4.00,08-05-2019,04:00:00,22.8,10.50,27.66,96,111.20,130,975.05,5.6,1001.87,23.5
48324,THOEN,เถิน,ลำปาง,17.63661,99.24475,7.00,08-05-2019,04:00:00,23.5,4.20,28.95,98,11.90,000,979.17,0.0,1000.98,23.8
48325,MAE SARIANG,แม่สะเรียง,แม่ฮ่องสอน,18.16667,97.93333,6.00,08-05-2019,04:00:00,23.1,0.80,28.20,92,6.70,000,975.72,0.0,999.80,24.4
48327,CHIANG MAI,เชียงใหม่,เชียงใหม่,18.79000,98.97694,8.00,08-05-2019,04:00:00,23.5,0.10,28.88,96,16.70,000,965.87,0.0,1000.36,24.2
48328,LAMPANG,ลำปาง,ลำปาง,18.28333,99.51667,7.00,08-05-2019,04:00:00,23.1,3.40,28.26,96,15.60,000,973.51,0.0,1001.11,23.7
48329,LAMPHUN,ลำพูน,ลำพูน,18.56722,99.03389,10.00,08-05-2019,04:00:00,23.7,0.00,29.25,94,15.00,000,967.03,0.0,1000.53,24.7
48330,PHRAE,แพร่,แพร่,18.16667,100.16667,7.00,08-05-2019,04:00:00,23.5,0.00,28.88,96,21.10,300,981.94,5.6,1000.46,24.2
48333,NAN AGROMET.,น่าน สกษ.,น่าน,18.86667,100.75000,5.00,08-05-2019,04:00:00,22.0,3.20,26.41,93,68.80,000,971.24,0.0,1001.26,23.2
48334,LAMPANG AGROMET.,ลำปาง สกษ.,ลำปาง,18.31667,99.28333,5.00,08-05-2019,04:00:00,23.8,0.80,29.41,96,13.60,000,965.08,0.0,1000.55,24.5
48350,LOEI AGROMET.,เลย สกษ.,เลย,17.40000,101.73333,4.00,08-05-2019,04:00:00,22.9,2.20,27.91,98,15.70,140,972.53,5.6,1002.42,23.2
48351,UTTARADIT,อุตรดิตถ์,อุตรดิตถ์,17.61667,100.10000,7.00,08-05-2019,04:00:00,23.5,5.90,28.88,96,16.80,000,993.96,0.0,1001.29,24.2
48352,NONG KHAI,หนองคาย,หนองคาย,17.86717,102.73303,10.00,08-05-2019,04:00:00,24.8,0.00,31.25,96,7.60,220,982.01,3.7,1001.89,25.5
48353,LOEI,เลย,เลย,17.45000,101.73333,4.00,08-05-2019,04:00:00,22.7,0.70,27.50,94,9.80,170,973.85,3.7,1002.65,23.7
48354,UDON THANI,อุดรธานี,อุดรธานี,17.38333,102.80000,12.00,08-05-2019,04:00:00,23.5,0.00,29.00,92,0.80,000,981.88,0.0,1002.07,25.0
48355,SAKON NAKHON AGROMET.,สกลนคร สกษ.,สกลนคร,17.12503,104.06100,10.00,08-05-2019,04:00:00,23.1,0.00,28.27,95,1.40,000,980.77,0.0,1002.60,24.0
48356,SAKON NAKHON,สกลนคร,สกลนคร,17.15000,104.13333,10.00,08-05-2019,04:00:00,24.3,0.00,30.38,98,2.40,170,982.62,3.7,1002.16,24.6
48357,NAKHON PHANOM,นครพนม,นครพนม,17.41083,104.78250,10.00,08-05-2019,04:00:00,23.4,0.00,28.81,93,13.30,110,986.20,1.9,1003.00,24.6
48360,NONG BUA LAM PHU,หนองบัวลำภู,หนองบัวลำภู,17.23250,102.42944,10.00,08-05-2019,04:00:00,23.5,0.00,29.00,92,0.70,000,974.92,0.0,1000.69,25.0
48372,SUKHOTHAI*,สุโขทัย,สุโขทัย,17.10611,99.80000,6.00,08-05-2019,04:00:00,24.7,9.00,31.20,99,13.90,140,995.73,5.6,1001.52,24.9
48373,SI SAMRONG AGROMET.,ศรีสำโรง สกษ.,สุโขทัย,17.16136,99.86167,6.00,08-05-2019,04:00:00,24.3,6.20,30.32,96,11.90,000,994.71,0.0,1000.91,25.0
48374,LOM SAK,หล่มสัก,เพชรบูรณ์,16.77361,101.24944,8.00,08-05-2019,04:00:00,23.9,3.30,29.57,97,4.30,000,986.60,0.0,1003.11,24.3
48375,MAE SOT,แม่สอด,ตาก,16.65917,98.55083,6.00,08-05-2019,04:00:00,22.8,10.30,27.66,96,54.10,180,977.61,9.3,1000.03,23.5
48376,TAK,ตาก,ตาก,16.87833,99.14333,5.00,08-05-2019,04:00:00,23.7,3.60,29.25,94,12.20,000,987.24,0.0,1001.66,24.7
48377,BHUMIBOL DAM,เขื่อนภูมิพล,ตาก,17.24389,99.00250,6.00,08-05-2019,04:00:00,23.1,1.50,28.18,96,5.40,000,984.18,0.0,1000.63,23.8
48378,PHITSANULOK,พิษณุโลก,พิษณุโลก,16.79481,100.27930,6.00,08-05-2019,04:00:00,24.0,3.70,29.77,96,6.50,000,996.74,0.0,1001.99,24.7
48379,PHETCHABUN,เพชรบูรณ์,เพชรบูรณ์,16.43333,101.15000,10.00,08-05-2019,04:00:00,23.6,1.40,29.16,93,15.70,000,988.62,0.0,1001.84,24.8
48380,KAMPHAENG PHET,กำแพงเพชร,กำแพงเพชร,16.48681,99.52697,4.00,08-05-2019,04:00:00,24.2,3.50,30.23,95,3.50,150,992.09,3.7,1001.42,25.1
48381,KHON KAEN,ขอนแก่น,ขอนแก่น,16.46111,102.78972,9.00,08-05-2019,04:00:00,22.7,0.00,27.55,84,0.20,210,980.72,7.4,1002.41,25.5
48382,MAHASARAKHAM,มหาสารคาม,มหาสารคาม,16.24722,103.06805,7.00,08-05-2019,04:00:00,22.3,0.00,26.88,80,0.01,200,985.02,3.7,1002.50,26.0
48383,MUKDAHAN,มุกดาหาร,มุกดาหาร,16.54139,104.72889,10.00,08-05-2019,04:00:00,23.7,0.00,29.29,89,0.00,000,986.20,0.0,1002.03,25.6
48384,THA PHRA AGROMET.,ท่าพระ สกษ.,ขอนแก่น,16.33333,102.81667,8.00,08-05-2019,04:00:00,24.7,0.00,31.11,93,0.00,200,982.67,5.6,1001.51,26.0
48385,UMPHANG,อุ้มผาง,ตาก,16.02472,98.86444,6.00,08-05-2019,04:00:00,20.2,1.30,23.62,87,15.80,000,952.30,0.0,1003.89,22.5
48386,PICHIT AGROMET.,พิจิตร สกษ.,พิจิตร,16.43806,100.29250,6.00,08-05-2019,04:00:00,24.0,0.01,29.91,92,0.01,000,997.99,0.0,1001.95,25.5
48387,DOI MU SOE AGROMET.,ดอยมูเซอร์ สกษ.,ตาก,16.75000,98.93333,1.20,08-05-2019,04:00:00,20.1,4.20,23.49,98,29.50,000,906.59,0.0,1001.49,20.4
48390,KALASIN,กาฬสินธุ์,กาฬสินธุ์,16.33250,103.58833,6.00,08-05-2019,04:00:00,23.8,0.00,29.44,92,0.20,000,986.58,0.0,1002.59,25.1
48400,NAKHON SAWAN,นครสวรรค์ ,นครสวรรค์,15.67183,100.13236,8.00,08-05-2019,04:00:00,24.6,0.10,30.85,97,0.20,180,998.03,3.7,1002.07,25.0
48401,TAKFA AGROMET.,ตากฟ้า สกษ.,นครสวรรค์,15.34944,100.53028,6.00,08-05-2019,04:00:00,23.2,0.20,28.47,92,14.10,000,993.10,0.0,1003.82,24.7
48402,CHAINAT AGROMET.,ชัยนาท สกษ.,ชัยนาท,15.15000,100.18333,8.00,08-05-2019,04:00:00,23.1,1.50,28.22,89,1.80,180,1000.65,7.4,1002.59,25.0
48403,CHAIYAPHUM,ชัยภูมิ,ชัยภูมิ,15.80000,102.03333,10.00,08-05-2019,04:00:00,22.9,0.00,27.88,88,0.00,220,982.04,3.7,1002.95,25.1
48404,ROI ET AGROMET.,ร้อยเอ็ด สกษ.,ร้อยเอ็ด,16.07322,103.60844,10.00,08-05-2019,04:00:00,22.8,0.00,27.81,85,0.10,000,984.73,0.0,1002.40,25.5
48405,ROI ET,ร้อยเอ็ด,ร้อยเอ็ด,16.02000,103.74389,10.00,08-05-2019,04:00:00,23.0,0.00,28.01,82,0.00,000,986.61,0.0,1002.74,26.2
48407,UBON RATCHATHANI,อุบลราชธานี (ศูนย์ฯ),อุบลราชธานี,15.25000,104.86667,10.00,08-05-2019,04:00:00,22.6,0.00,27.49,81,2.40,220,989.37,3.7,1003.39,26.2
48408,UBON RATCHATHANI AGROMET.,อุบลราชธานี สกษ.,อุบลราชธานี,15.23914,105.02350,8.00,08-05-2019,04:00:00,23.3,0.00,28.59,88,0.40,000,989.76,0.0,1004.62,25.5
48409,SI SAKET AGROMET.,ศรีสะเกษ,ศรีสะเกษ,15.00000,104.05000,7.00,08-05-2019,04:00:00,23.3,0.00,28.69,87,0.00,000,989.95,0.0,1004.65,25.7
48410,UTHAITHANI,อุทัยธานี,อุทัยธานี,15.37417,100.03889,10.00,08-05-2019,04:00:00,23.8,0.40,29.44,92,8.60,"{'@attributes': {'Unit': 'degree'}, '0': '   '}",999.08,0.0,1002.10,25.1
48413,WICHIAN BURI,วิเชียรบุรี,เพชรบูรณ์,15.65700,101.10800,7.00,08-05-2019,04:00:00,23.4,0.00,28.75,89,0.00,000,994.83,0.0,1002.79,25.3
48415,AYUTTHAYA,พระนครศรีอยุธยา,พระนครศรีอยุธยา,14.53472,100.72500,8.00,08-05-2019,04:00:00,23.3,0.00,28.67,88,1.60,180,1002.66,7.4,1003.77,25.4
48416,THA TUM,ท่าตูม,สุรินทร์,15.31667,103.68333,8.00,08-05-2019,04:00:00,23.4,0.00,28.70,85,0.00,100,989.99,3.7,1004.69,26.0
48417,NAKORNNAYOK,นครนายก,นครนายก,14.36222,101.39278,.05,08-05-2019,04:00:00,19.0,0.80,22.01,99,3.50,190,870.25,7.4,1005.10,19.2
48418,BUA CHUM,บัวชุม  ,ลพบุรี,15.26667,101.18736,10.00,08-05-2019,04:00:00,24.1,0.00,30.05,95,19.50,000,997.30,0.0,1003.19,25.0
48419,PATHUMTHANI,ปทุมธานี สกษ.,ปทุมธานี,14.10000,100.61667,8.00,08-05-2019,04:00:00,23.1,0.20,28.18,84,1.80,240,1003.11,3.7,1003.91,26.0
48421,THONG PHAPHUM,ทองผาภูมิ,กาญจนบุรี,14.74222,98.63639,3.00,08-05-2019,04:00:00,22.9,6.00,27.92,96,41.70,000,992.90,0.0,1004.31,23.5
48425,SUPHAN BURI,สุพรรณบุรี,สุพรรณบุรี,14.47444,100.13889,7.00,08-05-2019,04:00:00,24.8,2.70,31.22,97,3.30,180,1002.20,3.7,1003.21,25.2
48426,LOP BURI,ลพบุรี,ลพบุรี,14.79972,100.64500,7.00,08-05-2019,04:00:00,23.7,0.00,29.21,89,0.01,200,1001.79,3.7,1003.61,25.7
48427,U THONG AGROMET.,อู่ทอง สกษ.,สุพรรณบุรี,14.30361,99.86472,6.00,08-05-2019,04:00:00,24.3,1.20,30.32,96,1.70,000,1002.24,0.0,1003.01,25.0
48429,SUVARNABHUMI AIRPORT,สนามบินสุวรรณภูมิ,สมุทรปราการ,13.68639,100.76750,9.00,08-05-2019,04:00:00,24.7,0.20,31.02,87,0.20,200,1003.55,16.7,1004.25,27.1
48430,PRACHIN BURI,ปราจีนบุรี,ปราจีนบุรี,14.05842,101.36930,7.00,08-05-2019,04:00:00,24.6,0.01,30.94,86,0.01,090,1003.02,3.7,1003.72,27.2
48431,NAKHON RATCHASIMA,นครราชสีมา,นครราชสีมา,14.96830,102.08603,10.00,08-05-2019,04:00:00,22.8,0.00,27.69,80,0.01,280,982.01,1.9,1003.11,26.6
48432,SURIN,สุรินทร์,สุรินทร์,14.88333,103.50000,6.00,08-05-2019,04:00:00,23.0,0.00,28.07,86,0.00,000,986.80,0.0,1003.54,25.5
48433,SURIN AGROMET.,สุรินทร์ สกษ.,สุรินทร์,14.88333,103.45000,6.00,08-05-2019,04:00:00,22.5,0.00,27.29,84,0.00,180,987.64,3.7,1004.10,25.5
48434,CHOK CHAI,โชคชัย,นครราชสีมา,14.71889,102.16861,10.00,08-05-2019,04:00:00,20.5,0.00,24.04,70,0.00,160,981.52,3.7,1003.33,26.4
48435,PAKCHONG AGROMET.,ปากช่อง สกษ.,นครราชสีมา,14.64389,101.33194,12.00,08-05-2019,04:00:00,20.8,0.00,24.61,73,1.30,220,960.22,7.4,1003.44,26.0
48436,NANG RONG,นางรอง,บุรีรัมย์,14.58333,102.80000,8.00,08-05-2019,04:00:00,22.2,0.00,26.71,80,0.00,210,982.77,5.6,1003.33,25.9
48437,BURIRUM,บุรีรัมย์,บุรีรัมย์,15.22575,103.24808,8.00,08-05-2019,04:00:00,23.9,0.00,29.72,92,0.00,200,983.59,11.1,1004.46,25.4
48438,SAMUTSONGKRAM,สมุทรสงคราม,สมุทรสงคราม,13.40778,100.03222,10.00,08-05-2019,04:00:00,24.6,3.60,30.84,92,8.40,190,1003.84,3.7,1004.28,26.0
48439,KABIN BURI,กบินทร์บุรี,ปราจีนบุรี,13.98333,101.70722,6.00,08-05-2019,04:00:00,24.6,0.00,30.84,92,0.00,000,1002.31,0.0,1003.73,26.0
48440,SA KAEW,สระแก้ว,สระแก้ว,13.78889,102.03472,7.00,08-05-2019,04:00:00,24.7,0.00,31.17,95,0.01,000,999.26,0.0,1004.20,25.6
48450,KANCHANA BURI,กาญจนบุรี,กาญจนบุรี,14.02250,99.53583,10.00,08-05-2019,04:00:00,23.5,0.20,29.01,90,1.20,210,1000.27,3.7,1003.57,25.3
48451,NAKHONPATHOM,นครปฐม,นครปฐม,14.01167,99.97000,4.00,08-05-2019,04:00:00,24.1,0.30,30.05,95,1.30,000,1002.32,0.0,1003.43,25.0
48453,BANG NA AGROMET.,กรุงเทพฯ บางนา สกษ.,กรุงเทพมหานคร,13.66639,100.60611,8.00,08-05-2019,04:00:00,25.5,0.50,32.56,88,1.60,200,1003.59,3.7,1003.89,27.6
48455,BANGKOK METROPOLIS,กรุงเทพมหานคร,กรุงเทพมหานคร,13.72639,100.56000,8.00,08-05-2019,04:00:00,23.8,0.20,29.50,88,1.30,000,1003.20,0.0,1003.69,26.0
48456,DON MUANG AIRPORT,สนามบินดอนเมือง,กรุงเทพมหานคร,13.91917,100.60500,8.00,08-05-2019,04:00:00,24.5,2.80,30.70,89,3.80,250,1002.45,18.5,1003.86,26.5
48458,CHACHOENGSAO,ฉะเชิงเทรา,ฉะเชิงเทรา,13.51556,101.45833,10.00,08-05-2019,04:00:00,24.7,0.00,31.08,94,0.30,180,997.60,3.7,1005.63,25.7
48459,CHON BURI,ชลบุรี,ชลบุรี,13.36667,100.98333,10.00,08-05-2019,04:00:00,26.7,0.10,34.98,94,0.10,000,1003.24,0.0,1003.52,27.8
48460,KO SICHANG,เกาะสีชัง,ชลบุรี,13.16167,100.80194,10.00,08-05-2019,04:00:00,24.4,0.00,30.56,81,1.30,250,1000.80,5.6,1003.92,28.0
48461,PHATTHAYA,พัทยา,ชลบุรี,12.92000,100.86944,10.00,08-05-2019,04:00:00,25.1,0.00,31.95,85,0.00,210,997.75,14.8,1004.65,28.0
48462,ARANYA PRATHET,อรัญประเทศ,สระแก้ว,13.70000,102.58333,7.00,08-05-2019,04:00:00,24.3,0.00,30.43,88,0.00,000,999.78,0.0,1005.37,26.5
48464,RATCHA BURI,ราชบุรี,ราชบุรี,13.48931,99.79239,8.00,08-05-2019,04:00:00,24.5,0.10,30.75,98,5.00,000,1003.64,0.0,1004.91,24.8
48465,PHETCHA BURI,เพชรบุรี,เพชรบุรี,12.99944,100.06056,11.00,08-05-2019,04:00:00,24.6,1.80,31.00,93,3.30,200,1003.51,13.0,1003.94,25.8
48474,NONG PHLUB AGROMET.,หนองพลับ สกษ.,ประจวบคีรีขันธ์,12.58333,99.73333,8.00,08-05-2019,04:00:00,23.9,7.70,29.57,97,15.20,000,992.80,0.0,1005.14,24.3
48475,HUA HIN,หัวหิน,ประจวบคีรีขันธ์,12.58611,99.96250,8.00,08-05-2019,04:00:00,25.2,3.90,31.98,97,5.70,000,1003.96,0.0,1004.67,25.6
48477,SATTAHIP,สัตหีบ,ชลบุรี,12.68333,100.98333,10.00,08-05-2019,04:00:00,24.5,0.01,30.70,79,0.01,240,1002.41,14.8,1004.83,28.5
48478,RAYONG,ระยอง,ระยอง,12.63222,101.34361,8.00,08-05-2019,04:00:00,24.7,0.00,31.13,78,0.01,260,1003.81,16.7,1004.33,29.0
48479,HUAI PONG AGROMET.,ห้วยโป่ง สกษ.,ระยอง,12.73333,101.13333,8.00,08-05-2019,04:00:00,24.9,0.00,31.42,82,0.01,200,999.11,3.7,1004.23,28.3
48480,CHANTHA BURI,จันทบุรี,จันทบุรี,12.61667,102.11333,7.00,08-05-2019,04:00:00,25.3,0.00,32.20,87,8.60,000,1004.02,0.0,1004.43,27.7
48481,PHLIU  AGROMET.,พลิ้ว สกษ.,จันทบุรี,12.50861,102.17305,8.00,08-05-2019,04:00:00,24.3,3.80,30.32,96,11.00,000,1002.00,0.0,1004.78,25.0
48500,PRACHUAP KHIRIKHAN,ประจวบคีรีขันธ์,ประจวบคีรีขันธ์,11.83333,99.83333,10.00,08-05-2019,04:00:00,24.7,0.80,31.17,95,7.70,270,1004.20,5.6,1004.99,25.6
48501,TRAD,ตราด,ตราด,11.76667,102.88333,5.00,08-05-2019,04:00:00,24.9,18.60,31.58,99,156.90,320,1004.63,3.7,1005.09,25.1
48517,CHUMPHON,ชุมพร,ชุมพร,10.49875,99.18847,7.00,08-05-2019,04:00:00,24.6,0.00,30.84,92,6.00,210,1004.59,3.7,1005.28,26.0
48520,SAWI AGROMET.,สวี สกษ.,ชุมพร,10.33333,99.10000,7.00,08-05-2019,04:00:00,24.5,0.40,30.67,90,5.60,000,1004.30,0.0,1005.83,26.2
48532,RANONG,ระนอง,ระนอง,9.98333,98.61667,10.00,08-05-2019,04:00:00,24.3,0.00,30.34,78,6.20,230,1005.52,7.4,1006.43,28.6
48550,KO SAMUI,เกาะสมุย,สุราษฎร์ธานี,9.46667,100.05000,10.00,08-05-2019,04:00:00,23.7,0.00,29.30,77,0.00,000,1005.21,0.0,1005.89,28.2
48551,SURAT THANI,สุราษฎร์ธานี,สุราษฎร์ธานี,9.13556,99.15194,7.00,08-05-2019,04:00:00,24.4,0.00,30.48,97,1.30,000,1005.65,0.0,1006.45,24.8
48552,NAKHONSI THAMMARAT,นครศรีธรรมราช,นครศรีธรรมราช,8.53778,99.96389,10.00,08-05-2019,04:00:00,23.9,0.00,29.66,89,1.80,000,1004.84,0.0,1005.47,25.8
48554,NAKHONSI THAMMARAT AGROMET.,นครศรีธรรมราช สกษ.,นครศรีธรรมราช,8.35931,100.00000,10.00,08-05-2019,04:00:00,24.6,0.00,30.90,94,2.50,000,1005.98,0.0,1006.38,25.6
48555,SURAT THANI AGROMET.,สุราษฎร์ธานี สกษ.,สุราษฎร์ธานี,9.10000,99.63333,5.00,08-05-2019,04:00:00,25.6,0.10,32.86,93,0.10,230,1003.85,3.7,1008.06,26.9
48556,PHRA SANG,พระแสง สอท.,สุราษฎร์ธานี,8.57022,99.25825,6.00,08-05-2019,04:00:00,23.8,0.00,29.41,96,0.00,000,1005.86,0.0,1007.48,24.5
48557,CHAWANG,ฉวาง,นครศรีธรรมราช,8.43194,99.51194,6.00,08-05-2019,04:00:00,24.4,0.20,30.48,97,13.20,000,1003.98,0.0,1007.48,24.8
48560,PHATTHALUNG AGROMET.,พัทลุง สกษ.,พัทลุง,7.58333,100.16667,8.00,08-05-2019,04:00:00,23.6,0.00,29.18,92,0.00,000,1005.32,0.0,1006.68,25.1
48561,TAKUA PA,ตะกั่วป่า,พังงา,8.68417,98.25222,10.00,08-05-2019,04:00:00,24.2,0.00,30.23,83,0.50,240,1005.78,14.8,1006.67,27.4
48563,KRABI,กระบี่,กระบี่,8.10361,98.97528,10.00,08-05-2019,04:00:00,24.0,0.00,29.91,92,0.00,000,1003.65,0.0,1007.23,25.5
48564,PHUKET,ภูเก็ต,ภูเก็ต,7.88333,98.40000,10.00,08-05-2019,04:00:00,23.9,0.00,29.57,73,0.60,270,1006.58,11.1,1007.01,29.2
48565,PHUKET AIRPORT,ภูเก็ต (ศูนย์ฯ),ภูเก็ต,8.14500,98.31444,10.00,08-05-2019,04:00:00,24.2,0.00,30.16,73,0.01,240,1005.94,14.8,1006.93,29.5
48566,KO LANTA,เกาะลันตา,กระบี่,7.53333,99.05000,10.00,08-05-2019,04:00:00,25.5,0.00,32.59,80,0.00,260,1006.22,31.5,1007.03,29.3
48567,TRANG AIRPORT,ตรัง,ตรัง,7.51667,99.61667,10.00,08-05-2019,04:00:00,24.6,0.90,30.84,92,1.10,000,1005.27,0.0,1007.09,26.0
48568,SONGKHLA,สงขลา,สงขลา,7.18211,100.60769,8.00,08-05-2019,04:00:00,23.4,0.00,28.76,81,0.00,250,1006.20,1.9,1006.95,26.9
48569,HAT YAI AIRPORT,หาดใหญ่,สงขลา,6.91667,100.43333,5.00,08-05-2019,04:00:00,24.3,0.00,30.42,95,3.20,000,1003.55,0.0,1007.57,25.2
48570,SATUN,สตูล,สตูล,6.65000,100.08333,10.00,08-05-2019,04:00:00,23.6,0.00,29.10,91,8.60,000,1006.26,0.0,1006.95,25.2
48571,KHO HONG AGROMET.,คอหงษ์ สกษ.,สงขลา,7.00000,100.50000,10.00,08-05-2019,04:00:00,24.5,0.00,30.81,88,0.00,000,1006.04,0.0,1007.15,26.7
48574,SA DAO,สะเดา,สงขลา,6.79806,100.39056,10.00,08-05-2019,04:00:00,24.0,0.00,29.79,94,0.80,000,1004.68,0.0,1007.62,25.0
