WmoStationNumber,StationNameEnglish,StationNameThai,Province,Latitude,Longitude,StationPressure,Date,Time,Rainfall24Hr,LandVisibility,Rainfall,MeanSeaLevelPressure,DewPoint,WindSpeed,WindDirection,AirTemperature,RelativeHumidity,VaporPressure
48300,MAE HONG SON,แม่ฮ่องสอน,แม่ฮ่องสอน,19.29897,97.97578,974.14,08-01-2019,22:00:00,31.80,10.00,0.00,1005.02,24.6,0.0,000,25.8,93,31.00
48302,DOI ANG KANG,ดอยอ่างขาง,เชียงใหม่,19.93139,99.04833,842.51,08-01-2019,22:00:00,30.10,8.00,0.00,1003.22,18.5,11.1,260,18.7,99,21.33
48303,CHIANG RAI,เชียงราย,เชียงราย,19.96139,99.88139,960.07,08-01-2019,22:00:00,26.80,12.00,0.00,1003.63,22.5,0.0,000,25.0,86,27.19
48304,CHAING RAI AGROMET.,เชียงราย สกษ.,เชียงราย,19.87083,99.78278,958.74,08-01-2019,22:00:00,47.60,12.00,0.00,1004.38,22.8,0.0,000,24.0,93,27.76
48307,THUNG CHANG,ทุ่งช้าง,น่าน,19.41194,100.88353,966.77,08-01-2019,22:00:00,26.20,8.00,0.00,1004.21,24.5,0.0,000,26.4,89,30.78
48310,PHAYAO,พะเยา,พะเยา,19.13333,99.90000,959.64,08-01-2019,22:00:00,13.10,10.00,0.00,1004.70,23.5,14.8,110,25.0,92,29.00
48315,THA WANGPHA,ท่าวังผา,น่าน,19.11056,100.80250,978.36,08-01-2019,22:00:00,7.80,8.00,0.00,1004.95,24.4,0.0,000,27.0,86,30.56
48324,THOEN,เถิน,ลำปาง,17.63661,99.24475,983.98,08-01-2019,22:00:00,7.50,12.00,0.00,1005.75,23.9,1.9,030,25.7,90,29.74
48325,MAE SARIANG,แม่สะเรียง,แม่ฮ่องสอน,18.16667,97.93333,982.58,08-01-2019,22:00:00,8.00,8.00,0.40,1006.73,24.0,0.0,000,25.5,92,29.91
48327,CHIANG MAI,เชียงใหม่,เชียงใหม่,18.79000,98.97694,970.48,08-01-2019,22:00:00,11.80,10.00,0.60,1004.94,24.5,0.0,000,25.8,93,30.73
48328,LAMPANG,ลำปาง,ลำปาง,18.28333,99.51667,977.15,08-01-2019,22:00:00,24.50,7.00,8.00,1004.69,24.8,0.0,000,25.5,96,31.25
48329,LAMPHUN,ลำพูน,ลำพูน,18.56722,99.03389,971.13,08-01-2019,22:00:00,6.50,10.00,0.20,1004.56,25.1,0.0,000,26.5,92,31.79
48330,PHRAE,แพร่,แพร่,18.16667,100.16667,986.42,08-01-2019,22:00:00,42.60,10.00,0.00,1004.88,24.3,11.1,260,26.5,88,30.43
48331,NAN,น่าน,น่าน,18.77972,100.77778,981.80,08-01-2019,22:00:00,17.80,10.00,0.00,1004.54,24.5,0.0,000,26.7,88,30.81
48333,NAN AGROMET.,น่าน สกษ.,น่าน,18.86667,100.75000,974.91,08-01-2019,22:00:00,4.30,8.00,0.00,1004.83,23.4,0.0,000,25.2,90,28.83
48334,LAMPANG AGROMET.,ลำปาง สกษ.,ลำปาง,18.31667,99.28333,969.39,08-01-2019,22:00:00,38.10,5.00,14.80,1004.90,24.8,0.0,000,25.5,96,31.25
48350,LOEI AGROMET.,เลย สกษ.,เลย,17.40000,101.73333,974.09,08-01-2019,22:00:00,1.80,12.00,0.00,1003.75,24.3,0.0,000,25.8,92,30.46
48351,UTTARADIT,อุตรดิตถ์,อุตรดิตถ์,17.61667,100.10000,998.39,08-01-2019,22:00:00,28.80,8.00,0.01,1005.70,24.5,0.0,000,26.5,89,30.70
48352,NONG KHAI,หนองคาย,หนองคาย,17.86717,102.73303,983.14,08-01-2019,22:00:00,0.90,13.00,0.00,1002.88,25.4,3.7,210,28.0,86,32.52
48353,LOEI,เลย,เลย,17.45000,101.73333,975.65,08-01-2019,22:00:00,0.30,13.00,0.00,1004.23,22.8,0.0,000,26.5,80,27.77
48354,UDON THANI,อุดรธานี,อุดรธานี,17.38333,102.80000,983.63,08-01-2019,22:00:00,21.70,13.00,0.00,1003.72,23.2,7.4,240,27.0,80,28.41
48355,SAKON NAKHON AGROMET.,สกลนคร สกษ.,สกลนคร,17.12503,104.06100,982.51,08-01-2019,22:00:00,13.10,10.00,0.00,1004.20,22.1,7.4,270,26.4,77,26.56
48356,SAKON NAKHON,สกลนคร,สกลนคร,17.15000,104.13333,983.98,08-01-2019,22:00:00,2.90,10.00,0.00,1003.39,22.6,3.7,310,26.9,77,27.44
48357,NAKHON PHANOM,นครพนม,นครพนม,17.41083,104.78250,987.53,08-01-2019,22:00:00,24.10,10.00,0.00,1004.20,24.0,0.0,000,27.2,83,29.85
48358,NAKHON PHANOM AGROMET.,นครพนม สกษ.,นครพนม,17.44306,104.77361,987.04,08-01-2019,22:00:00,3.30,10.00,0.00,1004.40,24.5,0.0,000,26.8,87,30.72
48360,NONG BUA LAM PHU,หนองบัวลำภู,หนองบัวลำภู,17.23250,102.42944,978.23,08-01-2019,22:00:00,8.50,10.00,0.00,1003.96,23.6,0.0,000,26.5,84,29.08
48372,SUKHOTHAI*,สุโขทัย,สุโขทัย,17.10611,99.80000,999.96,08-01-2019,22:00:00,1.30,10.00,0.00,1005.74,23.4,5.6,210,27.2,80,28.78
48373,SI SAMRONG AGROMET.,ศรีสำโรง สกษ.,สุโขทัย,17.16136,99.86167,999.41,08-01-2019,22:00:00,0.80,7.00,0.20,1005.58,25.1,0.0,000,27.5,87,31.80
48374,LOM SAK,หล่มสัก,เพชรบูรณ์,16.77361,101.24944,990.18,08-01-2019,22:00:00,12.40,8.00,0.01,1006.70,24.1,9.3,170,25.4,92,29.99
48375,MAE SOT,แม่สอด,ตาก,16.65917,98.55083,984.25,08-01-2019,22:00:00,56.20,7.00,7.20,1006.83,22.0,3.7,300,23.4,92,26.50
48376,TAK,ตาก,ตาก,16.87833,99.14333,992.47,08-01-2019,22:00:00,7.80,6.00,1.20,1006.90,21.8,11.1,260,26.0,78,26.12
48377,BHUMIBOL DAM,เขื่อนภูมิพล,ตาก,17.24389,99.00250,989.14,08-01-2019,22:00:00,0.50,8.00,0.10,1005.48,22.0,0.0,000,27.4,73,26.51
48378,PHITSANULOK,พิษณุโลก,พิษณุโลก,16.79481,100.27930,1001.35,08-01-2019,22:00:00,2.40,10.00,0.00,1006.60,24.6,0.0,000,26.0,92,30.84
48379,PHETCHABUN,เพชรบูรณ์,เพชรบูรณ์,16.43333,101.15000,991.85,08-01-2019,22:00:00,7.20,10.00,1.00,1005.09,24.3,0.0,000,25.5,93,30.44
48380,KAMPHAENG PHET,กำแพงเพชร,กำแพงเพชร,16.48681,99.52697,996.99,08-01-2019,22:00:00,10.00,10.00,1.50,1006.30,25.6,0.0,000,27.0,92,32.77
48381,KHON KAEN,ขอนแก่น,ขอนแก่น,16.46111,102.78972,982.91,08-01-2019,22:00:00,7.20,10.00,0.00,1004.58,23.6,11.1,240,26.5,84,29.08
48382,MAHASARAKHAM,มหาสารคาม,มหาสารคาม,16.24722,103.06805,986.93,08-01-2019,22:00:00,5.20,10.00,0.00,1004.38,24.1,22.2,220,27.0,84,30.02
48383,MUKDAHAN,มุกดาหาร,มุกดาหาร,16.54139,104.72889,987.71,08-01-2019,22:00:00,59.00,10.00,0.00,1003.47,23.2,9.3,250,27.2,79,28.51
48384,THA PHRA AGROMET.,ท่าพระ สกษ.,ขอนแก่น,16.33333,102.81667,984.25,08-01-2019,22:00:00,1.20,8.00,0.00,1003.05,24.1,9.3,200,27.0,84,30.02
48385,UMPHANG,อุ้มผาง,ตาก,16.02472,98.86444,956.41,08-01-2019,22:00:00,28.00,5.00,2.70,1008.19,21.3,0.0,000,22.7,92,25.36
48386,PICHIT AGROMET.,พิจิตร สกษ.,พิจิตร,16.43806,100.29250,1002.27,08-01-2019,22:00:00,7.10,5.00,0.80,1006.23,25.1,7.4,140,26.3,93,31.96
48387,DOI MU SOE AGROMET.,ดอยมูเซอร์ สกษ.,ตาก,16.75000,98.93333,911.82,08-01-2019,22:00:00,54.20,.05,4.20,1007.38,19.9,22.2,200,20.1,99,23.28
48390,KALASIN,กาฬสินธุ์,กาฬสินธุ์,16.33250,103.58833,988.18,08-01-2019,22:00:00,16.00,8.00,0.00,1004.12,23.4,11.1,250,27.1,81,28.86
48400,NAKHON SAWAN,นครสวรรค์ ,นครสวรรค์,15.67183,100.13236,1003.09,08-01-2019,22:00:00,2.20,10.00,0.10,1007.12,24.2,0.0,000,27.2,84,30.12
48401,TAKFA AGROMET.,ตากฟ้า สกษ.,นครสวรรค์,15.34944,100.53028,997.97,08-01-2019,22:00:00,8.30,8.00,3.70,1008.75,23.5,0.0,000,24.5,94,28.89
48403,CHAIYAPHUM,ชัยภูมิ,ชัยภูมิ,15.80000,102.03333,985.66,08-01-2019,22:00:00,1.70,10.00,0.00,1006.63,22.3,9.3,250,25.3,84,26.95
48404,ROI ET AGROMET.,ร้อยเอ็ด สกษ.,ร้อยเอ็ด,16.07322,103.60844,986.45,08-01-2019,22:00:00,4.30,10.00,0.00,1004.04,22.6,14.8,210,27.3,75,27.37
48405,ROI ET,ร้อยเอ็ด,ร้อยเอ็ด,16.02000,103.74389,987.80,08-01-2019,22:00:00,2.90,10.00,0.00,1003.88,22.8,0.0,000,27.5,76,27.73
48407,UBON RATCHATHANI,อุบลราชธานี (ศูนย์ฯ),อุบลราชธานี,15.25000,104.86667,991.24,08-01-2019,22:00:00,4.80,10.00,0.00,1005.29,23.2,7.4,220,26.0,85,28.44
48408,UBON RATCHATHANI AGROMET.,อุบลราชธานี สกษ.,อุบลราชธานี,15.23914,105.02350,990.82,08-01-2019,22:00:00,5.50,8.00,0.00,1005.73,23.8,0.0,000,25.0,93,29.52
48409,SI SAKET AGROMET.,ศรีสะเกษ,ศรีสะเกษ,15.00000,104.05000,991.08,08-01-2019,22:00:00,9.40,6.00,0.00,1005.75,23.6,0.0,000,26.5,84,29.08
48410,UTHAITHANI,อุทัยธานี,อุทัยธานี,15.37417,100.03889,1004.39,08-01-2019,22:00:00,0.60,10.00,0.20,1007.41,21.8,0.0,"{'0': '   ', '@attributes': {'Unit': 'degree'}}",27.3,72,26.07
48413,WICHIAN BURI,วิเชียรบุรี,เพชรบูรณ์,15.65700,101.10800,999.36,08-01-2019,22:00:00,5.50,6.00,1.40,1007.36,23.8,7.4,090,25.4,91,29.46
48415,AYUTTHAYA,พระนครศรีอยุธยา,พระนครศรีอยุธยา,14.53472,100.72500,1007.13,08-01-2019,22:00:00,0.01,8.00,0.00,1008.24,22.0,7.4,230,26.5,77,26.47
48416,THA TUM,ท่าตูม,สุรินทร์,15.31667,103.68333,989.70,08-01-2019,22:00:00,15.10,8.00,0.00,1004.31,23.8,3.7,120,27.7,79,29.44
48417,NAKORNNAYOK,นครนายก,นครนายก,14.36222,101.39278,874.20,08-01-2019,22:00:00,13.70,8.00,0.80,1010.25,17.7,11.1,280,18.0,98,20.20
48418,BUA CHUM,บัวชุม  ,ลพบุรี,15.26667,101.18736,1002.13,08-01-2019,22:00:00,7.20,5.00,1.50,1008.05,24.3,0.0,000,25.0,96,30.32
48419,PATHUMTHANI,ปทุมธานี สกษ.,ปทุมธานี,14.10000,100.61667,1008.22,08-01-2019,22:00:00,0.00,8.00,0.00,1009.02,21.0,11.1,240,28.5,64,24.83
48420,Samut Prakarn,สมุทรปราการ สกษ.,สมุทรปราการ,13.51667,100.76167,1007.45,08-01-2019,22:00:00,0.00,10.00,0.00,1007.90,23.4,14.8,230,29.1,72,28.83
48421,THONG PHAPHUM,ทองผาภูมิ,กาญจนบุรี,14.74222,98.63639,999.18,08-01-2019,22:00:00,29.70,4.00,13.70,1010.63,22.8,0.0,000,24.0,93,27.76
48425,SUPHAN BURI,สุพรรณบุรี,สุพรรณบุรี,14.47444,100.13889,1007.29,08-01-2019,22:00:00,0.00,10.00,0.00,1008.30,21.8,3.7,200,27.6,71,26.09
48426,LOP BURI,ลพบุรี,ลพบุรี,14.79972,100.64500,1006.35,08-01-2019,22:00:00,0.30,7.00,0.10,1008.18,23.0,3.7,170,26.8,80,28.04
48427,U THONG AGROMET.,อู่ทอง สกษ.,สุพรรณบุรี,14.30361,99.86472,1007.42,08-01-2019,22:00:00,0.00,8.00,0.00,1008.19,20.7,3.7,260,27.5,66,24.38
48429,SUVARNABHUMI AIRPORT,สนามบินสุวรรณภูมิ,สมุทรปราการ,13.68639,100.76750,1007.37,08-01-2019,22:00:00,0.60,10.00,0.00,1008.07,21.0,14.8,260,28.5,64,24.83
48430,PRACHIN BURI,ปราจีนบุรี,ปราจีนบุรี,14.05842,101.36930,1007.45,08-01-2019,22:00:00,14.80,7.00,0.00,1008.16,22.4,5.6,310,26.4,79,27.07
48431,NAKHON RATCHASIMA,นครราชสีมา,นครราชสีมา,14.96830,102.08603,985.90,08-01-2019,22:00:00,0.90,8.00,0.01,1007.07,22.4,11.1,270,26.7,77,27.08
48432,SURIN,สุรินทร์,สุรินทร์,14.88333,103.50000,989.07,08-01-2019,22:00:00,9.10,7.00,0.00,1005.79,22.8,9.3,220,26.5,80,27.77
48433,SURIN AGROMET.,สุรินทร์ สกษ.,สุรินทร์,14.88333,103.45000,989.64,08-01-2019,22:00:00,8.50,6.00,0.00,1006.08,23.3,5.6,230,26.5,83,28.55
48434,CHOK CHAI,โชคชัย,นครราชสีมา,14.71889,102.16861,985.32,08-01-2019,22:00:00,0.01,10.00,0.00,1007.15,22.1,9.3,270,27.3,73,26.59
48435,PAKCHONG AGROMET.,ปากช่อง สกษ.,นครราชสีมา,14.64389,101.33194,964.45,08-01-2019,22:00:00,0.01,12.00,0.01,1008.06,19.4,14.8,230,24.7,72,22.53
48436,NANG RONG,นางรอง,บุรีรัมย์,14.58333,102.80000,985.92,08-01-2019,22:00:00,0.01,10.00,0.00,1006.45,21.3,11.1,230,27.3,70,25.31
48437,BURIRUM,บุรีรัมย์,บุรีรัมย์,15.22575,103.24808,986.19,08-01-2019,22:00:00,0.20,9.00,0.00,1007.04,25.0,13.0,240,26.4,92,31.60
48438,SAMUTSONGKRAM,สมุทรสงคราม,สมุทรสงคราม,13.40778,100.03222,1007.85,08-01-2019,22:00:00,0.01,10.00,0.00,1008.28,21.0,5.6,270,28.5,64,24.83
48439,KABIN BURI,กบินทร์บุรี,ปราจีนบุรี,13.98333,101.70722,1006.41,08-01-2019,22:00:00,12.10,6.00,0.00,1007.84,23.4,0.0,000,25.0,91,28.74
48440,SA KAEW,สระแก้ว,สระแก้ว,13.78889,102.03472,1003.07,08-01-2019,22:00:00,9.20,7.00,0.00,1008.04,24.3,0.0,000,25.0,96,30.32
48450,KANCHANA BURI,กาญจนบุรี,กาญจนบุรี,14.02250,99.53583,1005.27,08-01-2019,22:00:00,0.01,10.00,0.00,1008.56,21.8,5.6,260,27.0,73,26.06
48451,NAKHONPATHOM,นครปฐม,นครปฐม,14.01167,99.97000,1007.32,08-01-2019,22:00:00,0.01,10.00,0.00,1008.43,22.8,0.0,000,26.5,80,27.77
48453,BANG NA AGROMET.,กรุงเทพฯ บางนา สกษ.,กรุงเทพมหานคร,13.66639,100.60611,1008.15,08-01-2019,22:00:00,0.01,10.00,0.00,1008.45,20.8,7.4,250,28.8,62,24.59
48455,BANGKOK METROPOLIS,กรุงเทพมหานคร,กรุงเทพมหานคร,13.72639,100.56000,1007.50,08-01-2019,22:00:00,0.50,10.00,0.00,1007.99,21.1,3.7,280,28.2,66,25.08
48456,DON MUANG AIRPORT,สนามบินดอนเมือง,กรุงเทพมหานคร,13.91917,100.60500,1007.16,08-01-2019,22:00:00,0.20,10.00,0.01,1008.57,21.1,9.3,260,28.2,66,25.08
48458,CHACHOENGSAO,ฉะเชิงเทรา,ฉะเชิงเทรา,13.51556,101.45833,1002.24,08-01-2019,22:00:00,2.70,10.00,0.00,1010.30,23.2,0.0,000,25.7,86,28.42
48459,CHON BURI,ชลบุรี,ชลบุรี,13.36667,100.98333,1007.36,08-01-2019,22:00:00,2.20,10.00,0.00,1007.65,25.4,9.3,290,29.4,79,32.50
48460,KO SICHANG,เกาะสีชัง,ชลบุรี,13.16167,100.80194,1004.96,08-01-2019,22:00:00,0.00,10.00,0.00,1008.08,22.7,9.3,200,28.4,71,27.52
48461,PHATTHAYA,พัทยา,ชลบุรี,12.92000,100.86944,1001.55,08-01-2019,22:00:00,0.00,10.00,0.00,1008.45,20.9,5.6,230,29.2,61,24.77
48462,ARANYA PRATHET,อรัญประเทศ,สระแก้ว,13.70000,102.58333,1002.49,08-01-2019,22:00:00,14.20,8.00,0.00,1008.13,24.3,0.0,000,25.5,93,30.44
48464,RATCHA BURI,ราชบุรี,ราชบุรี,13.48931,99.79239,1007.72,08-01-2019,22:00:00,0.01,10.00,0.00,1008.99,21.0,0.0,000,27.0,70,24.79
48465,PHETCHA BURI,เพชรบุรี,เพชรบุรี,12.99944,100.06056,1007.72,08-01-2019,22:00:00,0.00,11.00,0.00,1008.15,21.4,0.0,000,28.3,66,25.51
48474,NONG PHLUB AGROMET.,หนองพลับ สกษ.,ประจวบคีรีขันธ์,12.58333,99.73333,996.39,08-01-2019,22:00:00,10.70,8.00,0.00,1008.74,22.5,0.0,000,25.2,85,27.28
48475,HUA HIN,หัวหิน,ประจวบคีรีขันธ์,12.58611,99.96250,1007.50,08-01-2019,22:00:00,3.80,10.00,0.00,1008.21,23.8,0.0,000,27.3,81,29.50
48477,SATTAHIP,สัตหีบ,ชลบุรี,12.68333,100.98333,1006.29,08-01-2019,22:00:00,0.01,10.00,0.00,1008.72,21.7,5.6,260,28.8,65,25.88
48478,RAYONG,ระยอง,ระยอง,12.63222,101.34361,1007.99,08-01-2019,22:00:00,0.01,10.00,0.00,1008.51,23.1,11.1,280,29.2,70,28.21
48479,HUAI PONG AGROMET.,ห้วยโป่ง สกษ.,ระยอง,12.73333,101.13333,1003.38,08-01-2019,22:00:00,0.30,9.00,0.00,1008.53,22.4,3.7,290,27.7,73,27.04
48480,CHANTHA BURI,จันทบุรี,จันทบุรี,12.61667,102.11333,1008.18,08-01-2019,22:00:00,6.90,7.00,0.00,1008.59,22.3,0.0,000,27.9,72,26.88
48481,PHLIU  AGROMET.,พลิ้ว สกษ.,จันทบุรี,12.50861,102.17305,1006.37,08-01-2019,22:00:00,7.10,8.00,0.00,1009.15,23.6,0.0,000,26.4,85,29.17
48500,PRACHUAP KHIRIKHAN,ประจวบคีรีขันธ์,ประจวบคีรีขันธ์,11.83333,99.83333,1008.94,08-01-2019,22:00:00,7.40,10.00,0.00,1009.73,22.7,0.0,000,27.0,77,27.62
48501,TRAD,ตราด,ตราด,11.76667,102.88333,1008.75,08-01-2019,22:00:00,20.10,6.00,0.00,1009.21,23.7,9.3,230,28.2,77,29.30
48517,CHUMPHON,ชุมพร,ชุมพร,10.49875,99.18847,1008.72,08-01-2019,22:00:00,0.80,8.00,0.00,1009.40,23.6,0.0,000,27.0,82,29.21
48520,SAWI AGROMET.,สวี สกษ.,ชุมพร,10.33333,99.10000,1007.22,08-01-2019,22:00:00,4.20,6.00,0.00,1008.75,24.3,1.9,290,27.2,84,30.39
48532,RANONG,ระนอง,ระนอง,9.98333,98.61667,1009.01,08-01-2019,22:00:00,9.90,10.00,0.10,1009.93,25.3,5.6,190,27.7,87,32.20
48550,KO SAMUI,เกาะสมุย,สุราษฎร์ธานี,9.46667,100.05000,1008.71,08-01-2019,22:00:00,0.00,10.00,0.00,1009.39,23.9,0.0,000,29.5,72,29.60
48551,SURAT THANI,สุราษฎร์ธานี,สุราษฎร์ธานี,9.13556,99.15194,1009.00,08-01-2019,22:00:00,0.00,9.00,0.00,1009.80,24.1,3.7,240,26.7,86,29.99
48552,NAKHONSI THAMMARAT,นครศรีธรรมราช,นครศรีธรรมราช,8.53778,99.96389,1008.72,08-01-2019,22:00:00,5.70,10.00,0.00,1009.36,25.4,0.0,000,26.1,96,32.40
48554,NAKHONSI THAMMARAT AGROMET.,นครศรีธรรมราช สกษ.,นครศรีธรรมราช,8.35931,100.00000,1009.14,08-01-2019,22:00:00,1.10,10.00,0.00,1009.54,25.1,0.0,000,26.7,91,31.91
48555,SURAT THANI AGROMET.,สุราษฎร์ธานี สกษ.,สุราษฎร์ธานี,9.10000,99.63333,1007.18,08-01-2019,22:00:00,0.00,5.00,0.00,1011.39,26.2,0.0,000,28.2,89,34.07
48556,PHRA SANG,พระแสง สอท.,สุราษฎร์ธานี,8.57022,99.25825,1008.31,08-01-2019,22:00:00,1.40,7.00,0.00,1009.93,24.4,0.0,000,25.7,93,30.54
48557,CHAWANG,ฉวาง,นครศรีธรรมราช,8.43194,99.51194,1006.61,08-01-2019,22:00:00,0.90,10.00,0.00,1010.11,24.6,0.0,000,26.0,92,30.84
48560,PHATTHALUNG AGROMET.,พัทลุง สกษ.,พัทลุง,7.58333,100.16667,1008.28,08-01-2019,22:00:00,6.50,8.00,0.00,1009.64,24.3,0.0,000,26.0,90,30.30
48561,TAKUA PA,ตะกั่วป่า,พังงา,8.68417,98.25222,1008.71,08-01-2019,22:00:00,7.90,10.00,0.00,1009.59,24.7,5.6,240,29.1,77,31.05
48563,KRABI,กระบี่,กระบี่,8.10361,98.97528,1006.29,08-01-2019,22:00:00,0.00,10.00,0.00,1009.86,23.6,0.0,000,26.8,83,29.10
48564,PHUKET,ภูเก็ต,ภูเก็ต,7.88333,98.40000,1009.40,08-01-2019,22:00:00,0.00,10.00,0.00,1009.84,24.8,0.0,000,29.8,75,31.32
48565,PHUKET AIRPORT,ภูเก็ต (ศูนย์ฯ),ภูเก็ต,8.14500,98.31444,1008.30,08-01-2019,22:00:00,0.00,10.00,0.00,1009.28,24.4,7.4,260,30.0,72,30.59
48566,KO LANTA,เกาะลันตา,กระบี่,7.53333,99.05000,1009.56,08-01-2019,22:00:00,0.00,10.00,0.00,1010.37,23.6,14.8,260,29.4,71,29.13
48567,TRANG AIRPORT,ตรัง,ตรัง,7.51667,99.61667,1008.13,08-01-2019,22:00:00,1.50,10.00,1.50,1009.95,24.6,5.6,190,26.0,92,30.84
48568,SONGKHLA,สงขลา,สงขลา,7.18211,100.60769,1009.80,08-01-2019,22:00:00,0.70,10.00,0.00,1010.56,23.9,0.0,000,26.8,84,29.64
48569,HAT YAI AIRPORT,หาดใหญ่,สงขลา,6.91667,100.43333,1006.90,08-01-2019,22:00:00,2.00,10.00,0.00,1010.92,24.2,0.0,000,26.1,89,30.22
48570,SATUN,สตูล,สตูล,6.65000,100.08333,1010.22,08-01-2019,22:00:00,5.40,10.00,0.00,1010.90,24.3,0.0,000,26.0,90,30.30
48571,KHO HONG AGROMET.,คอหงษ์ สกษ.,สงขลา,7.00000,100.50000,1009.36,08-01-2019,22:00:00,0.20,10.00,0.00,1010.48,24.0,0.0,000,27.9,79,29.82
48574,SA DAO,สะเดา,สงขลา,6.79806,100.39056,1007.42,08-01-2019,22:00:00,0.00,10.00,0.00,1010.34,24.3,0.0,000,27.9,81,30.37
48580,PATTANI AIRPORT,ปัตตานี,ปัตตานี,6.78333,101.15000,1009.10,08-01-2019,22:00:00,0.00,10.00,0.00,1009.79,24.5,0.0,000,27.1,86,30.75
48581,YALA AGROMET.,ยะลา สกษ.,ยะลา,6.51667,101.28333,1006.43,08-01-2019,22:00:00,3.40,8.00,0.00,1010.60,22.9,0.0,000,25.0,88,27.96
48583,NARATHIWAT,นราธิวาส,นราธิวาส,6.41667,101.81667,1009.52,08-01-2019,22:00:00,0.10,8.00,0.00,1010.11,22.8,7.4,250,26.9,78,27.70
