WmoStationNumber,StationNameEnglish,StationNameThai,Province,Latitude,Longitude,WindSpeed,Date,Time,WindDirection,MaximumTemperature,MeanSeaLevelPressure,StationPressure,LandVisibility,AirTemperature,RelativeHumidity,DewPoint,Rainfall,Rainfall24Hr,VaporPressure
48300,MAE HONG SON,แม่ฮ่องสอน,แม่ฮ่องสอน,19.29897,97.97578,0.0,08-10-2019,19:00:00,000,29.9,999.19,968.66,10.00,27.4,90,25.7,1.50,88.60,33.01
48302,DOI ANG KANG,ดอยอ่างขาง,เชียงใหม่,19.93139,99.04833,7.4,08-10-2019,19:00:00,140,21.5,997.99,838.90,.10,20.3,99,20.1,1.00,22.60,23.57
48303,CHIANG RAI,เชียงราย,เชียงราย,19.96139,99.88139,5.6,08-10-2019,19:00:00,180,33.7,998.75,955.78,8.00,27.7,82,24.4,0.70,10.70,30.53
48304,CHAING RAI AGROMET.,เชียงราย สกษ.,เชียงราย,19.87083,99.78278,0.0,08-10-2019,19:00:00,000,31.7,998.90,953.95,12.00,27.0,88,24.8,0.20,5.00,31.38
48307,THUNG CHANG,ทุ่งช้าง,น่าน,19.41194,100.88353,0.0,08-10-2019,19:00:00,000,33.5,999.89,962.56,10.00,26.0,97,25.4,0.00,15.30,32.48
48310,PHAYAO,พะเยา,พะเยา,19.13333,99.90000,3.7,08-10-2019,19:00:00,170,31.0,999.61,954.94,7.00,26.1,95,25.2,0.70,15.80,32.12
48315,THA WANGPHA,ท่าวังผา,น่าน,19.11056,100.80250,3.7,08-10-2019,19:00:00,150,33.0,999.78,973.41,9.00,28.0,90,26.2,0.00,3.20,33.94
48324,THOEN,เถิน,ลำปาง,17.63661,99.24475,0.0,08-10-2019,19:00:00,000,30.4,999.03,977.54,8.00,27.6,93,26.3,0.20,24.90,34.27
48325,MAE SARIANG,แม่สะเรียง,แม่ฮ่องสอน,18.16667,97.93333,0.0,08-10-2019,19:00:00,000,33.5,998.86,974.99,6.00,26.8,94,25.7,3.00,15.20,32.94
48327,CHIANG MAI,เชียงใหม่,เชียงใหม่,18.79000,98.97694,0.0,08-10-2019,19:00:00,000,32.7,998.82,964.67,10.00,26.7,92,25.3,2.50,34.10,32.18
48328,LAMPANG,ลำปาง,ลำปาง,18.28333,99.51667,0.0,08-10-2019,19:00:00,000,30.4,999.61,972.26,10.00,26.0,96,25.3,33.20,76.80,32.20
48329,LAMPHUN,ลำพูน,ลำพูน,18.56722,99.03389,0.0,08-10-2019,19:00:00,000,31.6,998.43,965.25,10.00,27.0,92,25.6,0.20,4.40,32.77
48330,PHRAE,แพร่,แพร่,18.16667,100.16667,3.7,08-10-2019,19:00:00,300,30.3,998.80,980.51,10.00,27.4,92,26.0,0.30,28.20,33.58
48331,NAN,น่าน,น่าน,18.77972,100.77778,3.7,08-10-2019,19:00:00,090,32.0,999.35,976.80,8.00,27.6,91,25.9,0.80,18.00,33.41
48333,NAN AGROMET.,น่าน สกษ.,น่าน,18.86667,100.75000,0.0,08-10-2019,19:00:00,000,29.4,999.46,969.89,7.00,27.2,90,25.3,0.60,3.90,32.33
48334,LAMPANG AGROMET.,ลำปาง สกษ.,ลำปาง,18.31667,99.28333,0.0,08-10-2019,19:00:00,000,30.0,999.79,964.46,6.00,25.5,96,24.8,5.50,25.00,31.25
48350,LOEI AGROMET.,เลย สกษ.,เลย,17.40000,101.73333,0.0,08-10-2019,19:00:00,000,30.6,999.75,970.21,12.00,25.9,95,25.0,0.20,24.80,31.74
48351,UTTARADIT,อุตรดิตถ์,อุตรดิตถ์,17.61667,100.10000,0.0,08-10-2019,19:00:00,000,31.5,999.05,991.87,8.00,29.8,78,25.6,0.00,2.60,32.75
48352,NONG KHAI,หนองคาย,หนองคาย,17.86717,102.73303,5.6,08-10-2019,19:00:00,350,31.3,1000.02,980.30,12.00,27.4,91,25.8,0.30,16.20,33.29
48353,LOEI,เลย,เลย,17.45000,101.73333,0.0,08-10-2019,19:00:00,000,30.6,999.54,971.05,13.00,26.0,92,24.6,0.20,24.10,30.84
48354,UDON THANI,อุดรธานี,อุดรธานี,17.38333,102.80000,3.7,08-10-2019,19:00:00,050,32.6,999.57,979.70,15.00,29.0,85,26.2,0.00,2.20,33.99
48355,SAKON NAKHON AGROMET.,สกลนคร สกษ.,สกลนคร,17.12503,104.06100,0.0,08-10-2019,19:00:00,000,33.1,1000.77,979.36,12.00,29.4,78,25.1,0.00,8.30,31.93
48356,SAKON NAKHON,สกลนคร,สกลนคร,17.15000,104.13333,3.7,08-10-2019,19:00:00,120,33.3,1000.47,981.31,13.00,30.0,73,24.7,0.20,39.90,31.15
48357,NAKHON PHANOM,นครพนม,นครพนม,17.41083,104.78250,0.0,08-10-2019,19:00:00,000,32.0,1001.49,984.98,10.00,29.5,79,25.5,0.00,6.60,32.71
48358,NAKHON PHANOM AGROMET.,นครพนม สกษ.,นครพนม,17.44306,104.77361,0.0,08-10-2019,19:00:00,000,31.0,1001.63,984.39,12.00,28.0,88,25.9,0.00,18.40,33.37
48360,NONG BUA LAM PHU,หนองบัวลำภู,หนองบัวลำภู,17.23250,102.42944,9.3,08-10-2019,19:00:00,320,33.4,999.29,973.80,11.00,27.9,88,25.8,0.00,65.80,33.17
48372,SUKHOTHAI*,สุโขทัย,สุโขทัย,17.10611,99.80000,5.6,08-10-2019,19:00:00,110,31.0,999.15,993.44,10.00,29.0,86,26.5,0.00,8.70,34.58
48373,SI SAMRONG AGROMET.,ศรีสำโรง สกษ.,สุโขทัย,17.16136,99.86167,0.0,08-10-2019,19:00:00,000,30.7,998.65,992.56,10.00,29.2,87,26.8,0.00,5.70,35.30
48374,LOM SAK,หล่มสัก,เพชรบูรณ์,16.77361,101.24944,0.0,08-10-2019,19:00:00,000,33.5,999.81,983.60,10.00,29.0,74,23.9,0.00,0.00,29.74
48375,MAE SOT,แม่สอด,ตาก,16.65917,98.55083,0.0,08-10-2019,19:00:00,000,29.8,997.69,975.52,10.00,26.1,93,24.8,0.50,53.10,31.30
48376,TAK,ตาก,ตาก,16.87833,99.14333,3.7,08-10-2019,19:00:00,130,30.8,999.79,985.50,6.00,26.7,93,25.4,1.20,18.30,32.46
48377,BHUMIBOL DAM,เขื่อนภูมิพล,ตาก,17.24389,99.00250,0.0,08-10-2019,19:00:00,000,30.8,999.26,982.96,6.00,26.1,98,25.8,5.00,33.00,33.23
48378,PHITSANULOK,พิษณุโลก,พิษณุโลก,16.79481,100.27930,0.0,08-10-2019,19:00:00,000,30.0,1000.22,995.04,10.00,27.5,88,25.4,0.40,33.80,32.36
48379,PHETCHABUN,เพชรบูรณ์,เพชรบูรณ์,16.43333,101.15000,0.0,08-10-2019,19:00:00,000,32.1,998.30,985.35,12.00,30.2,77,25.7,0.00,4.50,33.00
48380,KAMPHAENG PHET,กำแพงเพชร,กำแพงเพชร,16.48681,99.52697,0.0,08-10-2019,19:00:00,000,32.4,999.10,989.83,8.00,26.1,96,25.4,9.00,18.60,32.40
48381,KHON KAEN,ขอนแก่น,ขอนแก่น,16.46111,102.78972,7.4,08-10-2019,19:00:00,140,34.2,1000.58,978.96,6.00,25.9,93,24.6,31.80,35.10,30.92
48382,MAHASARAKHAM,มหาสารคาม,มหาสารคาม,16.24722,103.06805,22.2,08-10-2019,19:00:00,200,35.0,1000.28,982.95,7.00,28.0,77,23.6,0.00,0.00,29.19
48383,MUKDAHAN,มุกดาหาร,มุกดาหาร,16.54139,104.72889,0.0,08-10-2019,19:00:00,000,33.0,1001.40,985.78,10.00,29.5,78,25.2,0.00,5.60,32.13
48384,THA PHRA AGROMET.,ท่าพระ สกษ.,ขอนแก่น,16.33333,102.81667,0.0,08-10-2019,19:00:00,000,34.5,999.19,980.41,7.00,26.2,93,25.0,16.80,30.40,31.76
48385,UMPHANG,อุ้มผาง,ตาก,16.02472,98.86444,0.0,08-10-2019,19:00:00,000,29.5,1001.20,950.19,8.00,25.2,92,23.7,2.60,23.00,29.36
48386,PICHIT AGROMET.,พิจิตร สกษ.,พิจิตร,16.43806,100.29250,9.3,08-10-2019,19:00:00,090,30.3,999.16,995.24,4.00,27.0,93,25.7,2.90,35.40,33.06
48387,DOI MU SOE AGROMET.,ดอยมูเซอร์ สกษ.,ตาก,16.75000,98.93333,5.6,08-10-2019,19:00:00,200,25.3,999.54,905.61,2.50,23.0,95,22.1,25.70,74.50,26.58
48390,KALASIN,กาฬสินธุ์,กาฬสินธุ์,16.33250,103.58833,0.0,08-10-2019,19:00:00,000,33.7,1000.18,984.44,10.00,29.7,87,27.3,0.40,0.50,36.38
48400,NAKHON SAWAN,นครสวรรค์ ,นครสวรรค์,15.67183,100.13236,9.3,08-10-2019,19:00:00,160,31.8,999.00,995.03,10.00,29.6,77,25.2,0.00,1.30,32.05
48401,TAKFA AGROMET.,ตากฟ้า สกษ.,นครสวรรค์,15.34944,100.53028,11.1,08-10-2019,19:00:00,180,33.2,1000.95,990.41,8.00,29.0,76,24.3,0.00,0.70,30.29
48402,CHAINAT AGROMET.,ชัยนาท สกษ.,ชัยนาท,15.15000,100.18333,9.3,08-10-2019,19:00:00,180,33.5,1000.22,998.31,9.00,28.0,77,23.6,0.00,2.70,29.19
48403,CHAIYAPHUM,ชัยภูมิ,ชัยภูมิ,15.80000,102.03333,0.0,08-10-2019,19:00:00,000,35.8,1000.55,979.86,12.00,27.5,87,25.2,0.01,14.00,32.08
48404,ROI ET AGROMET.,ร้อยเอ็ด สกษ.,ร้อยเอ็ด,16.07322,103.60844,0.0,08-10-2019,19:00:00,000,32.5,1000.13,982.75,10.00,29.9,75,25.1,0.00,3.60,31.80
48405,ROI ET,ร้อยเอ็ด,ร้อยเอ็ด,16.02000,103.74389,7.4,08-10-2019,19:00:00,120,32.7,999.84,983.98,10.00,30.5,74,25.3,0.00,8.80,32.17
48407,UBON RATCHATHANI,อุบลราชธานี (ศูนย์ฯ),อุบลราชธานี,15.25000,104.86667,0.0,08-10-2019,19:00:00,000,33.6,1002.43,988.50,10.00,27.9,85,25.0,0.60,26.50,31.75
48408,UBON RATCHATHANI AGROMET.,อุบลราชธานี สกษ.,อุบลราชธานี,15.23914,105.02350,0.0,08-10-2019,19:00:00,000,33.0,1003.32,988.52,10.00,26.5,85,23.7,0.00,41.40,29.35
48409,SI SAKET AGROMET.,ศรีสะเกษ,ศรีสะเกษ,15.00000,104.05000,5.6,08-10-2019,19:00:00,180,33.2,1001.94,987.46,10.00,29.4,82,26.0,0.00,14.70,33.66
48410,UTHAITHANI,อุทัยธานี,อุทัยธานี,15.37417,100.03889,0.0,08-10-2019,19:00:00,"{'0': '   ', '@attributes': {'Unit': 'degree'}}",31.6,999.07,996.10,10.00,29.4,75,24.5,0.01,4.40,30.80
48413,WICHIAN BURI,วิเชียรบุรี,เพชรบูรณ์,15.65700,101.10800,7.4,08-10-2019,19:00:00,120,34.1,1000.23,992.35,10.00,27.6,84,24.7,0.30,3.80,31.16
48415,AYUTTHAYA,พระนครศรีอยุธยา,พระนครศรีอยุธยา,14.53472,100.72500,5.6,08-10-2019,19:00:00,180,34.0,999.58,998.49,8.00,29.2,79,25.1,0.00,14.00,31.81
48416,THA TUM,ท่าตูม,สุรินทร์,15.31667,103.68333,0.0,08-10-2019,19:00:00,000,32.3,1001.04,986.67,9.00,31.9,79,27.8,0.00,30.40,37.34
48417,NAKORNNAYOK,นครนายก,นครนายก,14.36222,101.39278,9.3,08-10-2019,19:00:00,200,20.5,1002.10,868.10,.10,20.3,99,20.1,2.60,99.60,23.57
48418,BUA CHUM,บัวชุม  ,ลพบุรี,15.26667,101.18736,11.1,08-10-2019,19:00:00,200,33.2,1000.46,994.61,10.00,26.7,90,25.0,3.30,3.30,31.63
48419,PATHUMTHANI,ปทุมธานี สกษ.,ปทุมธานี,14.10000,100.61667,7.4,08-10-2019,19:00:00,220,34.5,1000.65,999.86,8.00,29.6,75,24.7,0.00,1.80,31.20
48420,Samut Prakarn,สมุทรปราการ สกษ.,สมุทรปราการ,13.51667,100.76167,16.7,08-10-2019,19:00:00,210,31.2,1001.72,1001.28,10.00,30.0,75,25.0,0.00,0.00,31.72
48421,THONG PHAPHUM,ทองผาภูมิ,กาญจนบุรี,14.74222,98.63639,0.0,08-10-2019,19:00:00,000,28.4,1001.24,989.95,3.00,25.5,96,24.8,2.60,14.50,31.25
48425,SUPHAN BURI,สุพรรณบุรี,สุพรรณบุรี,14.47444,100.13889,0.0,08-10-2019,19:00:00,000,34.0,1000.61,999.61,10.00,28.4,85,25.7,0.00,0.00,33.04
48426,LOP BURI,ลพบุรี,ลพบุรี,14.79972,100.64500,7.4,08-10-2019,19:00:00,200,33.8,1000.49,998.69,8.00,29.1,75,24.2,0.00,25.30,30.21
48427,U THONG AGROMET.,อู่ทอง สกษ.,สุพรรณบุรี,14.30361,99.86472,0.0,08-10-2019,19:00:00,000,32.2,1000.47,999.71,8.00,27.9,85,25.2,0.40,0.40,32.03
48429,SUVARNABHUMI AIRPORT,สนามบินสุวรรณภูมิ,สมุทรปราการ,13.68639,100.76750,22.2,08-10-2019,19:00:00,210,31.8,1001.59,1000.90,10.00,28.9,80,25.1,0.00,0.00,31.77
48430,PRACHIN BURI,ปราจีนบุรี,ปราจีนบุรี,14.05842,101.36930,0.0,08-10-2019,19:00:00,000,33.6,1000.88,1000.19,7.00,29.8,76,25.1,0.00,26.50,31.89
48431,NAKHON RATCHASIMA,นครราชสีมา,นครราชสีมา,14.96830,102.08603,9.3,08-10-2019,19:00:00,220,35.0,1000.08,979.31,11.00,30.4,68,23.9,0.00,0.40,29.70
48432,SURIN,สุรินทร์,สุรินทร์,14.88333,103.50000,7.4,08-10-2019,19:00:00,100,33.9,1001.64,985.11,10.00,28.7,75,23.9,0.00,40.50,29.71
48433,SURIN AGROMET.,สุรินทร์ สกษ.,สุรินทร์,14.88333,103.45000,9.3,08-10-2019,19:00:00,180,35.5,1001.65,985.41,8.00,28.9,76,24.3,0.00,25.80,30.37
48434,CHOK CHAI,โชคชัย,นครราชสีมา,14.71889,102.16861,0.0,08-10-2019,19:00:00,000,34.8,1000.53,979.03,10.00,30.0,68,23.5,0.00,0.01,28.91
48435,PAKCHONG AGROMET.,ปากช่อง สกษ.,นครราชสีมา,14.64389,101.33194,7.4,08-10-2019,19:00:00,210,35.0,1001.02,957.80,10.00,25.3,88,23.2,2.50,32.50,28.49
48436,NANG RONG,นางรอง,บุรีรัมย์,14.58333,102.80000,11.1,08-10-2019,19:00:00,110,36.9,1001.61,981.12,10.00,26.3,82,22.9,0.20,0.20,27.93
48437,BURIRUM,บุรีรัมย์,บุรีรัมย์,15.22575,103.24808,18.5,08-10-2019,19:00:00,180,34.1,1002.65,982.00,10.00,28.0,86,25.4,0.20,9.40,32.52
48438,SAMUTSONGKRAM,สมุทรสงคราม,สมุทรสงคราม,13.40778,100.03222,13.0,08-10-2019,19:00:00,210,30.7,1001.60,1001.17,10.00,27.9,86,25.3,0.20,0.80,32.32
48439,KABIN BURI,กบินทร์บุรี,ปราจีนบุรี,13.98333,101.70722,0.0,08-10-2019,19:00:00,000,33.0,1001.12,999.72,8.00,28.1,81,24.5,0.00,36.70,30.75
48440,SA KAEW,สระแก้ว,สระแก้ว,13.78889,102.03472,0.0,08-10-2019,19:00:00,000,32.1,1001.85,996.97,8.00,28.5,78,24.2,0.00,3.60,30.15
48450,KANCHANA BURI,กาญจนบุรี,กาญจนบุรี,14.02250,99.53583,9.3,08-10-2019,19:00:00,220,31.6,1000.89,997.64,12.00,29.2,74,24.2,0.00,0.01,30.13
48451,NAKHONPATHOM,นครปฐม,นครปฐม,14.01167,99.97000,3.7,08-10-2019,19:00:00,200,33.8,1001.05,999.95,10.00,29.2,75,24.3,0.00,0.01,30.40
48453,BANG NA AGROMET.,กรุงเทพฯ บางนา สกษ.,กรุงเทพมหานคร,13.66639,100.60611,11.1,08-10-2019,19:00:00,190,32.8,1001.67,1001.37,8.00,28.5,82,25.1,0.01,0.01,31.82
48454,BANGKOK PORT (KLONG TOEI),กรุงเทพฯ ท่าเรือคลองเตย,กรุงเทพมหานคร,13.70694,100.56805,5.6,08-10-2019,19:00:00,190,33.5,1000.95,1000.27,10.00,29.5,84,26.4,0.00,0.00,34.46
48455,BANGKOK METROPOLIS,กรุงเทพมหานคร,กรุงเทพมหานคร,13.72639,100.56000,9.3,08-10-2019,19:00:00,240,33.3,1001.36,1000.87,10.00,29.0,79,25.0,0.00,0.00,31.69
48456,DON MUANG AIRPORT,สนามบินดอนเมือง,กรุงเทพมหานคร,13.91917,100.60500,22.2,08-10-2019,19:00:00,210,33.3,1001.16,999.76,10.00,28.4,78,24.2,0.01,1.60,30.23
48457,PILOT STATION,นำร่อง,สมุทรปราการ,13.39389,100.59944,29.6,08-10-2019,19:00:00,210,31.0,1002.69,1001.03,10.00,28.5,81,24.9,0.00,0.00,31.54
48458,CHACHOENGSAO,ฉะเชิงเทรา,ฉะเชิงเทรา,13.51556,101.45833,7.4,08-10-2019,19:00:00,180,33.3,1003.44,995.50,10.00,28.3,79,24.3,0.00,0.00,30.31
48459,CHON BURI,ชลบุรี,ชลบุรี,13.36667,100.98333,0.0,08-10-2019,19:00:00,000,32.5,1001.56,1001.28,10.00,29.0,83,25.8,0.00,4.50,33.12
48460,KO SICHANG,เกาะสีชัง,ชลบุรี,13.16167,100.80194,5.6,08-10-2019,19:00:00,260,31.5,1001.94,998.84,10.00,29.0,76,24.4,0.00,0.00,30.57
48461,PHATTHAYA,พัทยา,ชลบุรี,12.92000,100.86944,9.3,08-10-2019,19:00:00,270,30.5,1002.33,995.46,10.00,28.5,81,24.9,0.00,0.60,31.54
48462,ARANYA PRATHET,อรัญประเทศ,สระแก้ว,13.70000,102.58333,0.0,08-10-2019,19:00:00,000,37.4,1002.37,996.80,8.00,27.1,90,25.4,0.90,1.20,32.41
48463,LAEM CHABANG,แหลมฉบัง,ชลบุรี,13.07694,100.87583,13.0,08-10-2019,19:00:00,250,30.4,1002.56,993.34,10.00,28.8,78,24.5,0.00,0.00,30.73
48464,RATCHA BURI,ราชบุรี,ราชบุรี,13.48931,99.79239,0.0,08-10-2019,19:00:00,000,31.6,1001.71,1000.46,6.00,27.5,83,24.3,0.20,1.70,30.42
48465,PHETCHA BURI,เพชรบุรี,เพชรบุรี,12.99944,100.06056,16.7,08-10-2019,19:00:00,210,31.2,1001.79,1001.36,11.00,28.1,82,24.8,0.00,0.00,31.31
48474,NONG PHLUB AGROMET.,หนองพลับ สกษ.,ประจวบคีรีขันธ์,12.58333,99.73333,0.0,08-10-2019,19:00:00,000,30.3,1002.22,990.00,10.00,26.3,92,24.9,0.20,7.70,31.41
48475,HUA HIN,หัวหิน,ประจวบคีรีขันธ์,12.58611,99.96250,5.6,08-10-2019,19:00:00,230,31.4,1001.94,1001.24,10.00,28.0,82,24.7,0.01,1.20,31.11
48477,SATTAHIP,สัตหีบ,ชลบุรี,12.68333,100.98333,14.8,08-10-2019,19:00:00,230,32.7,1003.32,1000.91,10.00,29.0,73,23.6,0.01,0.60,29.19
48478,RAYONG,ระยอง,ระยอง,12.63222,101.34361,24.1,08-10-2019,19:00:00,240,31.0,1002.61,1002.10,10.00,29.0,82,25.6,0.00,0.50,32.83
48479,HUAI PONG AGROMET.,ห้วยโป่ง สกษ.,ระยอง,12.73333,101.13333,7.4,08-10-2019,19:00:00,260,31.5,1002.47,997.37,12.00,28.7,78,24.4,0.00,0.60,30.54
48480,CHANTHA BURI,จันทบุรี,จันทบุรี,12.61667,102.11333,7.4,08-10-2019,19:00:00,190,31.0,1003.23,1002.82,7.00,28.5,81,24.9,0.70,13.10,31.54
48481,PHLIU  AGROMET.,พลิ้ว สกษ.,จันทบุรี,12.50861,102.17305,0.0,08-10-2019,19:00:00,000,31.5,1003.84,1001.10,2.00,29.4,79,25.3,0.00,22.20,32.22
48500,PRACHUAP KHIRIKHAN,ประจวบคีรีขันธ์,ประจวบคีรีขันธ์,11.83333,99.83333,0.0,08-10-2019,19:00:00,000,30.5,1008.67,1007.89,10.00,27.5,82,24.2,0.50,4.50,30.15
48501,TRAD,ตราด,ตราด,11.76667,102.88333,7.4,08-10-2019,19:00:00,210,28.3,1004.41,1003.96,4.00,26.9,96,26.2,7.50,17.70,33.99
48517,CHUMPHON,ชุมพร,ชุมพร,10.49875,99.18847,9.3,08-10-2019,19:00:00,270,31.4,1005.53,1004.85,4.00,24.9,94,23.9,7.00,12.80,29.61
48520,SAWI AGROMET.,สวี สกษ.,ชุมพร,10.33333,99.10000,0.0,08-10-2019,19:00:00,000,29.5,1005.82,1004.30,7.00,26.5,88,24.3,1.20,3.00,30.43
48532,RANONG,ระนอง,ระนอง,9.98333,98.61667,5.6,08-10-2019,19:00:00,220,29.0,1005.99,1005.07,10.00,27.2,84,24.2,0.20,10.80,30.12
48550,KO SAMUI,เกาะสมุย,สุราษฎร์ธานี,9.46667,100.05000,5.6,08-10-2019,19:00:00,260,32.8,1005.49,1004.81,10.00,29.6,74,24.4,0.00,0.01,30.63
48551,SURAT THANI,สุราษฎร์ธานี,สุราษฎร์ธานี,9.13556,99.15194,5.6,08-10-2019,19:00:00,250,31.5,1006.05,1005.26,10.00,28.1,79,24.1,0.00,5.70,29.93
48552,NAKHONSI THAMMARAT,นครศรีธรรมราช,นครศรีธรรมราช,8.53778,99.96389,0.0,08-10-2019,19:00:00,000,34.0,1005.41,1004.79,10.00,29.6,70,23.5,0.00,2.70,28.97
48554,NAKHONSI THAMMARAT AGROMET.,นครศรีธรรมราช สกษ.,นครศรีธรรมราช,8.35931,100.00000,18.5,08-10-2019,19:00:00,210,33.7,1006.38,1005.98,10.00,28.7,75,23.9,0.00,2.10,29.71
48555,SURAT THANI AGROMET.,สุราษฎร์ธานี สกษ.,สุราษฎร์ธานี,9.10000,99.63333,3.7,08-10-2019,19:00:00,230,32.0,1007.38,1003.18,5.00,27.5,81,23.9,0.01,0.10,29.60
48556,PHRA SANG,พระแสง สอท.,สุราษฎร์ธานี,8.57022,99.25825,0.0,08-10-2019,19:00:00,000,31.2,1006.41,1004.81,8.00,27.1,84,24.1,0.00,10.40,29.93
48557,CHAWANG,ฉวาง,นครศรีธรรมราช,8.43194,99.51194,0.0,08-10-2019,19:00:00,000,31.2,1006.52,1003.06,7.00,28.5,80,24.6,0.00,12.40,30.98
48560,PHATTHALUNG AGROMET.,พัทลุง สกษ.,พัทลุง,7.58333,100.16667,5.6,08-10-2019,19:00:00,180,32.0,1006.63,1005.28,10.00,28.0,76,23.3,0.00,2.50,28.65
48561,TAKUA PA,ตะกั่วป่า,พังงา,8.68417,98.25222,9.3,08-10-2019,19:00:00,250,29.8,1006.30,1005.42,10.00,28.0,81,24.4,0.00,55.70,30.56
48563,KRABI,กระบี่,กระบี่,8.10361,98.97528,7.4,08-10-2019,19:00:00,260,30.4,1006.44,1002.89,10.00,27.4,84,24.5,0.00,7.00,30.78
48564,PHUKET,ภูเก็ต,ภูเก็ต,7.88333,98.40000,9.3,08-10-2019,19:00:00,260,30.7,1006.91,1006.48,10.00,28.4,82,25.0,0.20,5.20,31.62
48565,PHUKET AIRPORT,ภูเก็ต (ศูนย์ฯ),ภูเก็ต,8.14500,98.31444,3.7,08-10-2019,19:00:00,240,30.6,1006.13,1005.15,10.00,29.4,75,24.5,0.00,7.50,30.80
48566,KO LANTA,เกาะลันตา,กระบี่,7.53333,99.05000,27.8,08-10-2019,19:00:00,250,29.3,1007.20,1006.39,10.00,28.6,86,26.1,1.80,2.20,33.74
48567,TRANG AIRPORT,ตรัง,ตรัง,7.51667,99.61667,16.7,08-10-2019,19:00:00,270,31.0,1007.21,1005.40,7.00,27.7,85,25.0,0.30,11.30,31.64
48568,SONGKHLA,สงขลา,สงขลา,7.18211,100.60769,3.7,08-10-2019,19:00:00,220,33.0,1006.86,1006.10,8.00,26.5,86,23.9,1.60,2.40,29.62
48569,HAT YAI AIRPORT,หาดใหญ่,สงขลา,6.91667,100.43333,3.7,08-10-2019,19:00:00,240,31.9,1007.44,1003.41,10.00,24.5,97,23.9,7.20,16.80,29.67
48570,SATUN,สตูล,สตูล,6.65000,100.08333,0.0,08-10-2019,19:00:00,000,32.2,1008.86,1008.17,10.00,26.0,92,24.6,1.50,25.90,30.84
48571,KHO HONG AGROMET.,คอหงษ์ สกษ.,สงขลา,7.00000,100.50000,0.0,08-10-2019,19:00:00,000,32.7,1007.17,1006.05,7.00,25.8,92,24.3,1.20,3.00,30.46
48574,SA DAO,สะเดา,สงขลา,6.79806,100.39056,0.0,08-10-2019,19:00:00,000,32.3,1007.50,1004.56,7.00,25.2,97,24.6,1.90,10.60,30.96
48580,PATTANI AIRPORT,ปัตตานี,ปัตตานี,6.78333,101.15000,9.3,08-10-2019,19:00:00,230,33.6,1006.72,1006.03,2.00,24.6,97,24.2,7.30,37.10,30.12
48581,YALA AGROMET.,ยะลา สกษ.,ยะลา,6.51667,101.28333,13.0,08-10-2019,19:00:00,240,34.0,1007.92,1003.75,6.00,24.2,97,23.8,1.40,13.30,29.39
48583,NARATHIWAT,นราธิวาส,นราธิวาส,6.41667,101.81667,14.8,08-10-2019,19:00:00,240,35.5,1007.55,1006.96,9.00,26.5,84,23.6,0.20,4.00,29.08
