WmoStationNumber,StationNameEnglish,StationNameThai,Province,Latitude,Longitude,MeanSeaLevelPressure,Date,Time,VaporPressure,WindSpeed,RelativeHumidity,StationPressure,Rainfall24Hr,AirTemperature,Rainfall,LandVisibility,WindDirection,DewPoint
48300,MAE HONG SON,แม่ฮ่องสอน,แม่ฮ่องสอน,19.29897,97.97578,1004.86,08-17-2019,04:00:00,30.69,0.0,96,973.93,19.70,25.2,5.90,5.00,000,24.5
48302,DOI ANG KANG,ดอยอ่างขาง,เชียงใหม่,19.93139,99.04833,1003.05,08-17-2019,04:00:00,21.25,18.5,98,842.42,21.30,18.8,0.00,1.00,300,18.5
48303,CHIANG RAI,เชียงราย,เชียงราย,19.96139,99.88139,1003.04,08-17-2019,04:00:00,28.22,3.7,89,959.51,0.10,25.0,0.00,10.00,210,23.1
48304,CHAING RAI AGROMET.,เชียงราย สกษ.,เชียงราย,19.87083,99.78278,1003.24,08-17-2019,04:00:00,28.79,0.0,95,957.69,2.40,24.3,0.00,10.00,000,23.4
48307,THUNG CHANG,ทุ่งช้าง,น่าน,19.41194,100.88353,1004.55,08-17-2019,04:00:00,28.68,7.4,99,966.74,55.00,23.5,44.50,4.00,200,23.3
48310,PHAYAO,พะเยา,พะเยา,19.13333,99.90000,1004.64,08-17-2019,04:00:00,29.66,5.6,98,959.46,11.60,24.2,0.00,7.00,100,23.9
48315,THA WANGPHA,ท่าวังผา,น่าน,19.11056,100.80250,1004.52,08-17-2019,04:00:00,29.41,0.0,96,977.72,93.10,24.5,0.40,4.00,000,23.8
48324,THOEN,เถิน,ลำปาง,17.63661,99.24475,1004.43,08-17-2019,04:00:00,31.12,0.0,98,982.64,3.30,25.0,0.20,10.00,000,24.7
48325,MAE SARIANG,แม่สะเรียง,แม่ฮ่องสอน,18.16667,97.93333,1005.52,08-17-2019,04:00:00,31.33,0.0,97,981.39,7.80,25.4,0.30,6.00,000,24.8
48327,CHIANG MAI,เชียงใหม่,เชียงใหม่,18.79000,98.97694,1004.27,08-17-2019,04:00:00,30.05,0.0,95,969.74,14.60,25.0,0.00,10.00,000,24.1
48328,LAMPANG,ลำปาง,ลำปาง,18.28333,99.51667,1005.67,08-17-2019,04:00:00,30.32,0.0,96,978.07,36.10,25.0,0.00,7.00,000,24.3
48329,LAMPHUN,ลำพูน,ลำพูน,18.56722,99.03389,1004.22,08-17-2019,04:00:00,30.87,0.0,96,970.66,8.30,25.3,0.00,10.00,000,24.6
48330,PHRAE,แพร่,แพร่,18.16667,100.16667,1004.32,08-17-2019,04:00:00,30.85,0.0,97,985.77,25.10,25.0,0.00,7.00,000,24.6
48331,NAN,น่าน,น่าน,18.77972,100.77778,1003.55,08-17-2019,04:00:00,30.22,0.0,97,980.68,56.80,24.8,3.20,7.00,000,24.2
48333,NAN AGROMET.,น่าน สกษ.,น่าน,18.86667,100.75000,1004.05,08-17-2019,04:00:00,28.53,0.0,96,974.03,46.10,24.0,2.20,5.00,000,23.3
48334,LAMPANG AGROMET.,ลำปาง สกษ.,ลำปาง,18.31667,99.28333,1004.11,08-17-2019,04:00:00,31.25,0.0,96,968.64,5.50,25.5,0.00,6.00,000,24.8
48350,LOEI AGROMET.,เลย สกษ.,เลย,17.40000,101.73333,1004.38,08-17-2019,04:00:00,31.39,11.1,99,974.62,5.90,25.0,0.40,7.00,150,24.8
48351,UTTARADIT,อุตรดิตถ์,อุตรดิตถ์,17.61667,100.10000,1004.53,08-17-2019,04:00:00,31.44,0.0,96,997.21,4.60,25.6,0.01,8.00,000,24.9
48352,NONG KHAI,หนองคาย,หนองคาย,17.86717,102.73303,1004.73,08-17-2019,04:00:00,30.85,5.6,97,984.76,9.60,25.0,0.00,10.00,120,24.6
48353,LOEI,เลย,เลย,17.45000,101.73333,1004.45,08-17-2019,04:00:00,30.34,7.4,94,975.75,2.60,25.3,0.01,10.00,170,24.3
48354,UDON THANI,อุดรธานี,อุดรธานี,17.38333,102.80000,1005.06,08-17-2019,04:00:00,30.71,1.9,94,984.85,11.50,25.5,0.20,10.00,140,24.5
48355,SAKON NAKHON AGROMET.,สกลนคร สกษ.,สกลนคร,17.12503,104.06100,1005.92,08-17-2019,04:00:00,29.33,7.4,95,984.06,29.20,24.6,14.80,6.00,150,23.7
48356,SAKON NAKHON,สกลนคร,สกลนคร,17.15000,104.13333,1005.51,08-17-2019,04:00:00,30.32,5.6,96,985.93,24.70,25.0,8.00,7.00,210,24.3
48357,NAKHON PHANOM,นครพนม,นครพนม,17.41083,104.78250,1006.35,08-17-2019,04:00:00,29.51,0.0,95,989.50,22.40,24.7,3.00,10.00,000,23.8
48358,NAKHON PHANOM AGROMET.,นครพนม สกษ.,นครพนม,17.44306,104.77361,1006.36,08-17-2019,04:00:00,29.59,0.0,96,988.83,15.00,24.6,2.80,10.00,000,23.9
48360,NONG BUA LAM PHU,หนองบัวลำภู,หนองบัวลำภู,17.23250,102.42944,1003.81,08-17-2019,04:00:00,30.56,0.0,98,977.93,8.60,24.7,0.01,10.00,000,24.4
48372,SUKHOTHAI*,สุโขทัย,สุโขทัย,17.10611,99.80000,1004.03,08-17-2019,04:00:00,34.36,0.0,94,998.27,0.00,27.5,0.00,10.00,000,26.4
48373,SI SAMRONG AGROMET.,ศรีสำโรง สกษ.,สุโขทัย,17.16136,99.86167,1002.51,08-17-2019,04:00:00,31.38,0.0,88,996.35,0.00,27.0,0.00,10.00,000,24.8
48374,LOM SAK,หล่มสัก,เพชรบูรณ์,16.77361,101.24944,1005.81,08-17-2019,04:00:00,31.17,0.0,95,989.32,4.20,25.6,0.00,8.00,000,24.7
48375,MAE SOT,แม่สอด,ตาก,16.65917,98.55083,1004.97,08-17-2019,04:00:00,27.16,3.7,96,982.42,21.60,23.2,15.50,7.00,090,22.4
48376,TAK,ตาก,ตาก,16.87833,99.14333,1005.27,08-17-2019,04:00:00,26.26,11.1,71,990.94,0.00,27.7,0.00,6.00,260,21.9
48377,BHUMIBOL DAM,เขื่อนภูมิพล,ตาก,17.24389,99.00250,1004.19,08-17-2019,04:00:00,29.19,11.1,77,987.91,0.00,28.0,0.00,7.00,120,23.6
48378,PHITSANULOK,พิษณุโลก,พิษณุโลก,16.79481,100.27930,1004.78,08-17-2019,04:00:00,32.66,5.6,93,999.57,0.01,26.8,0.00,10.00,160,25.5
48379,PHETCHABUN,เพชรบูรณ์,เพชรบูรณ์,16.43333,101.15000,1002.76,08-17-2019,04:00:00,29.76,0.0,89,989.58,0.00,26.0,0.00,10.00,000,24.0
48380,KAMPHAENG PHET,กำแพงเพชร,กำแพงเพชร,16.48681,99.52697,1004.53,08-17-2019,04:00:00,33.22,0.0,94,995.22,1.40,26.8,0.00,10.00,000,25.8
48381,KHON KAEN,ขอนแก่น,ขอนแก่น,16.46111,102.78972,1005.07,08-17-2019,04:00:00,28.84,7.4,82,983.42,0.40,26.8,0.00,8.00,200,23.4
48382,MAHASARAKHAM,มหาสารคาม,มหาสารคาม,16.24722,103.06805,1005.92,08-17-2019,04:00:00,31.69,5.6,87,988.46,0.00,27.3,0.00,10.00,180,25.0
48383,MUKDAHAN,มุกดาหาร,มุกดาหาร,16.54139,104.72889,1005.17,08-17-2019,04:00:00,31.87,0.0,98,989.28,12.00,25.4,1.30,10.00,000,25.1
48384,THA PHRA AGROMET.,ท่าพระ สกษ.,ขอนแก่น,16.33333,102.81667,1004.50,08-17-2019,04:00:00,28.45,0.0,77,985.70,0.00,27.6,0.00,8.00,000,23.2
48385,UMPHANG,อุ้มผาง,ตาก,16.02472,98.86444,1007.74,08-17-2019,04:00:00,27.16,0.0,94,956.12,0.00,23.5,0.00,6.00,000,22.4
48386,PICHIT AGROMET.,พิจิตร สกษ.,พิจิตร,16.43806,100.29250,1004.68,08-17-2019,04:00:00,32.91,14.8,95,1000.73,0.00,26.5,0.00,6.00,140,25.6
48387,DOI MU SOE AGROMET.,ดอยมูเซอร์ สกษ.,ตาก,16.75000,98.93333,1006.54,08-17-2019,04:00:00,23.20,7.4,98,911.10,0.70,20.2,0.50,2.00,230,19.9
48390,KALASIN,กาฬสินธุ์,กาฬสินธุ์,16.33250,103.58833,1005.50,08-17-2019,04:00:00,31.91,11.1,91,989.52,0.00,26.7,0.00,7.00,190,25.1
48400,NAKHON SAWAN,นครสวรรค์ ,นครสวรรค์,15.67183,100.13236,1005.11,08-17-2019,04:00:00,31.22,7.4,87,1001.08,0.00,27.2,0.00,9.00,120,24.8
48401,TAKFA AGROMET.,ตากฟ้า สกษ.,นครสวรรค์,15.34944,100.53028,1006.58,08-17-2019,04:00:00,32.04,0.0,94,995.88,3.80,26.2,0.00,7.00,000,25.2
48402,CHAINAT AGROMET.,ชัยนาท สกษ.,ชัยนาท,15.15000,100.18333,1005.77,08-17-2019,04:00:00,31.05,0.0,90,1003.84,0.80,26.4,0.00,7.00,000,24.7
48403,CHAIYAPHUM,ชัยภูมิ,ชัยภูมิ,15.80000,102.03333,1006.04,08-17-2019,04:00:00,29.27,0.0,84,985.18,0.00,26.6,0.00,10.00,000,23.7
48404,ROI ET AGROMET.,ร้อยเอ็ด สกษ.,ร้อยเอ็ด,16.07322,103.60844,1005.41,08-17-2019,04:00:00,31.05,11.1,90,987.74,0.00,26.4,0.00,10.00,180,24.7
48405,ROI ET,ร้อยเอ็ด,ร้อยเอ็ด,16.02000,103.74389,1005.69,08-17-2019,04:00:00,31.79,0.0,92,989.52,0.01,26.5,0.00,10.00,000,25.1
48407,UBON RATCHATHANI,อุบลราชธานี (ศูนย์ฯ),อุบลราชธานี,15.25000,104.86667,1006.89,08-17-2019,04:00:00,30.57,5.6,91,992.81,10.20,26.0,0.00,10.00,170,24.4
48408,UBON RATCHATHANI AGROMET.,อุบลราชธานี สกษ.,อุบลราชธานี,15.23914,105.02350,1007.66,08-17-2019,04:00:00,31.79,0.0,92,992.80,0.60,26.5,0.00,8.00,000,25.1
48409,SI SAKET AGROMET.,ศรีสะเกษ,ศรีสะเกษ,15.00000,104.05000,1008.12,08-17-2019,04:00:00,30.59,9.3,89,993.40,0.00,26.3,0.00,6.00,190,24.4
48410,UTHAITHANI,อุทัยธานี,อุทัยธานี,15.37417,100.03889,1005.17,08-17-2019,04:00:00,29.91,0.0,85,1002.16,0.00,26.8,0.00,10.00,"{'@attributes': {'Unit': 'degree'}, '0': '   '}",24.0
48413,WICHIAN BURI,วิเชียรบุรี,เพชรบูรณ์,15.65700,101.10800,1005.06,08-17-2019,04:00:00,31.49,0.0,93,997.10,0.00,26.2,0.00,7.00,000,24.9
48415,AYUTTHAYA,พระนครศรีอยุธยา,พระนครศรีอยุธยา,14.53472,100.72500,1006.25,08-17-2019,04:00:00,31.22,5.6,92,1005.14,4.20,26.2,0.40,7.00,150,24.8
48416,THA TUM,ท่าตูม,สุรินทร์,15.31667,103.68333,1006.24,08-17-2019,04:00:00,31.52,0.0,91,991.54,0.20,26.5,0.00,8.00,000,24.9
48417,NAKORNNAYOK,นครนายก,นครนายก,14.36222,101.39278,1007.29,08-17-2019,04:00:00,24.01,7.4,99,872.73,24.00,20.6,13.60,.05,200,20.4
48418,BUA CHUM,บัวชุม  ,ลพบุรี,15.26667,101.18736,1006.91,08-17-2019,04:00:00,30.48,0.0,90,1001.01,0.00,26.1,0.00,10.00,000,24.4
48419,PATHUMTHANI,ปทุมธานี สกษ.,ปทุมธานี,14.10000,100.61667,1006.39,08-17-2019,04:00:00,33.19,7.4,96,1005.59,27.20,26.5,0.00,7.00,240,25.8
48420,Samut Prakarn,สมุทรปราการ สกษ.,สมุทรปราการ,13.51667,100.76167,1004.68,08-17-2019,04:00:00,31.29,9.3,79,1004.24,0.00,28.8,0.00,10.00,210,24.8
48421,THONG PHAPHUM,ทองผาภูมิ,กาญจนบุรี,14.74222,98.63639,1007.48,08-17-2019,04:00:00,30.58,0.0,97,996.09,18.20,25.0,0.20,4.00,000,24.4
48425,SUPHAN BURI,สุพรรณบุรี,สุพรรณบุรี,14.47444,100.13889,1006.44,08-17-2019,04:00:00,29.74,7.4,79,1005.44,0.00,28.0,0.00,10.00,210,23.9
48426,LOP BURI,ลพบุรี,ลพบุรี,14.79972,100.64500,1006.04,08-17-2019,04:00:00,32.46,3.7,93,1004.22,0.00,26.7,0.00,7.00,140,25.4
48427,U THONG AGROMET.,อู่ทอง สกษ.,สุพรรณบุรี,14.30361,99.86472,1006.20,08-17-2019,04:00:00,31.02,0.0,87,1005.43,2.00,27.1,0.00,7.00,000,24.7
48429,SUVARNABHUMI AIRPORT,สนามบินสุวรรณภูมิ,สมุทรปราการ,13.68639,100.76750,1006.58,08-17-2019,04:00:00,30.45,7.4,82,1005.88,0.01,27.8,0.00,10.00,240,24.3
48430,PRACHIN BURI,ปราจีนบุรี,ปราจีนบุรี,14.05842,101.36930,1006.93,08-17-2019,04:00:00,31.38,0.0,93,1006.23,10.10,26.0,10.10,7.00,000,24.8
48431,NAKHON RATCHASIMA,นครราชสีมา,นครราชสีมา,14.96830,102.08603,1006.54,08-17-2019,04:00:00,30.76,0.0,91,985.33,0.20,26.1,0.20,10.00,000,24.5
48432,SURIN,สุรินทร์,สุรินทร์,14.88333,103.50000,1005.88,08-17-2019,04:00:00,29.74,0.0,90,989.12,0.00,25.7,0.00,6.00,000,23.9
48433,SURIN AGROMET.,สุรินทร์ สกษ.,สุรินทร์,14.88333,103.45000,1007.34,08-17-2019,04:00:00,30.59,7.4,89,990.86,0.00,26.3,0.00,6.00,180,24.4
48434,CHOK CHAI,โชคชัย,นครราชสีมา,14.71889,102.16861,1006.62,08-17-2019,04:00:00,26.19,0.0,81,984.66,0.10,25.3,0.10,10.00,000,21.9
48435,PAKCHONG AGROMET.,ปากช่อง สกษ.,นครราชสีมา,14.64389,101.33194,1007.09,08-17-2019,04:00:00,29.41,0.0,96,963.49,13.50,24.5,6.00,5.00,000,23.8
48436,NANG RONG,นางรอง,บุรีรัมย์,14.58333,102.80000,1006.37,08-17-2019,04:00:00,28.67,3.7,80,985.82,0.00,27.0,0.00,10.00,140,23.3
48437,BURIRUM,บุรีรัมย์,บุรีรัมย์,15.22575,103.24808,1007.99,08-17-2019,04:00:00,31.60,16.7,92,987.11,0.00,26.4,0.00,8.00,200,25.0
48438,SAMUTSONGKRAM,สมุทรสงคราม,สมุทรสงคราม,13.40778,100.03222,1006.70,08-17-2019,04:00:00,29.37,5.6,83,1006.27,0.01,26.8,0.00,10.00,310,23.7
48439,KABIN BURI,กบินทร์บุรี,ปราจีนบุรี,13.98333,101.70722,1006.91,08-17-2019,04:00:00,30.07,0.0,93,1005.48,0.00,25.3,0.00,6.00,000,24.1
48440,SA KAEW,สระแก้ว,สระแก้ว,13.78889,102.03472,1006.90,08-17-2019,04:00:00,31.25,0.0,96,1001.94,15.70,25.5,0.50,7.00,000,24.8
48450,KANCHANA BURI,กาญจนบุรี,กาญจนบุรี,14.02250,99.53583,1006.73,08-17-2019,04:00:00,29.69,0.0,81,1003.45,0.00,27.4,0.00,10.00,000,23.9
48451,NAKHONPATHOM,นครปฐม,นครปฐม,14.01167,99.97000,1006.44,08-17-2019,04:00:00,31.55,1.9,90,1005.33,0.01,26.8,0.01,5.00,230,24.9
48453,BANG NA AGROMET.,กรุงเทพฯ บางนา สกษ.,กรุงเทพมหานคร,13.66639,100.60611,1006.22,08-17-2019,04:00:00,30.82,0.0,78,1005.93,0.00,28.7,0.00,10.00,000,24.5
48455,BANGKOK METROPOLIS,กรุงเทพมหานคร,กรุงเทพมหานคร,13.72639,100.56000,1006.07,08-17-2019,04:00:00,30.82,0.0,78,1005.59,0.00,28.7,0.00,10.00,000,24.5
48456,DON MUANG AIRPORT,สนามบินดอนเมือง,กรุงเทพมหานคร,13.91917,100.60500,1006.75,08-17-2019,04:00:00,31.44,11.1,85,1005.35,12.60,27.6,0.00,10.00,200,24.9
48458,CHACHOENGSAO,ฉะเชิงเทรา,ฉะเชิงเทรา,13.51556,101.45833,1009.07,08-17-2019,04:00:00,31.08,0.0,94,1001.01,0.60,25.7,0.00,10.00,000,24.7
48459,CHON BURI,ชลบุรี,ชลบุรี,13.36667,100.98333,1006.72,08-17-2019,04:00:00,32.88,3.7,84,1006.43,0.60,28.6,0.00,10.00,180,25.6
48460,KO SICHANG,เกาะสีชัง,ชลบุรี,13.16167,100.80194,1006.48,08-17-2019,04:00:00,31.29,0.0,79,1003.37,0.00,28.8,0.00,10.00,000,24.8
48461,PHATTHAYA,พัทยา,ชลบุรี,12.92000,100.86944,1007.17,08-17-2019,04:00:00,30.56,9.3,81,1000.25,0.00,28.0,0.00,10.00,240,24.4
48462,ARANYA PRATHET,อรัญประเทศ,สระแก้ว,13.70000,102.58333,1006.97,08-17-2019,04:00:00,30.02,0.0,84,1001.37,0.10,27.0,0.10,8.00,000,24.1
48464,RATCHA BURI,ราชบุรี,ราชบุรี,13.48931,99.79239,1007.64,08-17-2019,04:00:00,30.32,7.4,96,1006.36,5.00,25.0,1.70,10.00,210,24.3
48465,PHETCHA BURI,เพชรบุรี,เพชรบุรี,12.99944,100.06056,1006.99,08-17-2019,04:00:00,30.43,5.6,88,1006.56,12.60,26.5,0.40,11.00,210,24.3
48474,NONG PHLUB AGROMET.,หนองพลับ สกษ.,ประจวบคีรีขันธ์,12.58333,99.73333,1007.07,08-17-2019,04:00:00,29.46,0.0,91,994.75,0.00,25.4,0.00,8.00,000,23.8
48475,HUA HIN,หัวหิน,ประจวบคีรีขันธ์,12.58611,99.96250,1006.89,08-17-2019,04:00:00,29.62,0.0,86,1006.18,1.00,26.5,0.00,10.00,000,23.9
48477,SATTAHIP,สัตหีบ,ชลบุรี,12.68333,100.98333,1006.97,08-17-2019,04:00:00,30.07,11.1,77,1004.55,0.01,28.6,0.00,10.00,210,24.1
48478,RAYONG,ระยอง,ระยอง,12.63222,101.34361,1007.08,08-17-2019,04:00:00,32.26,20.4,81,1006.56,0.00,29.0,0.00,10.00,230,25.3
48479,HUAI PONG AGROMET.,ห้วยโป่ง สกษ.,ระยอง,12.73333,101.13333,1007.05,08-17-2019,04:00:00,30.64,3.7,82,1001.91,0.00,27.9,0.00,8.00,240,24.4
48480,CHANTHA BURI,จันทบุรี,จันทบุรี,12.61667,102.11333,1007.23,08-17-2019,04:00:00,32.89,0.0,91,1006.81,1.80,27.2,0.80,7.00,000,25.6
48481,PHLIU  AGROMET.,พลิ้ว สกษ.,จันทบุรี,12.50861,102.17305,1007.56,08-17-2019,04:00:00,32.77,0.0,92,1004.79,0.40,27.0,0.40,8.00,000,25.6
48500,PRACHUAP KHIRIKHAN,ประจวบคีรีขันธ์,ประจวบคีรีขันธ์,11.83333,99.83333,1008.05,08-17-2019,04:00:00,27.93,7.4,82,1007.26,0.00,26.3,0.00,10.00,300,22.9
48501,TRAD,ตราด,ตราด,11.76667,102.88333,1007.79,08-17-2019,04:00:00,32.43,0.0,94,1007.33,24.90,26.4,7.80,5.00,000,25.4
48517,CHUMPHON,ชุมพร,ชุมพร,10.49875,99.18847,1007.99,08-17-2019,04:00:00,30.32,0.0,96,1007.30,10.80,25.0,0.00,7.00,000,24.3
48520,SAWI AGROMET.,สวี สกษ.,ชุมพร,10.33333,99.10000,1008.16,08-17-2019,04:00:00,29.36,0.0,92,1006.62,5.40,25.2,0.20,7.00,000,23.7
48532,RANONG,ระนอง,ระนอง,9.98333,98.61667,1008.77,08-17-2019,04:00:00,29.97,3.7,94,1007.84,107.80,25.1,17.00,10.00,270,24.1
48550,KO SAMUI,เกาะสมุย,สุราษฎร์ธานี,9.46667,100.05000,1008.67,08-17-2019,04:00:00,29.44,0.0,79,1007.99,0.00,27.7,0.00,10.00,000,23.8
48551,SURAT THANI,สุราษฎร์ธานี,สุราษฎร์ธานี,9.13556,99.15194,1008.84,08-17-2019,04:00:00,29.74,3.7,99,1008.03,0.40,24.1,0.00,7.00,210,23.9
48552,NAKHONSI THAMMARAT,นครศรีธรรมราช,นครศรีธรรมราช,8.53778,99.96389,1008.34,08-17-2019,04:00:00,29.61,0.0,94,1007.71,0.01,24.9,0.00,10.00,000,23.9
48554,NAKHONSI THAMMARAT AGROMET.,นครศรีธรรมราช สกษ.,นครศรีธรรมราช,8.35931,100.00000,1008.50,08-17-2019,04:00:00,30.32,0.0,96,1008.09,0.00,25.0,0.00,10.00,000,24.3
48555,SURAT THANI AGROMET.,สุราษฎร์ธานี สกษ.,สุราษฎร์ธานี,9.10000,99.63333,1010.41,08-17-2019,04:00:00,30.18,0.0,86,1006.18,0.00,26.8,0.00,5.00,000,24.2
48556,PHRA SANG,พระแสง สอท.,สุราษฎร์ธานี,8.57022,99.25825,1009.48,08-17-2019,04:00:00,29.30,0.0,98,1007.85,9.70,24.0,0.00,10.00,000,23.7
48557,CHAWANG,ฉวาง,นครศรีธรรมราช,8.43194,99.51194,1009.99,08-17-2019,04:00:00,28.18,0.0,96,1006.47,4.40,23.8,0.00,10.00,000,23.1
48560,PHATTHALUNG AGROMET.,พัทลุง สกษ.,พัทลุง,7.58333,100.16667,1009.15,08-17-2019,04:00:00,29.41,0.0,96,1007.78,2.50,24.5,0.00,8.00,000,23.8
48561,TAKUA PA,ตะกั่วป่า,พังงา,8.68417,98.25222,1009.08,08-17-2019,04:00:00,31.49,7.4,87,1008.19,23.80,27.2,0.00,10.00,240,24.9
48563,KRABI,กระบี่,กระบี่,8.10361,98.97528,1009.59,08-17-2019,04:00:00,29.74,0.0,99,1005.99,71.00,24.1,2.30,10.00,000,23.9
48564,PHUKET,ภูเก็ต,ภูเก็ต,7.88333,98.40000,1008.45,08-17-2019,04:00:00,30.46,0.0,92,1008.02,19.60,25.8,3.40,10.00,000,24.3
48565,PHUKET AIRPORT,ภูเก็ต (ศูนย์ฯ),ภูเก็ต,8.14500,98.31444,1007.45,08-17-2019,04:00:00,31.39,9.3,83,1006.46,4.80,28.0,1.50,10.00,160,24.8
48566,KO LANTA,เกาะลันตา,กระบี่,7.53333,99.05000,1009.40,08-17-2019,04:00:00,33.66,24.1,89,1008.58,33.00,28.0,1.60,10.00,260,26.0
48567,TRANG AIRPORT,ตรัง,ตรัง,7.51667,99.61667,1009.18,08-17-2019,04:00:00,29.67,0.0,97,1007.35,64.50,24.5,0.00,8.00,000,23.9
48568,SONGKHLA,สงขลา,สงขลา,7.18211,100.60769,1009.91,08-17-2019,04:00:00,28.85,3.7,88,1009.15,0.01,25.5,0.00,10.00,220,23.4
48569,HAT YAI AIRPORT,หาดใหญ่,สงขลา,6.91667,100.43333,1009.78,08-17-2019,04:00:00,28.10,3.7,93,1005.74,2.60,24.2,0.00,10.00,120,23.0
48570,SATUN,สตูล,สตูล,6.65000,100.08333,1009.43,08-17-2019,04:00:00,27.95,0.0,90,1008.74,13.70,24.7,0.00,10.00,000,22.9
48571,KHO HONG AGROMET.,คอหงษ์ สกษ.,สงขลา,7.00000,100.50000,1009.27,08-17-2019,04:00:00,30.98,0.0,95,1008.14,10.80,25.5,0.00,10.00,000,24.6
48574,SA DAO,สะเดา,สงขลา,6.79806,100.39056,1009.82,08-17-2019,04:00:00,29.77,0.0,96,1006.87,3.70,24.7,0.00,10.00,000,24.0
