WmoStationNumber,StationNameEnglish,StationNameThai,Province,Latitude,Longitude,Rainfall,Date,Time,AirTemperature,MeanSeaLevelPressure,WindSpeed,RelativeHumidity,StationPressure,WindDirection,LandVisibility,DewPoint,Rainfall24Hr,VaporPressure
48300,MAE HONG SON,แม่ฮ่องสอน,แม่ฮ่องสอน,19.29897,97.97578,0.00,08-19-2019,22:00:00,26.8,1007.37,0.0,83,976.52,000,10.00,23.7,0.40,29.37
48302,DOI ANG KANG,ดอยอ่างขาง,เชียงใหม่,19.93139,99.04833,0.00,08-19-2019,22:00:00,20.7,1004.05,13.0,87,844.19,290,10.00,18.5,0.00,21.22
48303,CHIANG RAI,เชียงราย,เชียงราย,19.96139,99.88139,0.00,08-19-2019,22:00:00,28.7,1005.20,5.6,80,962.09,160,10.00,24.8,0.00,31.38
48304,CHAING RAI AGROMET.,เชียงราย สกษ.,เชียงราย,19.87083,99.78278,0.00,08-19-2019,22:00:00,27.5,1005.36,0.0,84,960.19,000,12.00,24.6,0.00,30.97
48307,THUNG CHANG,ทุ่งช้าง,น่าน,19.41194,100.88353,0.00,08-19-2019,22:00:00,26.0,1006.38,0.0,94,968.80,000,8.00,25.0,0.00,31.65
48310,PHAYAO,พะเยา,พะเยา,19.13333,99.90000,0.00,08-19-2019,22:00:00,26.6,1005.62,7.4,83,960.75,090,10.00,23.5,0.80,29.00
48315,THA WANGPHA,ท่าวังผา,น่าน,19.11056,100.80250,0.00,08-19-2019,22:00:00,28.0,1006.73,3.7,86,980.18,180,8.00,25.4,1.50,32.52
48324,THOEN,เถิน,ลำปาง,17.63661,99.24475,0.00,08-19-2019,22:00:00,28.2,1006.43,0.0,76,984.82,000,12.00,23.5,0.01,29.03
48325,MAE SARIANG,แม่สะเรียง,แม่ฮ่องสอน,18.16667,97.93333,40.20,08-19-2019,22:00:00,24.4,1009.68,0.0,95,985.37,000,6.00,23.5,42.20,28.97
48327,CHIANG MAI,เชียงใหม่,เชียงใหม่,18.79000,98.97694,0.00,08-19-2019,22:00:00,28.0,1006.19,3.7,79,971.93,210,10.00,24.1,2.30,30.01
48328,LAMPANG,ลำปาง,ลำปาง,18.28333,99.51667,0.00,08-19-2019,22:00:00,26.6,1006.93,0.0,87,979.44,000,10.00,24.3,0.00,30.34
48329,LAMPHUN,ลำพูน,ลำพูน,18.56722,99.03389,0.00,08-19-2019,22:00:00,28.2,1006.21,0.0,72,972.90,000,10.00,22.8,0.00,27.69
48330,PHRAE,แพร่,แพร่,18.16667,100.16667,1.00,08-19-2019,22:00:00,27.0,1006.63,3.7,90,988.16,180,10.00,25.1,1.00,31.94
48331,NAN,น่าน,น่าน,18.77972,100.77778,0.00,08-19-2019,22:00:00,27.4,1006.26,0.0,87,983.53,000,10.00,25.0,1.10,31.61
48333,NAN AGROMET.,น่าน สกษ.,น่าน,18.86667,100.75000,0.00,08-19-2019,22:00:00,25.5,1006.59,0.0,93,976.64,000,10.00,24.2,2.00,30.17
48334,LAMPANG AGROMET.,ลำปาง สกษ.,ลำปาง,18.31667,99.28333,0.00,08-19-2019,22:00:00,25.8,1007.01,0.0,93,971.47,000,7.00,24.6,0.60,31.00
48350,LOEI AGROMET.,เลย สกษ.,เลย,17.40000,101.73333,0.00,08-19-2019,22:00:00,26.2,1005.76,0.0,86,976.07,000,14.00,23.7,0.00,29.33
48351,UTTARADIT,อุตรดิตถ์,อุตรดิตถ์,17.61667,100.10000,0.00,08-19-2019,22:00:00,28.5,1006.76,0.0,85,999.50,000,9.00,25.7,0.90,32.96
48352,NONG KHAI,หนองคาย,หนองคาย,17.86717,102.73303,0.00,08-19-2019,22:00:00,29.7,1005.09,5.6,83,985.42,230,13.00,26.5,0.00,34.59
48353,LOEI,เลย,เลย,17.45000,101.73333,0.00,08-19-2019,22:00:00,26.8,1005.79,3.7,82,977.19,120,15.00,23.4,0.00,28.84
48354,UDON THANI,อุดรธานี,อุดรธานี,17.38333,102.80000,0.00,08-19-2019,22:00:00,28.9,1005.66,3.7,78,985.65,210,15.00,24.6,0.00,30.93
48355,SAKON NAKHON AGROMET.,สกลนคร สกษ.,สกลนคร,17.12503,104.06100,0.00,08-19-2019,22:00:00,26.2,1006.58,0.0,93,984.82,000,10.00,24.9,11.20,31.49
48356,SAKON NAKHON,สกลนคร,สกลนคร,17.15000,104.13333,0.00,08-19-2019,22:00:00,27.1,1005.40,3.7,86,985.96,160,12.00,24.5,0.01,30.75
48357,NAKHON PHANOM,นครพนม,นครพนม,17.41083,104.78250,0.00,08-19-2019,22:00:00,27.5,1006.61,0.0,82,989.91,000,11.00,24.2,0.01,30.15
48358,NAKHON PHANOM AGROMET.,นครพนม สกษ.,นครพนม,17.44306,104.77361,0.00,08-19-2019,22:00:00,26.5,1006.82,0.0,90,989.40,000,10.00,24.8,0.00,31.24
48360,NONG BUA LAM PHU,หนองบัวลำภู,หนองบัวลำภู,17.23250,102.42944,0.00,08-19-2019,22:00:00,27.5,1005.61,0.0,81,979.93,000,10.00,23.9,0.00,29.60
48372,SUKHOTHAI*,สุโขทัย,สุโขทัย,17.10611,99.80000,0.00,08-19-2019,22:00:00,29.0,1006.60,16.7,74,1000.85,240,10.00,23.9,0.00,29.74
48373,SI SAMRONG AGROMET.,ศรีสำโรง สกษ.,สุโขทัย,17.16136,99.86167,0.00,08-19-2019,22:00:00,29.0,1006.62,0.0,78,1000.47,000,10.00,24.7,0.00,31.13
48374,LOM SAK,หล่มสัก,เพชรบูรณ์,16.77361,101.24944,0.00,08-19-2019,22:00:00,27.0,1007.95,0.0,90,991.50,000,10.00,25.3,1.60,32.21
48375,MAE SOT,แม่สอด,ตาก,16.65917,98.55083,1.10,08-19-2019,22:00:00,25.3,1007.66,0.0,92,985.21,000,10.00,23.8,9.40,29.54
48376,TAK,ตาก,ตาก,16.87833,99.14333,0.00,08-19-2019,22:00:00,28.4,1008.29,7.4,73,993.95,280,6.00,23.1,0.40,28.33
48377,BHUMIBOL DAM,เขื่อนภูมิพล,ตาก,17.24389,99.00250,0.00,08-19-2019,22:00:00,29.1,1007.16,0.0,69,990.89,000,8.00,22.8,0.00,27.75
48378,PHITSANULOK,พิษณุโลก,พิษณุโลก,16.79481,100.27930,0.00,08-19-2019,22:00:00,27.2,1008.03,5.6,88,1002.80,130,10.00,25.1,1.10,31.77
48379,PHETCHABUN,เพชรบูรณ์,เพชรบูรณ์,16.43333,101.15000,0.00,08-19-2019,22:00:00,27.0,1006.38,0.0,82,993.19,000,10.00,23.6,1.50,29.21
48380,KAMPHAENG PHET,กำแพงเพชร,กำแพงเพชร,16.48681,99.52697,0.00,08-19-2019,22:00:00,26.6,1007.97,0.0,92,998.63,000,10.00,25.2,0.60,31.99
48381,KHON KAEN,ขอนแก่น,ขอนแก่น,16.46111,102.78972,0.00,08-19-2019,22:00:00,29.6,1006.18,9.3,71,984.70,250,10.00,23.7,0.01,29.24
48382,MAHASARAKHAM,มหาสารคาม,มหาสารคาม,16.24722,103.06805,0.00,08-19-2019,22:00:00,29.7,1006.90,0.0,70,989.56,000,10.00,23.6,0.00,29.16
48383,MUKDAHAN,มุกดาหาร,มุกดาหาร,16.54139,104.72889,1.50,08-19-2019,22:00:00,26.2,1005.78,0.0,96,989.92,000,9.00,25.5,5.50,32.59
48384,THA PHRA AGROMET.,ท่าพระ สกษ.,ขอนแก่น,16.33333,102.81667,0.00,08-19-2019,22:00:00,29.7,1005.12,0.0,71,986.44,000,8.00,23.9,0.00,29.71
48385,UMPHANG,อุ้มผาง,ตาก,16.02472,98.86444,0.00,08-19-2019,22:00:00,23.9,1008.93,0.0,91,957.31,000,6.00,22.4,2.90,27.08
48386,PICHIT AGROMET.,พิจิตร สกษ.,พิจิตร,16.43806,100.29250,0.01,08-19-2019,22:00:00,26.0,1007.86,11.1,93,1003.89,150,5.00,24.7,15.00,31.11
48387,DOI MU SOE AGROMET.,ดอยมูเซอร์ สกษ.,ตาก,16.75000,98.93333,0.40,08-19-2019,22:00:00,21.4,1009.06,25.9,97,913.74,230,.20,20.9,2.10,24.76
48390,KALASIN,กาฬสินธุ์,กาฬสินธุ์,16.33250,103.58833,0.00,08-19-2019,22:00:00,28.8,1006.11,0.0,92,990.23,000,8.00,27.4,0.00,36.52
48400,NAKHON SAWAN,นครสวรรค์ ,นครสวรรค์,15.67183,100.13236,0.90,08-19-2019,22:00:00,25.5,1008.71,0.0,94,1004.64,000,5.00,24.5,13.00,30.71
48401,TAKFA AGROMET.,ตากฟ้า สกษ.,นครสวรรค์,15.34944,100.53028,3.00,08-19-2019,22:00:00,24.5,1009.75,0.0,93,998.96,000,8.00,23.3,45.40,28.63
48402,CHAINAT AGROMET.,ชัยนาท สกษ.,ชัยนาท,15.15000,100.18333,4.30,08-19-2019,22:00:00,25.4,1009.10,3.7,95,1007.16,150,6.00,24.5,26.70,30.79
48403,CHAIYAPHUM,ชัยภูมิ,ชัยภูมิ,15.80000,102.03333,6.00,08-19-2019,22:00:00,25.1,1008.69,9.3,89,987.66,250,5.00,23.2,6.00,28.40
48404,ROI ET AGROMET.,ร้อยเอ็ด สกษ.,ร้อยเอ็ด,16.07322,103.60844,0.00,08-19-2019,22:00:00,29.0,1006.22,0.0,84,988.69,000,10.00,26.0,0.00,33.70
48405,ROI ET,ร้อยเอ็ด,ร้อยเอ็ด,16.02000,103.74389,0.00,08-19-2019,22:00:00,30.0,1005.75,0.0,75,989.77,000,10.00,25.0,0.00,31.72
48407,UBON RATCHATHANI,อุบลราชธานี (ศูนย์ฯ),อุบลราชธานี,15.25000,104.86667,0.00,08-19-2019,22:00:00,29.4,1006.61,0.0,82,992.70,000,10.00,26.0,0.00,33.66
48408,UBON RATCHATHANI AGROMET.,อุบลราชธานี สกษ.,อุบลราชธานี,15.23914,105.02350,0.00,08-19-2019,22:00:00,28.5,1007.48,0.0,88,992.72,000,8.00,26.4,0.00,34.40
48409,SI SAKET AGROMET.,ศรีสะเกษ,ศรีสะเกษ,15.00000,104.05000,0.00,08-19-2019,22:00:00,28.5,1007.80,0.0,88,993.19,000,7.00,26.4,0.00,34.40
48410,UTHAITHANI,อุทัยธานี,อุทัยธานี,15.37417,100.03889,1.80,08-19-2019,22:00:00,25.8,1007.94,0.0,93,1004.91,"{'@attributes': {'Unit': 'degree'}, '0': '   '}",7.00,24.6,37.90,31.00
48413,WICHIAN BURI,วิเชียรบุรี,เพชรบูรณ์,15.65700,101.10800,4.10,08-19-2019,22:00:00,24.6,1008.85,0.0,95,1000.82,000,7.00,23.7,4.10,29.33
48415,AYUTTHAYA,พระนครศรีอยุธยา,พระนครศรีอยุธยา,14.53472,100.72500,0.01,08-19-2019,22:00:00,26.6,1008.64,5.6,89,1007.53,050,7.00,24.6,0.01,30.89
48416,THA TUM,ท่าตูม,สุรินทร์,15.31667,103.68333,0.00,08-19-2019,22:00:00,29.5,1007.19,0.0,89,992.63,000,8.00,27.4,0.00,36.55
48417,NAKORNNAYOK,นครนายก,นครนายก,14.36222,101.39278,12.40,08-19-2019,22:00:00,19.5,1010.30,13.0,99,874.88,260,.10,19.3,12.40,22.42
48418,BUA CHUM,บัวชุม  ,ลพบุรี,15.26667,101.18736,16.00,08-19-2019,22:00:00,24.3,1009.78,3.7,93,1003.83,190,8.00,23.1,16.00,28.28
48419,PATHUMTHANI,ปทุมธานี สกษ.,ปทุมธานี,14.10000,100.61667,0.60,08-19-2019,22:00:00,28.5,1009.35,7.4,81,1008.55,310,8.00,24.9,0.60,31.54
48420,Samut Prakarn,สมุทรปราการ สกษ.,สมุทรปราการ,13.51667,100.76167,0.00,08-19-2019,22:00:00,30.1,1007.68,11.1,71,1007.24,230,10.00,24.2,0.00,30.22
48421,THONG PHAPHUM,ทองผาภูมิ,กาญจนบุรี,14.74222,98.63639,0.40,08-19-2019,22:00:00,25.0,1009.65,0.0,96,998.24,000,3.00,24.3,4.00,30.32
48425,SUPHAN BURI,สุพรรณบุรี,สุพรรณบุรี,14.47444,100.13889,0.00,08-19-2019,22:00:00,28.8,1009.24,1.9,73,1008.23,270,10.00,23.6,0.00,29.08
48426,LOP BURI,ลพบุรี,ลพบุรี,14.79972,100.64500,3.00,08-19-2019,22:00:00,25.5,1009.07,3.7,94,1007.24,140,7.00,24.5,10.60,30.71
48427,U THONG AGROMET.,อู่ทอง สกษ.,สุพรรณบุรี,14.30361,99.86472,0.00,08-19-2019,22:00:00,28.4,1009.01,0.0,73,1008.25,000,6.00,23.0,0.00,28.06
48429,SUVARNABHUMI AIRPORT,สนามบินสุวรรณภูมิ,สมุทรปราการ,13.68639,100.76750,0.00,08-19-2019,22:00:00,29.2,1009.03,13.0,79,1008.33,240,10.00,25.1,0.00,31.81
48430,PRACHIN BURI,ปราจีนบุรี,ปราจีนบุรี,14.05842,101.36930,0.00,08-19-2019,22:00:00,29.2,1008.62,9.3,73,1007.92,310,7.00,23.9,0.00,29.57
48431,NAKHON RATCHASIMA,นครราชสีมา,นครราชสีมา,14.96830,102.08603,0.00,08-19-2019,22:00:00,26.6,1008.98,11.1,71,987.76,260,10.00,21.0,0.00,24.87
48432,SURIN,สุรินทร์,สุรินทร์,14.88333,103.50000,0.00,08-19-2019,22:00:00,29.8,1006.96,5.6,73,990.40,220,8.00,24.4,0.00,30.47
48433,SURIN AGROMET.,สุรินทร์ สกษ.,สุรินทร์,14.88333,103.45000,0.00,08-19-2019,22:00:00,29.0,1007.49,3.7,77,991.16,180,6.00,24.6,0.00,30.85
48434,CHOK CHAI,โชคชัย,นครราชสีมา,14.71889,102.16861,0.40,08-19-2019,22:00:00,26.0,1008.67,3.7,80,986.71,260,10.00,22.3,0.40,26.88
48435,PAKCHONG AGROMET.,ปากช่อง สกษ.,นครราชสีมา,14.64389,101.33194,11.00,08-19-2019,22:00:00,23.7,1009.87,7.4,94,966.04,150,8.00,22.7,11.00,27.50
48436,NANG RONG,นางรอง,บุรีรัมย์,14.58333,102.80000,0.00,08-19-2019,22:00:00,29.9,1007.34,5.6,69,986.97,210,10.00,23.5,0.00,29.00
48437,BURIRUM,บุรีรัมย์,บุรีรัมย์,15.22575,103.24808,0.00,08-19-2019,22:00:00,29.1,1008.54,9.3,70,987.84,250,9.00,23.1,0.00,28.29
48438,SAMUTSONGKRAM,สมุทรสงคราม,สมุทรสงคราม,13.40778,100.03222,0.00,08-19-2019,22:00:00,29.6,1007.80,3.7,83,1007.37,240,10.00,26.4,0.00,34.37
48439,KABIN BURI,กบินทร์บุรี,ปราจีนบุรี,13.98333,101.70722,0.00,08-19-2019,22:00:00,28.4,1006.87,0.0,86,1005.46,000,6.00,25.9,0.00,33.33
48440,SA KAEW,สระแก้ว,สระแก้ว,13.78889,102.03472,0.00,08-19-2019,22:00:00,28.1,1008.21,0.0,84,1003.29,000,7.00,25.1,0.00,31.87
48450,KANCHANA BURI,กาญจนบุรี,กาญจนบุรี,14.02250,99.53583,0.00,08-19-2019,22:00:00,27.1,1009.36,0.0,87,1006.06,000,10.00,24.8,0.40,31.30
48451,NAKHONPATHOM,นครปฐม,นครปฐม,14.01167,99.97000,0.00,08-19-2019,22:00:00,26.8,1009.09,0.0,90,1007.98,000,10.00,24.9,0.00,31.55
48453,BANG NA AGROMET.,กรุงเทพฯ บางนา สกษ.,กรุงเทพมหานคร,13.66639,100.60611,0.00,08-19-2019,22:00:00,30.2,1009.17,5.6,77,1008.87,220,10.00,25.7,0.01,33.00
48455,BANGKOK METROPOLIS,กรุงเทพมหานคร,กรุงเทพมหานคร,13.72639,100.56000,0.00,08-19-2019,22:00:00,29.7,1009.31,0.0,79,1008.82,000,10.00,25.8,0.00,33.12
48456,DON MUANG AIRPORT,สนามบินดอนเมือง,กรุงเทพมหานคร,13.91917,100.60500,0.40,08-19-2019,22:00:00,28.7,1008.95,11.1,78,1007.55,270,1.00,24.4,4.60,30.54
48458,CHACHOENGSAO,ฉะเชิงเทรา,ฉะเชิงเทรา,13.51556,101.45833,0.00,08-19-2019,22:00:00,28.0,1010.51,0.0,81,1002.50,000,10.00,24.4,0.00,30.56
48459,CHON BURI,ชลบุรี,ชลบุรี,13.36667,100.98333,0.00,08-19-2019,22:00:00,30.3,1008.43,0.0,74,1008.15,000,10.00,25.0,0.00,31.76
48460,KO SICHANG,เกาะสีชัง,ชลบุรี,13.16167,100.80194,0.00,08-19-2019,22:00:00,29.5,1008.44,5.6,79,1005.33,200,10.00,25.5,0.00,32.71
48461,PHATTHAYA,พัทยา,ชลบุรี,12.92000,100.86944,0.00,08-19-2019,22:00:00,28.9,1008.71,5.6,85,1001.80,180,10.00,26.1,0.00,33.78
48462,ARANYA PRATHET,อรัญประเทศ,สระแก้ว,13.70000,102.58333,0.00,08-19-2019,22:00:00,29.0,1008.07,0.0,80,1002.51,000,8.00,25.2,0.00,31.98
48464,RATCHA BURI,ราชบุรี,ราชบุรี,13.48931,99.79239,0.00,08-19-2019,22:00:00,28.0,1009.58,3.7,82,1008.32,320,10.00,24.6,0.00,30.84
48465,PHETCHA BURI,เพชรบุรี,เพชรบุรี,12.99944,100.06056,0.00,08-19-2019,22:00:00,29.3,1008.58,0.0,80,1008.15,000,11.00,25.5,0.00,32.59
48474,NONG PHLUB AGROMET.,หนองพลับ สกษ.,ประจวบคีรีขันธ์,12.58333,99.73333,0.00,08-19-2019,22:00:00,27.3,1009.27,0.0,79,997.00,000,8.00,23.4,0.00,28.69
48475,HUA HIN,หัวหิน,ประจวบคีรีขันธ์,12.58611,99.96250,0.00,08-19-2019,22:00:00,28.5,1008.74,0.0,78,1008.03,000,10.00,24.3,0.00,30.42
48477,SATTAHIP,สัตหีบ,ชลบุรี,12.68333,100.98333,0.00,08-19-2019,22:00:00,29.7,1009.15,7.4,72,1006.73,230,10.00,24.1,0.00,29.99
48478,RAYONG,ระยอง,ระยอง,12.63222,101.34361,0.00,08-19-2019,22:00:00,29.3,1009.25,9.3,83,1008.73,220,10.00,26.1,0.00,33.74
48479,HUAI PONG AGROMET.,ห้วยโป่ง สกษ.,ระยอง,12.73333,101.13333,0.00,08-19-2019,22:00:00,29.4,1008.88,0.0,79,1003.75,000,11.00,25.3,0.00,32.22
48480,CHANTHA BURI,จันทบุรี,จันทบุรี,12.61667,102.11333,0.00,08-19-2019,22:00:00,28.4,1008.91,0.0,84,1008.50,000,7.00,25.4,0.00,32.47
48481,PHLIU  AGROMET.,พลิ้ว สกษ.,จันทบุรี,12.50861,102.17305,0.00,08-19-2019,22:00:00,26.9,1009.36,0.0,90,1006.58,000,8.00,25.0,0.00,31.74
48500,PRACHUAP KHIRIKHAN,ประจวบคีรีขันธ์,ประจวบคีรีขันธ์,11.83333,99.83333,0.00,08-19-2019,22:00:00,27.6,1010.00,7.4,80,1009.22,240,10.00,23.8,0.30,29.52
48501,TRAD,ตราด,ตราด,11.76667,102.88333,0.00,08-19-2019,22:00:00,26.5,1009.21,5.6,92,1008.75,110,7.00,25.1,0.00,31.79
48517,CHUMPHON,ชุมพร,ชุมพร,10.49875,99.18847,0.00,08-19-2019,22:00:00,28.0,1009.83,7.4,80,1009.15,260,10.00,24.3,0.00,30.28
48520,SAWI AGROMET.,สวี สกษ.,ชุมพร,10.33333,99.10000,0.00,08-19-2019,22:00:00,27.4,1009.78,3.7,81,1008.25,250,8.00,23.9,0.00,29.69
48532,RANONG,ระนอง,ระนอง,9.98333,98.61667,0.00,08-19-2019,22:00:00,27.2,1011.41,0.0,81,1010.49,000,10.00,23.7,0.00,29.31
48550,KO SAMUI,เกาะสมุย,สุราษฎร์ธานี,9.46667,100.05000,0.00,08-19-2019,22:00:00,30.1,1009.92,11.1,66,1009.24,270,10.00,23.1,0.00,28.28
48551,SURAT THANI,สุราษฎร์ธานี,สุราษฎร์ธานี,9.13556,99.15194,0.00,08-19-2019,22:00:00,26.2,1010.74,0.0,79,1009.94,000,10.00,22.3,0.00,26.98
48552,NAKHONSI THAMMARAT,นครศรีธรรมราช,นครศรีธรรมราช,8.53778,99.96389,0.00,08-19-2019,22:00:00,28.0,1010.32,0.0,82,1009.68,000,10.00,24.7,0.00,31.11
48554,NAKHONSI THAMMARAT AGROMET.,นครศรีธรรมราช สกษ.,นครศรีธรรมราช,8.35931,100.00000,0.00,08-19-2019,22:00:00,27.6,1010.52,0.0,88,1010.12,000,10.00,25.5,0.00,32.56
48555,SURAT THANI AGROMET.,สุราษฎร์ธานี สกษ.,สุราษฎร์ธานี,9.10000,99.63333,0.00,08-19-2019,22:00:00,27.2,1012.44,0.0,87,1008.21,000,5.00,24.9,0.00,31.49
48556,PHRA SANG,พระแสง สอท.,สุราษฎร์ธานี,8.57022,99.25825,0.00,08-19-2019,22:00:00,26.4,1010.75,0.0,89,1009.13,000,10.00,24.4,0.00,30.51
48557,CHAWANG,ฉวาง,นครศรีธรรมราช,8.43194,99.51194,0.00,08-19-2019,22:00:00,26.6,1010.93,0.0,91,1007.44,000,10.00,25.0,0.00,31.71
48560,PHATTHALUNG AGROMET.,พัทลุง สกษ.,พัทลุง,7.58333,100.16667,0.00,08-19-2019,22:00:00,28.6,1009.93,0.0,76,1008.57,000,8.00,24.0,0.00,29.79
48561,TAKUA PA,ตะกั่วป่า,พังงา,8.68417,98.25222,0.00,08-19-2019,22:00:00,26.0,1010.12,0.0,88,1009.23,000,12.00,23.8,0.00,29.50
48563,KRABI,กระบี่,กระบี่,8.10361,98.97528,0.00,08-19-2019,22:00:00,25.8,1010.35,0.0,90,1006.77,000,10.00,24.1,0.00,29.93
48564,PHUKET,ภูเก็ต,ภูเก็ต,7.88333,98.40000,0.00,08-19-2019,22:00:00,28.5,1010.76,3.7,80,1010.32,320,10.00,24.8,0.00,31.26
48565,PHUKET AIRPORT,ภูเก็ต (ศูนย์ฯ),ภูเก็ต,8.14500,98.31444,0.00,08-19-2019,22:00:00,27.8,1010.18,0.0,81,1009.19,000,10.00,24.2,0.00,30.17
48566,KO LANTA,เกาะลันตา,กระบี่,7.53333,99.05000,0.00,08-19-2019,22:00:00,26.2,1010.55,7.4,85,1009.73,100,10.00,23.6,0.00,29.07
48567,TRANG AIRPORT,ตรัง,ตรัง,7.51667,99.61667,0.00,08-19-2019,22:00:00,27.1,1010.68,0.0,89,1008.86,000,10.00,25.1,0.00,31.85
48568,SONGKHLA,สงขลา,สงขลา,7.18211,100.60769,0.00,08-19-2019,22:00:00,29.5,1010.26,7.4,69,1009.52,250,10.00,23.2,0.01,28.50
48569,HAT YAI AIRPORT,หาดใหญ่,สงขลา,6.91667,100.43333,0.00,08-19-2019,22:00:00,27.0,1010.67,5.6,86,1006.66,220,10.00,24.4,0.00,30.56
48570,SATUN,สตูล,สตูล,6.65000,100.08333,0.00,08-19-2019,22:00:00,27.5,1010.92,0.0,88,1010.24,000,10.00,25.4,0.00,32.36
48571,KHO HONG AGROMET.,คอหงษ์ สกษ.,สงขลา,7.00000,100.50000,0.00,08-19-2019,22:00:00,27.4,1010.21,0.0,84,1009.09,000,10.00,24.4,0.00,30.50
48574,SA DAO,สะเดา,สงขลา,6.79806,100.39056,0.00,08-19-2019,22:00:00,27.2,1010.74,3.7,87,1007.81,050,10.00,24.9,0.00,31.49
48580,PATTANI AIRPORT,ปัตตานี,ปัตตานี,6.78333,101.15000,0.00,08-19-2019,22:00:00,28.0,1009.51,0.0,87,1008.82,000,10.00,25.6,0.00,32.80
48581,YALA AGROMET.,ยะลา สกษ.,ยะลา,6.51667,101.28333,0.00,08-19-2019,22:00:00,27.0,1010.86,3.7,86,1006.72,290,8.00,24.4,0.00,30.56
48583,NARATHIWAT,นราธิวาส,นราธิวาส,6.41667,101.81667,0.00,08-19-2019,22:00:00,29.0,1010.54,0.0,78,1009.95,000,10.00,24.7,0.00,31.13
