WmoStationNumber,StationNameEnglish,StationNameThai,Province,Latitude,Longitude,StationPressure,Date,Time,RelativeHumidity,WindSpeed,Rainfall24Hr,WindDirection,MeanSeaLevelPressure,AirTemperature,LandVisibility,Rainfall,DewPoint,VaporPressure
48300,MAE HONG SON,แม่ฮ่องสอน,แม่ฮ่องสอน,19.29897,97.97578,968.66,08-11-2019,04:00:00,96,0.0,67.90,000,999.34,26.0,6.00,0.00,25.3,32.20
48302,DOI ANG KANG,ดอยอ่างขาง,เชียงใหม่,19.93139,99.04833,839.48,08-11-2019,04:00:00,99,0.0,17.60,000,999.85,18.3,.10,0.00,18.1,20.80
48303,CHIANG RAI,เชียงราย,เชียงราย,19.96139,99.88139,957.88,08-11-2019,04:00:00,91,5.6,4.20,040,1001.23,25.8,10.00,0.00,24.2,30.19
48304,CHAING RAI AGROMET.,เชียงราย สกษ.,เชียงราย,19.87083,99.78278,956.31,08-11-2019,04:00:00,96,0.0,14.00,000,1001.80,24.2,10.00,0.00,23.5,28.88
48307,THUNG CHANG,ทุ่งช้าง,น่าน,19.41194,100.88353,964.50,08-11-2019,04:00:00,100,0.0,24.10,000,1002.10,24.5,5.00,0.00,24.5,30.73
48310,PHAYAO,พะเยา,พะเยา,19.13333,99.90000,956.91,08-11-2019,04:00:00,97,0.0,17.50,000,1001.82,25.2,6.00,0.80,24.8,31.22
48315,THA WANGPHA,ท่าวังผา,น่าน,19.11056,100.80250,975.76,08-11-2019,04:00:00,96,0.0,18.70,000,1002.40,25.7,6.00,0.00,25.0,31.63
48324,THOEN,เถิน,ลำปาง,17.63661,99.24475,979.11,08-11-2019,04:00:00,98,0.0,67.40,000,1000.84,24.8,7.00,30.00,24.5,30.75
48325,MAE SARIANG,แม่สะเรียง,แม่ฮ่องสอน,18.16667,97.93333,975.03,08-11-2019,04:00:00,93,0.0,18.50,000,998.96,26.0,6.00,0.00,24.8,31.38
48327,CHIANG MAI,เชียงใหม่,เชียงใหม่,18.79000,98.97694,966.94,08-11-2019,04:00:00,93,0.0,29.90,000,1001.30,25.6,8.00,0.90,24.4,30.63
48328,LAMPANG,ลำปาง,ลำปาง,18.28333,99.51667,973.35,08-11-2019,04:00:00,96,0.0,76.70,000,1000.82,25.0,10.00,0.00,24.3,30.32
48329,LAMPHUN,ลำพูน,ลำพูน,18.56722,99.03389,967.00,08-11-2019,04:00:00,95,0.0,6.40,000,1000.46,25.1,10.00,3.50,24.2,30.23
48330,PHRAE,แพร่,แพร่,18.16667,100.16667,983.04,08-11-2019,04:00:00,98,0.0,27.80,000,1001.46,26.2,12.00,0.20,25.8,33.15
48331,NAN,น่าน,น่าน,18.77972,100.77778,978.79,08-11-2019,04:00:00,97,0.0,17.70,000,1001.53,25.8,8.00,0.00,25.4,32.37
48333,NAN AGROMET.,น่าน สกษ.,น่าน,18.86667,100.75000,972.08,08-11-2019,04:00:00,97,0.0,4.10,000,1001.98,24.6,6.00,0.00,24.0,29.85
48334,LAMPANG AGROMET.,ลำปาง สกษ.,ลำปาง,18.31667,99.28333,964.02,08-11-2019,04:00:00,93,0.0,25.00,000,999.29,25.8,6.00,0.00,24.6,31.00
48350,LOEI AGROMET.,เลย สกษ.,เลย,17.40000,101.73333,971.86,08-11-2019,04:00:00,99,0.0,15.00,000,1001.62,24.2,4.00,1.50,24.0,29.92
48351,UTTARADIT,อุตรดิตถ์,อุตรดิตถ์,17.61667,100.10000,993.90,08-11-2019,04:00:00,92,0.0,0.70,000,1001.17,26.6,7.00,0.10,25.2,31.99
48352,NONG KHAI,หนองคาย,หนองคาย,17.86717,102.73303,982.67,08-11-2019,04:00:00,98,3.7,32.00,240,1002.60,24.9,10.00,2.80,24.6,30.93
48353,LOEI,เลย,เลย,17.45000,101.73333,973.78,08-11-2019,04:00:00,96,0.0,28.60,000,1002.49,24.6,10.00,1.10,23.9,29.59
48354,UDON THANI,อุดรธานี,อุดรธานี,17.38333,102.80000,982.31,08-11-2019,04:00:00,98,5.6,23.00,080,1002.48,25.4,10.00,0.00,25.1,31.87
48355,SAKON NAKHON AGROMET.,สกลนคร สกษ.,สกลนคร,17.12503,104.06100,981.30,08-11-2019,04:00:00,97,0.0,25.50,000,1003.05,25.2,12.00,0.00,24.6,30.96
48356,SAKON NAKHON,สกลนคร,สกลนคร,17.15000,104.13333,983.58,08-11-2019,04:00:00,95,5.6,2.60,160,1003.05,25.9,10.00,0.00,25.0,31.74
48357,NAKHON PHANOM,นครพนม,นครพนม,17.41083,104.78250,987.43,08-11-2019,04:00:00,86,3.7,0.10,180,1004.12,26.8,10.00,0.00,24.2,30.18
48358,NAKHON PHANOM AGROMET.,นครพนม สกษ.,นครพนม,17.44306,104.77361,986.36,08-11-2019,04:00:00,92,0.0,1.50,000,1003.73,26.5,10.00,0.00,25.1,31.79
48360,NONG BUA LAM PHU,หนองบัวลำภู,หนองบัวลำภู,17.23250,102.42944,976.05,08-11-2019,04:00:00,99,7.4,49.00,090,1001.83,25.1,8.00,0.01,24.9,31.58
48372,SUKHOTHAI*,สุโขทัย,สุโขทัย,17.10611,99.80000,996.16,08-11-2019,04:00:00,97,0.0,3.50,000,1001.93,26.4,10.00,0.00,25.8,33.27
48373,SI SAMRONG AGROMET.,ศรีสำโรง สกษ.,สุโขทัย,17.16136,99.86167,993.62,08-11-2019,04:00:00,97,0.0,0.50,000,999.77,26.8,8.00,0.00,26.2,34.07
48374,LOM SAK,หล่มสัก,เพชรบูรณ์,16.77361,101.24944,986.07,08-11-2019,04:00:00,92,0.0,4.40,000,1002.48,26.0,8.00,0.00,24.6,30.84
48375,MAE SOT,แม่สอด,ตาก,16.65917,98.55083,977.54,08-11-2019,04:00:00,92,7.4,52.70,210,999.95,23.7,7.00,3.60,22.3,27.00
48376,TAK,ตาก,ตาก,16.87833,99.14333,986.74,08-11-2019,04:00:00,95,0.0,9.00,000,1001.09,25.9,6.00,0.00,25.0,31.74
48377,BHUMIBOL DAM,เขื่อนภูมิพล,ตาก,17.24389,99.00250,984.18,08-11-2019,04:00:00,98,0.0,29.90,000,1000.58,24.7,6.00,0.00,24.4,30.56
48378,PHITSANULOK,พิษณุโลก,พิษณุโลก,16.79481,100.27930,995.96,08-11-2019,04:00:00,92,7.4,18.50,130,1001.18,25.8,10.00,0.00,24.3,30.46
48379,PHETCHABUN,เพชรบูรณ์,เพชรบูรณ์,16.43333,101.15000,987.59,08-11-2019,04:00:00,93,0.0,5.10,000,1000.73,26.4,10.00,0.20,25.1,31.88
48380,KAMPHAENG PHET,กำแพงเพชร,กำแพงเพชร,16.48681,99.52697,991.53,08-11-2019,04:00:00,96,0.0,14.50,000,1000.83,25.9,10.00,0.00,25.2,32.01
48382,MAHASARAKHAM,มหาสารคาม,มหาสารคาม,16.24722,103.06805,984.02,08-11-2019,04:00:00,93,0.0,52.70,000,1001.50,25.6,7.00,0.00,24.3,30.36
48383,MUKDAHAN,มุกดาหาร,มุกดาหาร,16.54139,104.72889,987.37,08-11-2019,04:00:00,90,7.4,0.20,140,1003.15,26.7,10.00,0.00,25.0,31.63
48384,THA PHRA AGROMET.,ท่าพระ สกษ.,ขอนแก่น,16.33333,102.81667,982.81,08-11-2019,04:00:00,93,0.0,19.10,000,1001.68,25.6,8.00,0.00,24.3,30.36
48385,UMPHANG,อุ้มผาง,ตาก,16.02472,98.86444,951.48,08-11-2019,04:00:00,93,0.0,15.60,000,1002.94,23.0,5.00,1.20,21.8,26.09
48386,PICHIT AGROMET.,พิจิตร สกษ.,พิจิตร,16.43806,100.29250,997.16,08-11-2019,04:00:00,94,18.5,32.10,110,1001.11,26.1,5.00,0.00,25.1,31.85
48387,DOI MU SOE AGROMET.,ดอยมูเซอร์ สกษ.,ตาก,16.75000,98.93333,906.82,08-11-2019,04:00:00,96,9.3,56.80,230,1001.48,21.2,1.50,0.40,20.6,24.22
48390,KALASIN,กาฬสินธุ์,กาฬสินธุ์,16.33250,103.58833,987.04,08-11-2019,04:00:00,96,0.0,3.00,000,1003.01,26.0,7.00,0.00,25.3,32.20
48400,NAKHON SAWAN,นครสวรรค์ ,นครสวรรค์,15.67183,100.13236,997.51,08-11-2019,04:00:00,86,5.6,1.10,180,1001.53,26.6,10.00,0.00,24.0,29.80
48401,TAKFA AGROMET.,ตากฟ้า สกษ.,นครสวรรค์,15.34944,100.53028,992.26,08-11-2019,04:00:00,92,0.0,0.00,000,1002.95,25.5,7.00,0.00,24.0,29.91
48402,CHAINAT AGROMET.,ชัยนาท สกษ.,ชัยนาท,15.15000,100.18333,999.95,08-11-2019,04:00:00,89,13.0,0.20,150,1001.88,25.5,9.00,0.00,23.6,29.11
48403,CHAIYAPHUM,ชัยภูมิ,ชัยภูมิ,15.80000,102.03333,981.60,08-11-2019,04:00:00,88,0.0,14.00,000,1002.42,26.2,10.00,0.00,24.0,29.86
48404,ROI ET AGROMET.,ร้อยเอ็ด สกษ.,ร้อยเอ็ด,16.07322,103.60844,985.18,08-11-2019,04:00:00,93,0.0,9.40,000,1002.85,25.5,10.00,0.00,24.2,30.17
48405,ROI ET,ร้อยเอ็ด,ร้อยเอ็ด,16.02000,103.74389,986.43,08-11-2019,04:00:00,95,0.0,18.40,000,1002.59,25.6,10.00,0.00,24.7,31.17
48407,UBON RATCHATHANI,อุบลราชธานี (ศูนย์ฯ),อุบลราชธานี,15.25000,104.86667,989.77,08-11-2019,04:00:00,94,5.6,1.70,140,1003.81,25.7,10.00,0.00,24.7,31.08
48408,UBON RATCHATHANI AGROMET.,อุบลราชธานี สกษ.,อุบลราชธานี,15.23914,105.02350,989.95,08-11-2019,04:00:00,96,0.0,0.20,000,1004.82,25.6,9.00,0.00,24.9,31.44
48409,SI SAKET AGROMET.,ศรีสะเกษ,ศรีสะเกษ,15.00000,104.05000,988.95,08-11-2019,04:00:00,94,0.0,0.70,000,1003.61,26.0,10.00,0.00,25.0,31.65
48410,UTHAITHANI,อุทัยธานี,อุทัยธานี,15.37417,100.03889,998.44,08-11-2019,04:00:00,87,0.0,2.50,"{'0': '   ', '@attributes': {'Unit': 'degree'}}",1001.44,26.3,10.00,0.00,24.0,29.78
48413,WICHIAN BURI,วิเชียรบุรี,เพชรบูรณ์,15.65700,101.10800,993.92,08-11-2019,04:00:00,89,0.0,3.80,000,1001.85,26.2,7.00,0.00,24.2,30.13
48415,AYUTTHAYA,พระนครศรีอยุธยา,พระนครศรีอยุธยา,14.53472,100.72500,1000.84,08-11-2019,04:00:00,91,5.6,0.30,160,1001.95,26.1,7.00,0.00,24.5,30.76
48416,THA TUM,ท่าตูม,สุรินทร์,15.31667,103.68333,987.38,08-11-2019,04:00:00,86,0.0,0.00,000,1001.99,26.9,8.00,0.00,24.3,30.37
48417,NAKORNNAYOK,นครนายก,นครนายก,14.36222,101.39278,869.59,08-11-2019,04:00:00,99,11.1,33.00,190,1004.16,19.6,.05,4.40,19.4,22.57
48418,BUA CHUM,บัวชุม  ,ลพบุรี,15.26667,101.18736,996.23,08-11-2019,04:00:00,92,11.1,3.30,210,1002.10,26.0,10.00,0.00,24.6,30.84
48419,PATHUMTHANI,ปทุมธานี สกษ.,ปทุมธานี,14.10000,100.61667,1001.92,08-11-2019,04:00:00,85,0.0,1.90,000,1002.72,27.2,8.00,0.00,24.5,30.67
48420,Samut Prakarn,สมุทรปราการ สกษ.,สมุทรปราการ,13.51667,100.76167,1000.50,08-11-2019,04:00:00,74,9.3,0.00,210,1000.94,28.9,10.00,0.00,23.7,29.27
48421,THONG PHAPHUM,ทองผาภูมิ,กาญจนบุรี,14.74222,98.63639,991.56,08-11-2019,04:00:00,96,0.0,20.70,000,1002.90,24.8,3.00,4.70,24.1,29.95
48425,SUPHAN BURI,สุพรรณบุรี,สุพรรณบุรี,14.47444,100.13889,1001.50,08-11-2019,04:00:00,88,5.6,0.00,210,1002.51,26.5,10.00,0.00,24.3,30.43
48426,LOP BURI,ลพบุรี,ลพบุรี,14.79972,100.64500,1000.56,08-11-2019,04:00:00,89,3.7,0.30,170,1002.37,26.7,8.00,0.00,24.7,31.08
48427,U THONG AGROMET.,อู่ทอง สกษ.,สุพรรณบุรี,14.30361,99.86472,1001.50,08-11-2019,04:00:00,85,0.0,0.40,000,1002.26,26.2,7.00,0.00,23.6,29.07
48429,SUVARNABHUMI AIRPORT,สนามบินสุวรรณภูมิ,สมุทรปราการ,13.68639,100.76750,1002.24,08-11-2019,04:00:00,82,9.3,0.01,210,1002.94,27.9,10.00,0.01,24.4,30.64
48430,PRACHIN BURI,ปราจีนบุรี,ปราจีนบุรี,14.05842,101.36930,1002.22,08-11-2019,04:00:00,91,0.0,0.20,000,1002.92,27.1,7.00,0.20,25.5,32.69
48431,NAKHON RATCHASIMA,นครราชสีมา,นครราชสีมา,14.96830,102.08603,981.29,08-11-2019,04:00:00,86,5.6,0.20,220,1002.34,27.1,10.00,0.00,24.5,30.75
48432,SURIN,สุรินทร์,สุรินทร์,14.88333,103.50000,986.67,08-11-2019,04:00:00,89,0.0,0.00,000,1003.41,25.5,6.00,0.00,23.6,29.11
48433,SURIN AGROMET.,สุรินทร์ สกษ.,สุรินทร์,14.88333,103.45000,987.30,08-11-2019,04:00:00,90,3.7,0.00,190,1003.75,25.7,7.00,0.00,23.9,29.74
48434,CHOK CHAI,โชคชัย,นครราชสีมา,14.71889,102.16861,980.82,08-11-2019,04:00:00,77,0.0,0.00,000,1002.60,26.8,10.00,0.00,22.4,27.00
48435,PAKCHONG AGROMET.,ปากช่อง สกษ.,นครราชสีมา,14.64389,101.33194,959.50,08-11-2019,04:00:00,83,7.4,2.50,190,1002.72,25.8,10.00,0.00,22.7,27.56
48436,NANG RONG,นางรอง,บุรีรัมย์,14.58333,102.80000,982.37,08-11-2019,04:00:00,85,7.4,1.00,140,1002.96,25.4,10.00,0.00,22.7,27.63
48437,BURIRUM,บุรีรัมย์,บุรีรัมย์,15.22575,103.24808,983.23,08-11-2019,04:00:00,99,13.0,0.40,180,1004.11,25.1,8.00,0.00,24.9,31.58
48438,SAMUTSONGKRAM,สมุทรสงคราม,สมุทรสงคราม,13.40778,100.03222,1002.47,08-11-2019,04:00:00,81,13.0,1.50,210,1002.91,27.5,10.00,0.10,23.9,29.60
48439,KABIN BURI,กบินทร์บุรี,ปราจีนบุรี,13.98333,101.70722,1001.65,08-11-2019,04:00:00,96,0.0,1.10,000,1003.06,25.9,6.00,0.00,25.2,32.01
48440,SA KAEW,สระแก้ว,สระแก้ว,13.78889,102.03472,998.86,08-11-2019,04:00:00,96,0.0,0.80,000,1003.80,26.0,7.00,0.00,25.3,32.20
48450,KANCHANA BURI,กาญจนบุรี,กาญจนบุรี,14.02250,99.53583,999.04,08-11-2019,04:00:00,86,3.7,0.01,190,1002.32,26.3,10.00,0.00,23.8,29.52
48451,NAKHONPATHOM,นครปฐม,นครปฐม,14.01167,99.97000,1001.44,08-11-2019,04:00:00,93,0.0,0.01,000,1002.54,26.0,10.00,0.00,24.8,31.38
48453,BANG NA AGROMET.,กรุงเทพฯ บางนา สกษ.,กรุงเทพมหานคร,13.66639,100.60611,1002.31,08-11-2019,04:00:00,82,5.6,0.10,200,1002.61,27.8,10.00,0.00,24.5,30.72
48455,BANGKOK METROPOLIS,กรุงเทพมหานคร,กรุงเทพมหานคร,13.72639,100.56000,1002.09,08-11-2019,04:00:00,83,0.0,0.00,000,1002.58,27.6,10.00,0.00,24.4,30.61
48456,DON MUANG AIRPORT,สนามบินดอนเมือง,กรุงเทพมหานคร,13.91917,100.60500,1001.37,08-11-2019,04:00:00,87,7.4,1.60,200,1002.78,27.2,10.00,0.00,24.9,31.49
48458,CHACHOENGSAO,ฉะเชิงเทรา,ฉะเชิงเทรา,13.51556,101.45833,996.29,08-11-2019,04:00:00,93,0.0,0.00,000,1004.30,26.2,10.00,0.00,24.9,31.49
48459,CHON BURI,ชลบุรี,ชลบุรี,13.36667,100.98333,1002.70,08-11-2019,04:00:00,87,0.0,4.50,000,1002.98,27.6,10.00,0.00,25.3,32.28
48460,KO SICHANG,เกาะสีชัง,ชลบุรี,13.16167,100.80194,999.92,08-11-2019,04:00:00,78,0.0,0.00,000,1003.03,28.0,10.00,0.00,23.8,29.46
48461,PHATTHAYA,พัทยา,ชลบุรี,12.92000,100.86944,996.56,08-11-2019,04:00:00,77,9.3,0.00,240,1003.45,28.0,10.00,0.00,23.6,29.19
48462,ARANYA PRATHET,อรัญประเทศ,สระแก้ว,13.70000,102.58333,998.32,08-11-2019,04:00:00,92,0.0,1.20,000,1003.92,26.0,8.00,0.00,24.6,30.84
48464,RATCHA BURI,ราชบุรี,ราชบุรี,13.48931,99.79239,1002.56,08-11-2019,04:00:00,97,0.0,2.40,000,1003.82,25.4,6.00,0.00,25.0,31.60
48465,PHETCHA BURI,เพชรบุรี,เพชรบุรี,12.99944,100.06056,1002.23,08-11-2019,04:00:00,82,11.1,0.40,230,1002.66,27.4,11.00,0.00,24.1,29.96
48474,NONG PHLUB AGROMET.,หนองพลับ สกษ.,ประจวบคีรีขันธ์,12.58333,99.73333,991.33,08-11-2019,04:00:00,96,0.0,8.00,000,1003.65,24.5,10.00,0.00,23.8,29.41
48475,HUA HIN,หัวหิน,ประจวบคีรีขันธ์,12.58611,99.96250,1002.60,08-11-2019,04:00:00,91,0.0,3.00,000,1003.31,26.0,10.00,1.50,24.4,30.57
48477,SATTAHIP,สัตหีบ,ชลบุรี,12.68333,100.98333,1001.09,08-11-2019,04:00:00,77,7.4,0.60,240,1003.51,28.3,10.00,0.00,23.8,29.49
48478,RAYONG,ระยอง,ระยอง,12.63222,101.34361,1003.69,08-11-2019,04:00:00,83,14.8,0.00,220,1004.20,28.8,10.00,0.00,25.5,32.71
48479,HUAI PONG AGROMET.,ห้วยโป่ง สกษ.,ระยอง,12.73333,101.13333,998.26,08-11-2019,04:00:00,80,0.0,0.50,000,1003.38,27.8,7.00,0.00,24.0,29.90
48480,CHANTHA BURI,จันทบุรี,จันทบุรี,12.61667,102.11333,1003.76,08-11-2019,04:00:00,86,11.1,1.60,230,1004.17,27.9,7.00,0.00,25.3,32.32
48481,PHLIU  AGROMET.,พลิ้ว สกษ.,จันทบุรี,12.50861,102.17305,1002.02,08-11-2019,04:00:00,93,0.0,6.20,000,1004.78,26.5,8.00,0.00,25.2,32.07
48500,PRACHUAP KHIRIKHAN,ประจวบคีรีขันธ์,ประจวบคีรีขันธ์,11.83333,99.83333,1004.49,08-11-2019,04:00:00,92,0.0,8.60,000,1005.28,25.3,10.00,0.00,23.8,29.54
48501,TRAD,ตราด,ตราด,11.76667,102.88333,1004.87,08-11-2019,04:00:00,98,3.7,39.60,240,1005.33,26.3,4.00,5.00,25.9,33.35
48517,CHUMPHON,ชุมพร,ชุมพร,10.49875,99.18847,1004.05,08-11-2019,04:00:00,95,0.0,21.50,000,1004.74,24.8,8.00,0.80,23.9,29.69
48520,SAWI AGROMET.,สวี สกษ.,ชุมพร,10.33333,99.10000,1003.15,08-11-2019,04:00:00,92,0.0,12.40,000,1004.68,25.2,7.00,0.00,23.7,29.36
48532,RANONG,ระนอง,ระนอง,9.98333,98.61667,1004.37,08-11-2019,04:00:00,92,5.6,7.90,210,1005.29,26.2,7.00,1.30,24.8,31.22
48550,KO SAMUI,เกาะสมุย,สุราษฎร์ธานี,9.46667,100.05000,1004.16,08-11-2019,04:00:00,81,5.6,0.00,280,1004.85,27.7,10.00,0.00,24.1,29.98
48551,SURAT THANI,สุราษฎร์ธานี,สุราษฎร์ธานี,9.13556,99.15194,1005.12,08-11-2019,04:00:00,97,0.0,1.70,000,1005.93,24.6,7.00,1.30,24.2,30.12
48552,NAKHONSI THAMMARAT,นครศรีธรรมราช,นครศรีธรรมราช,8.53778,99.96389,1004.44,08-11-2019,04:00:00,86,0.0,0.00,000,1005.08,26.2,10.00,0.00,23.7,29.33
48554,NAKHONSI THAMMARAT AGROMET.,นครศรีธรรมราช สกษ.,นครศรีธรรมราช,8.35931,100.00000,1005.08,08-11-2019,04:00:00,96,0.0,0.30,000,1005.49,24.7,10.00,0.00,24.0,29.77
48555,SURAT THANI AGROMET.,สุราษฎร์ธานี สกษ.,สุราษฎร์ธานี,9.10000,99.63333,1003.24,08-11-2019,04:00:00,92,3.7,0.01,230,1007.47,26.0,5.00,0.00,24.6,30.84
48556,PHRA SANG,พระแสง สอท.,สุราษฎร์ธานี,8.57022,99.25825,1004.87,08-11-2019,04:00:00,97,0.0,0.80,000,1006.49,24.4,5.00,0.20,24.0,29.75
48557,CHAWANG,ฉวาง,นครศรีธรรมราช,8.43194,99.51194,1003.34,08-11-2019,04:00:00,97,0.0,4.50,000,1006.83,24.8,6.00,0.00,24.2,30.22
48560,PHATTHALUNG AGROMET.,พัทลุง สกษ.,พัทลุง,7.58333,100.16667,1005.50,08-11-2019,04:00:00,97,0.0,4.20,000,1006.86,24.8,8.00,0.00,24.4,30.48
48561,TAKUA PA,ตะกั่วป่า,พังงา,8.68417,98.25222,1005.06,08-11-2019,04:00:00,91,20.4,13.90,240,1005.95,27.0,10.00,1.00,25.4,32.49
48563,KRABI,กระบี่,กระบี่,8.10361,98.97528,1002.50,08-11-2019,04:00:00,88,0.0,3.10,000,1006.06,26.0,10.00,0.00,23.8,29.50
48564,PHUKET,ภูเก็ต,ภูเก็ต,7.88333,98.40000,1005.77,08-11-2019,04:00:00,79,7.4,4.20,270,1006.20,28.1,10.00,0.00,24.1,29.93
48565,PHUKET AIRPORT,ภูเก็ต (ศูนย์ฯ),ภูเก็ต,8.14500,98.31444,1004.87,08-11-2019,04:00:00,81,5.6,6.50,250,1005.86,28.1,10.00,0.00,24.5,30.75
48566,KO LANTA,เกาะลันตา,กระบี่,7.53333,99.05000,1005.99,08-11-2019,04:00:00,87,40.7,1.80,270,1006.80,28.5,10.00,0.00,26.1,33.82
48567,TRANG AIRPORT,ตรัง,ตรัง,7.51667,99.61667,1005.17,08-11-2019,04:00:00,95,9.3,22.10,230,1007.00,24.6,10.00,13.00,23.7,29.33
48568,SONGKHLA,สงขลา,สงขลา,7.18211,100.60769,1006.20,08-11-2019,04:00:00,88,0.0,2.00,000,1006.96,25.5,10.00,0.00,23.3,28.59
48569,HAT YAI AIRPORT,หาดใหญ่,สงขลา,6.91667,100.43333,1002.73,08-11-2019,04:00:00,98,0.0,13.40,000,1006.75,25.1,10.00,0.00,24.8,31.31
48570,SATUN,สตูล,สตูล,6.65000,100.08333,1006.85,08-11-2019,04:00:00,97,0.0,31.50,000,1007.54,24.8,10.00,13.20,24.4,30.48
48571,KHO HONG AGROMET.,คอหงษ์ สกษ.,สงขลา,7.00000,100.50000,1005.16,08-11-2019,04:00:00,97,0.0,3.20,000,1006.29,25.2,10.00,0.00,24.6,30.96
48574,SA DAO,สะเดา,สงขลา,6.79806,100.39056,1003.25,08-11-2019,04:00:00,98,0.0,8.20,000,1006.19,24.5,7.00,1.10,24.2,30.20
