WmoStationNumber,StationNameEnglish,StationNameThai,Province,Latitude,Longitude,Date,Time,AirTemperature,Rainfall,RelativeHumidity,DewPoint,VaporPressure,StationPressure,WindSpeed,MeanSeaLevelPressure,WindDirection,LandVisibility,Rainfall24Hr
48300,MAE HONG SON,แม่ฮ่องสอน,แม่ฮ่องสอน,19.29897,97.97578,08-19-2019,01:00:00,24.8,0.40,94,23.8,29.42,978.06,0.0,1009.16,000,6.00,7.50
48302,DOI ANG KANG,ดอยอ่างขาง,เชียงใหม่,19.93139,99.04833,08-19-2019,01:00:00,19.0,0.00,90,17.4,19.80,844.84,33.3,1005.81,270,8.00,0.00
48303,CHIANG RAI,เชียงราย,เชียงราย,19.96139,99.88139,08-19-2019,01:00:00,26.0,0.00,87,23.7,29.23,963.35,0.0,1006.91,000,10.00,2.00
48304,CHAING RAI AGROMET.,เชียงราย สกษ.,เชียงราย,19.87083,99.78278,08-19-2019,01:00:00,25.5,0.00,91,23.9,29.64,961.60,0.0,1007.15,000,12.00,0.00
48307,THUNG CHANG,ทุ่งช้าง,น่าน,19.41194,100.88353,08-19-2019,01:00:00,23.0,0.00,100,23.0,28.07,970.76,0.0,1008.79,000,6.00,35.60
48310,PHAYAO,พะเยา,พะเยา,19.13333,99.90000,08-19-2019,01:00:00,25.5,0.00,89,23.6,29.11,962.65,0.0,1007.77,000,10.00,0.00
48315,THA WANGPHA,ท่าวังผา,น่าน,19.11056,100.80250,08-19-2019,01:00:00,24.0,1.50,96,23.3,28.53,982.17,0.0,1009.14,000,6.00,70.60
48324,THOEN,เถิน,ลำปาง,17.63661,99.24475,08-19-2019,01:00:00,26.0,0.01,89,24.1,30.03,986.74,0.0,1008.56,000,10.00,1.60
48325,MAE SARIANG,แม่สะเรียง,แม่ฮ่องสอน,18.16667,97.93333,08-19-2019,01:00:00,24.8,0.00,95,23.9,29.69,985.46,0.0,1009.74,000,6.00,30.20
48327,CHIANG MAI,เชียงใหม่,เชียงใหม่,18.79000,98.97694,08-19-2019,01:00:00,25.6,0.01,88,23.4,28.77,973.66,0.0,1008.26,000,10.00,0.01
48328,LAMPANG,ลำปาง,ลำปาง,18.28333,99.51667,08-19-2019,01:00:00,25.5,0.00,96,24.8,31.25,980.82,0.0,1008.46,000,10.00,0.40
48329,LAMPHUN,ลำพูน,ลำพูน,18.56722,99.03389,08-19-2019,01:00:00,25.0,0.00,90,23.2,28.48,974.60,0.0,1008.33,000,10.00,0.00
48330,PHRAE,แพร่,แพร่,18.16667,100.16667,08-19-2019,01:00:00,26.2,0.00,93,24.9,31.49,989.02,1.9,1007.55,220,12.00,0.60
48331,NAN,น่าน,น่าน,18.77972,100.77778,08-19-2019,01:00:00,25.4,0.40,92,24.1,29.99,985.17,0.0,1008.09,000,6.00,0.50
48333,NAN AGROMET.,น่าน สกษ.,น่าน,18.86667,100.75000,08-19-2019,01:00:00,25.8,0.00,93,24.6,31.00,978.67,0.0,1008.65,000,6.00,2.00
48334,LAMPANG AGROMET.,ลำปาง สกษ.,ลำปาง,18.31667,99.28333,08-19-2019,01:00:00,24.0,0.00,96,23.3,28.53,972.46,0.0,1008.26,000,6.00,9.60
48350,LOEI AGROMET.,เลย สกษ.,เลย,17.40000,101.73333,08-19-2019,01:00:00,25.1,0.00,98,24.8,31.31,977.23,0.0,1007.07,000,10.00,1.00
48351,UTTARADIT,อุตรดิตถ์,อุตรดิตถ์,17.61667,100.10000,08-19-2019,01:00:00,27.0,0.00,87,24.7,31.11,1000.60,0.0,1007.91,000,9.00,0.00
48352,NONG KHAI,หนองคาย,หนองคาย,17.86717,102.73303,08-19-2019,01:00:00,27.6,0.00,87,25.3,32.28,986.62,3.7,1006.45,010,10.00,0.10
48353,LOEI,เลย,เลย,17.45000,101.73333,08-19-2019,01:00:00,26.1,0.00,90,24.4,30.48,978.54,0.0,1007.24,000,12.00,0.00
48354,UDON THANI,อุดรธานี,อุดรธานี,17.38333,102.80000,08-19-2019,01:00:00,27.0,0.00,86,24.4,30.56,986.92,0.0,1007.08,000,12.00,1.60
48355,SAKON NAKHON AGROMET.,สกลนคร สกษ.,สกลนคร,17.12503,104.06100,08-19-2019,01:00:00,25.6,0.00,88,23.5,29.03,985.77,0.0,1007.59,000,10.00,8.30
48356,SAKON NAKHON,สกลนคร,สกลนคร,17.15000,104.13333,08-19-2019,01:00:00,25.8,0.00,93,24.6,31.00,987.62,0.0,1007.17,000,11.00,7.60
48357,NAKHON PHANOM,นครพนม,นครพนม,17.41083,104.78250,08-19-2019,01:00:00,26.0,0.01,93,24.8,31.38,991.31,0.0,1008.12,000,12.00,8.00
48358,NAKHON PHANOM AGROMET.,นครพนม สกษ.,นครพนม,17.44306,104.77361,08-19-2019,01:00:00,25.0,0.00,93,23.8,29.52,990.89,0.0,1008.43,000,10.00,1.40
48360,NONG BUA LAM PHU,หนองบัวลำภู,หนองบัวลำภู,17.23250,102.42944,08-19-2019,01:00:00,27.2,0.00,94,26.2,34.03,981.33,0.0,1007.07,000,9.00,0.30
48372,SUKHOTHAI*,สุโขทัย,สุโขทัย,17.10611,99.80000,08-19-2019,01:00:00,27.5,0.00,87,25.1,31.80,1003.17,5.6,1008.96,180,10.00,0.00
48373,SI SAMRONG AGROMET.,ศรีสำโรง สกษ.,สุโขทัย,17.16136,99.86167,08-19-2019,01:00:00,27.5,0.00,92,26.1,33.78,1002.73,0.0,1008.92,000,10.00,0.00
48374,LOM SAK,หล่มสัก,เพชรบูรณ์,16.77361,101.24944,08-19-2019,01:00:00,26.0,0.10,90,24.3,30.30,992.36,0.0,1008.88,000,9.00,0.50
48375,MAE SOT,แม่สอด,ตาก,16.65917,98.55083,08-19-2019,01:00:00,25.0,0.00,96,24.3,30.32,985.43,3.7,1007.91,180,10.00,0.20
48376,TAK,ตาก,ตาก,16.87833,99.14333,08-19-2019,01:00:00,26.3,0.20,87,24.0,29.78,994.68,0.0,1009.13,000,6.00,0.40
48377,BHUMIBOL DAM,เขื่อนภูมิพล,ตาก,17.24389,99.00250,08-19-2019,01:00:00,27.2,0.00,79,23.2,28.51,992.15,0.0,1008.55,000,8.00,0.00
48378,PHITSANULOK,พิษณุโลก,พิษณุโลก,16.79481,100.27930,08-19-2019,01:00:00,26.7,0.00,89,24.7,31.08,1003.83,0.0,1009.08,000,10.00,0.80
48379,PHETCHABUN,เพชรบูรณ์,เพชรบูรณ์,16.43333,101.15000,08-19-2019,01:00:00,26.5,0.00,88,24.3,30.43,994.62,0.0,1007.84,000,10.00,0.20
48380,KAMPHAENG PHET,กำแพงเพชร,กำแพงเพชร,16.48681,99.52697,08-19-2019,01:00:00,26.5,0.00,96,25.8,33.19,999.21,0.0,1008.56,000,10.00,3.10
48381,KHON KAEN,ขอนแก่น,ขอนแก่น,16.46111,102.78972,08-19-2019,01:00:00,27.8,0.01,85,25.1,31.84,986.11,0.0,1007.75,000,8.00,0.01
48382,MAHASARAKHAM,มหาสารคาม,มหาสารคาม,16.24722,103.06805,08-19-2019,01:00:00,27.3,0.00,90,25.4,32.53,990.65,0.0,1008.15,000,10.00,0.00
48383,MUKDAHAN,มุกดาหาร,มุกดาหาร,16.54139,104.72889,08-19-2019,01:00:00,28.0,0.00,85,25.1,31.95,991.53,0.0,1007.31,000,10.00,0.00
48384,THA PHRA AGROMET.,ท่าพระ สกษ.,ขอนแก่น,16.33333,102.81667,08-19-2019,01:00:00,27.9,0.00,80,24.1,30.09,987.98,1.9,1006.80,230,8.00,0.00
48385,UMPHANG,อุ้มผาง,ตาก,16.02472,98.86444,08-19-2019,01:00:00,23.8,0.00,93,22.6,27.42,959.79,0.0,1011.56,000,6.00,0.60
48386,PICHIT AGROMET.,พิจิตร สกษ.,พิจิตร,16.43806,100.29250,08-19-2019,01:00:00,26.7,0.00,92,25.3,32.18,1004.66,0.0,1008.63,000,5.00,0.10
48387,DOI MU SOE AGROMET.,ดอยมูเซอร์ สกษ.,ตาก,16.75000,98.93333,08-19-2019,01:00:00,21.1,0.10,95,20.3,23.83,914.44,7.4,1009.93,200,3.00,3.80
48390,KALASIN,กาฬสินธุ์,กาฬสินธุ์,16.33250,103.58833,08-19-2019,01:00:00,26.8,0.00,96,26.1,33.79,991.61,0.0,1007.61,000,6.00,3.70
48400,NAKHON SAWAN,นครสวรรค์ ,นครสวรรค์,15.67183,100.13236,08-19-2019,01:00:00,26.0,0.20,96,25.3,32.20,1004.51,0.0,1008.56,000,8.00,4.80
48401,TAKFA AGROMET.,ตากฟ้า สกษ.,นครสวรรค์,15.34944,100.53028,08-19-2019,01:00:00,26.0,0.00,87,23.7,29.23,999.19,0.0,1009.93,000,7.00,0.00
48402,CHAINAT AGROMET.,ชัยนาท สกษ.,ชัยนาท,15.15000,100.18333,08-19-2019,01:00:00,26.3,0.00,86,23.7,29.25,1007.34,0.0,1009.28,000,9.00,0.00
48403,CHAIYAPHUM,ชัยภูมิ,ชัยภูมิ,15.80000,102.03333,08-19-2019,01:00:00,28.2,0.00,72,22.6,27.42,987.75,5.6,1008.55,230,10.00,0.00
48404,ROI ET AGROMET.,ร้อยเอ็ด สกษ.,ร้อยเอ็ด,16.07322,103.60844,08-19-2019,01:00:00,27.2,0.00,87,24.8,31.22,989.96,0.0,1007.62,000,10.00,0.00
48405,ROI ET,ร้อยเอ็ด,ร้อยเอ็ด,16.02000,103.74389,08-19-2019,01:00:00,28.0,0.00,81,24.4,30.56,991.17,0.0,1007.28,000,10.00,0.00
48407,UBON RATCHATHANI,อุบลราชธานี (ศูนย์ฯ),อุบลราชธานี,15.25000,104.86667,08-19-2019,01:00:00,28.5,0.00,80,24.6,30.98,994.29,5.6,1008.27,230,10.00,0.00
48408,UBON RATCHATHANI AGROMET.,อุบลราชธานี สกษ.,อุบลราชธานี,15.23914,105.02350,08-19-2019,01:00:00,27.5,0.00,90,25.7,32.93,994.46,0.0,1009.30,000,9.00,0.00
48409,SI SAKET AGROMET.,ศรีสะเกษ,ศรีสะเกษ,15.00000,104.05000,08-19-2019,01:00:00,27.0,0.00,93,25.7,33.06,995.24,0.0,1009.95,000,6.00,1.50
48410,UTHAITHANI,อุทัยธานี,อุทัยธานี,15.37417,100.03889,08-19-2019,01:00:00,26.6,0.00,91,25.0,31.71,1006.19,0.0,1009.22,"{'@attributes': {'Unit': 'degree'}, '0': '   '}",10.00,0.01
48413,WICHIAN BURI,วิเชียรบุรี,เพชรบูรณ์,15.65700,101.10800,08-19-2019,01:00:00,26.0,0.00,89,24.0,29.76,1001.09,0.0,1009.08,000,7.00,0.01
48415,AYUTTHAYA,พระนครศรีอยุธยา,พระนครศรีอยุธยา,14.53472,100.72500,08-19-2019,01:00:00,28.1,0.00,85,25.4,32.43,1008.29,5.6,1009.40,210,6.00,0.00
48416,THA TUM,ท่าตูม,สุรินทร์,15.31667,103.68333,08-19-2019,01:00:00,27.6,0.00,76,23.1,28.18,993.82,0.0,1008.50,000,8.00,0.00
48417,NAKORNNAYOK,นครนายก,นครนายก,14.36222,101.39278,08-19-2019,01:00:00,20.3,0.00,99,20.1,23.57,875.86,3.7,1011.05,210,.10,14.20
48418,BUA CHUM,บัวชุม  ,ลพบุรี,15.26667,101.18736,08-19-2019,01:00:00,27.7,0.00,83,24.5,30.81,1003.25,0.0,1009.13,000,10.00,0.00
48419,PATHUMTHANI,ปทุมธานี สกษ.,ปทุมธานี,14.10000,100.61667,08-19-2019,01:00:00,28.5,0.00,87,26.1,33.82,1009.03,0.0,1009.83,000,8.00,0.00
48420,Samut Prakarn,สมุทรปราการ สกษ.,สมุทรปราการ,13.51667,100.76167,08-19-2019,01:00:00,29.0,0.00,84,26.0,33.70,1008.59,14.8,1009.03,210,10.00,0.00
48421,THONG PHAPHUM,ทองผาภูมิ,กาญจนบุรี,14.74222,98.63639,08-19-2019,01:00:00,24.9,0.00,96,24.2,30.13,999.34,0.0,1010.76,000,4.00,3.10
48425,SUPHAN BURI,สุพรรณบุรี,สุพรรณบุรี,14.47444,100.13889,08-19-2019,01:00:00,28.0,0.00,77,23.6,29.19,1008.42,3.7,1009.44,190,10.00,0.00
48426,LOP BURI,ลพบุรี,ลพบุรี,14.79972,100.64500,08-19-2019,01:00:00,27.5,0.00,88,25.4,32.36,1007.62,7.4,1009.44,190,7.00,0.00
48427,U THONG AGROMET.,อู่ทอง สกษ.,สุพรรณบุรี,14.30361,99.86472,08-19-2019,01:00:00,27.1,0.00,76,22.5,27.27,1008.44,0.0,1009.21,000,7.00,0.00
48429,SUVARNABHUMI AIRPORT,สนามบินสุวรรณภูมิ,สมุทรปราการ,13.68639,100.76750,08-19-2019,01:00:00,28.1,0.00,85,25.4,32.43,1009.04,9.3,1009.75,190,10.00,0.00
48430,PRACHIN BURI,ปราจีนบุรี,ปราจีนบุรี,14.05842,101.36930,08-19-2019,01:00:00,28.1,0.00,89,26.1,33.86,1008.86,0.0,1009.56,000,7.00,0.90
48431,NAKHON RATCHASIMA,นครราชสีมา,นครราชสีมา,14.96830,102.08603,08-19-2019,01:00:00,27.9,0.00,74,22.9,27.93,988.19,1.9,1009.32,220,10.00,0.00
48432,SURIN,สุรินทร์,สุรินทร์,14.88333,103.50000,08-19-2019,01:00:00,26.8,0.00,90,24.9,31.55,992.03,0.0,1008.78,000,7.00,3.00
48433,SURIN AGROMET.,สุรินทร์ สกษ.,สุรินทร์,14.88333,103.45000,08-19-2019,01:00:00,26.0,0.00,93,24.8,31.38,992.56,0.0,1009.07,000,6.00,4.30
48434,CHOK CHAI,โชคชัย,นครราชสีมา,14.71889,102.16861,08-19-2019,01:00:00,28.0,0.00,79,23.9,29.74,987.37,0.0,1009.20,000,10.00,0.01
48435,PAKCHONG AGROMET.,ปากช่อง สกษ.,นครราชสีมา,14.64389,101.33194,08-19-2019,01:00:00,26.3,0.00,81,22.8,27.67,965.76,5.6,1009.19,250,12.00,0.01
48436,NANG RONG,นางรอง,บุรีรัมย์,14.58333,102.80000,08-19-2019,01:00:00,27.3,0.00,81,23.7,29.23,988.65,0.0,1009.23,000,10.00,0.40
48437,BURIRUM,บุรีรัมย์,บุรีรัมย์,15.22575,103.24808,08-19-2019,01:00:00,26.5,0.00,93,25.4,32.35,989.22,9.3,1010.13,220,8.00,0.00
48438,SAMUTSONGKRAM,สมุทรสงคราม,สมุทรสงคราม,13.40778,100.03222,08-19-2019,01:00:00,27.9,0.00,80,24.1,30.09,1009.81,3.7,1010.24,310,10.00,0.00
48439,KABIN BURI,กบินทร์บุรี,ปราจีนบุรี,13.98333,101.70722,08-19-2019,01:00:00,27.7,0.00,89,25.7,33.05,1008.37,0.0,1009.79,000,6.00,0.00
48440,SA KAEW,สระแก้ว,สระแก้ว,13.78889,102.03472,08-19-2019,01:00:00,26.3,0.00,94,25.3,32.23,1005.16,0.0,1010.12,000,7.00,0.00
48450,KANCHANA BURI,กาญจนบุรี,กาญจนบุรี,14.02250,99.53583,08-19-2019,01:00:00,27.2,0.00,79,23.2,28.51,1006.34,0.0,1009.64,000,10.00,0.01
48451,NAKHONPATHOM,นครปฐม,นครปฐม,14.01167,99.97000,08-19-2019,01:00:00,26.5,0.00,88,24.3,30.43,1008.35,0.0,1009.46,000,10.00,0.00
48453,BANG NA AGROMET.,กรุงเทพฯ บางนา สกษ.,กรุงเทพมหานคร,13.66639,100.60611,08-19-2019,01:00:00,29.2,0.00,79,25.1,31.81,1009.37,5.6,1009.67,200,10.00,0.00
48455,BANGKOK METROPOLIS,กรุงเทพมหานคร,กรุงเทพมหานคร,13.72639,100.56000,08-19-2019,01:00:00,28.4,0.00,85,25.7,33.04,1009.56,0.0,1010.05,000,10.00,0.00
48456,DON MUANG AIRPORT,สนามบินดอนเมือง,กรุงเทพมหานคร,13.91917,100.60500,08-19-2019,01:00:00,28.3,0.00,83,25.2,31.99,1008.15,11.1,1009.55,210,10.00,0.00
48458,CHACHOENGSAO,ฉะเชิงเทรา,ฉะเชิงเทรา,13.51556,101.45833,08-19-2019,01:00:00,26.0,0.00,92,24.6,30.84,1003.67,0.0,1011.74,000,10.00,0.00
48459,CHON BURI,ชลบุรี,ชลบุรี,13.36667,100.98333,08-19-2019,01:00:00,28.3,0.00,82,25.0,31.70,1009.57,0.0,1009.86,000,10.00,0.00
48460,KO SICHANG,เกาะสีชัง,ชลบุรี,13.16167,100.80194,08-19-2019,01:00:00,28.5,0.00,74,23.4,28.78,1006.76,0.0,1009.89,000,10.00,0.00
48461,PHATTHAYA,พัทยา,ชลบุรี,12.92000,100.86944,08-19-2019,01:00:00,27.7,0.00,91,26.0,33.62,1003.28,0.0,1010.23,000,10.00,0.00
48462,ARANYA PRATHET,อรัญประเทศ,สระแก้ว,13.70000,102.58333,08-19-2019,01:00:00,27.0,0.00,88,24.8,31.38,1004.53,7.4,1010.15,280,8.00,0.00
48464,RATCHA BURI,ราชบุรี,ราชบุรี,13.48931,99.79239,08-19-2019,01:00:00,25.5,0.00,92,24.0,29.91,1009.20,3.7,1010.48,230,10.00,0.00
48465,PHETCHA BURI,เพชรบุรี,เพชรบุรี,12.99944,100.06056,08-19-2019,01:00:00,27.5,0.00,76,22.9,28.00,1009.30,18.5,1009.73,270,11.00,1.10
48474,NONG PHLUB AGROMET.,หนองพลับ สกษ.,ประจวบคีรีขันธ์,12.58333,99.73333,08-19-2019,01:00:00,24.5,0.00,89,22.6,27.35,998.51,5.6,1010.92,260,10.00,0.00
48475,HUA HIN,หัวหิน,ประจวบคีรีขันธ์,12.58611,99.96250,08-19-2019,01:00:00,27.5,0.00,78,23.4,28.80,1009.93,0.0,1010.64,000,10.00,0.00
48477,SATTAHIP,สัตหีบ,ชลบุรี,12.68333,100.98333,08-19-2019,01:00:00,28.0,0.00,81,24.4,30.56,1008.66,3.7,1011.09,240,10.00,0.00
48478,RAYONG,ระยอง,ระยอง,12.63222,101.34361,08-19-2019,01:00:00,28.8,0.00,87,26.4,34.45,1010.06,9.3,1010.58,210,10.00,0.00
48479,HUAI PONG AGROMET.,ห้วยโป่ง สกษ.,ระยอง,12.73333,101.13333,08-19-2019,01:00:00,27.8,0.00,83,24.6,31.00,1005.01,0.0,1010.16,000,9.00,0.00
48480,CHANTHA BURI,จันทบุรี,จันทบุรี,12.61667,102.11333,08-19-2019,01:00:00,27.2,0.00,90,25.3,32.33,1010.10,0.0,1010.52,000,7.00,2.90
48481,PHLIU  AGROMET.,พลิ้ว สกษ.,จันทบุรี,12.50861,102.17305,08-19-2019,01:00:00,26.4,0.00,93,25.1,31.88,1007.91,0.0,1010.70,000,8.00,0.00
48500,PRACHUAP KHIRIKHAN,ประจวบคีรีขันธ์,ประจวบคีรีขันธ์,11.83333,99.83333,08-19-2019,01:00:00,27.2,0.00,81,23.7,29.31,1010.34,0.0,1011.13,000,10.00,0.00
48501,TRAD,ตราด,ตราด,11.76667,102.88333,08-19-2019,01:00:00,25.0,0.00,93,23.8,29.52,1010.51,7.4,1010.98,050,7.00,0.00
48517,CHUMPHON,ชุมพร,ชุมพร,10.49875,99.18847,08-19-2019,01:00:00,26.2,0.00,88,24.0,29.86,1010.93,0.0,1011.62,000,10.00,1.50
48520,SAWI AGROMET.,สวี สกษ.,ชุมพร,10.33333,99.10000,08-19-2019,01:00:00,24.8,0.00,93,23.6,29.16,1009.94,0.0,1011.49,000,8.00,0.00
48532,RANONG,ระนอง,ระนอง,9.98333,98.61667,08-19-2019,01:00:00,25.2,0.00,89,23.3,28.57,1010.94,0.0,1011.86,000,10.00,0.00
48550,KO SAMUI,เกาะสมุย,สุราษฎร์ธานี,9.46667,100.05000,08-19-2019,01:00:00,27.0,0.00,88,24.8,31.38,1011.24,0.0,1011.93,000,10.00,0.00
48551,SURAT THANI,สุราษฎร์ธานี,สุราษฎร์ธานี,9.13556,99.15194,08-19-2019,01:00:00,24.3,0.00,96,23.6,29.05,1010.72,0.0,1011.53,000,8.00,0.00
48552,NAKHONSI THAMMARAT,นครศรีธรรมราช,นครศรีธรรมราช,8.53778,99.96389,08-19-2019,01:00:00,26.0,0.00,92,24.6,30.84,1010.62,0.0,1011.25,000,10.00,0.00
48554,NAKHONSI THAMMARAT AGROMET.,นครศรีธรรมราช สกษ.,นครศรีธรรมราช,8.35931,100.00000,08-19-2019,01:00:00,26.2,0.00,92,24.8,31.22,1011.28,0.0,1011.69,000,10.00,0.00
48555,SURAT THANI AGROMET.,สุราษฎร์ธานี สกษ.,สุราษฎร์ธานี,9.10000,99.63333,08-19-2019,01:00:00,25.9,0.00,89,23.9,29.58,1009.07,0.0,1013.32,000,6.00,0.00
48556,PHRA SANG,พระแสง สอท.,สุราษฎร์ธานี,8.57022,99.25825,08-19-2019,01:00:00,25.3,0.00,94,24.3,30.34,1007.68,0.0,1009.30,000,7.00,0.00
48557,CHAWANG,ฉวาง,นครศรีธรรมราช,8.43194,99.51194,08-19-2019,01:00:00,25.0,0.00,96,24.3,30.32,1008.23,0.0,1011.74,000,10.00,0.00
48560,PHATTHALUNG AGROMET.,พัทลุง สกษ.,พัทลุง,7.58333,100.16667,08-19-2019,01:00:00,25.2,0.00,94,24.2,30.15,1009.92,0.0,1011.28,000,8.00,0.00
48561,TAKUA PA,ตะกั่วป่า,พังงา,8.68417,98.25222,08-19-2019,01:00:00,24.8,0.00,89,22.9,27.87,1010.34,0.0,1011.23,000,15.00,0.00
48563,KRABI,กระบี่,กระบี่,8.10361,98.97528,08-19-2019,01:00:00,25.0,0.00,87,22.6,27.45,1007.84,0.0,1011.44,000,10.00,0.00
48564,PHUKET,ภูเก็ต,ภูเก็ต,7.88333,98.40000,08-19-2019,01:00:00,27.5,0.00,82,24.2,30.15,1010.77,0.0,1011.21,000,10.00,0.00
48565,PHUKET AIRPORT,ภูเก็ต (ศูนย์ฯ),ภูเก็ต,8.14500,98.31444,08-19-2019,01:00:00,26.5,0.00,89,24.6,30.97,1009.83,0.0,1010.83,000,10.00,0.00
48566,KO LANTA,เกาะลันตา,กระบี่,7.53333,99.05000,08-19-2019,01:00:00,25.2,0.00,92,23.9,29.62,1010.53,5.6,1011.35,090,10.00,0.00
48567,TRANG AIRPORT,ตรัง,ตรัง,7.51667,99.61667,08-19-2019,01:00:00,25.5,0.00,92,24.0,29.91,1009.53,0.0,1011.36,000,10.00,0.00
48568,SONGKHLA,สงขลา,สงขลา,7.18211,100.60769,08-19-2019,01:00:00,24.5,0.01,93,23.3,28.63,1011.00,3.7,1011.76,280,10.00,2.80
48569,HAT YAI AIRPORT,หาดใหญ่,สงขลา,6.91667,100.43333,08-19-2019,01:00:00,23.3,0.00,96,22.5,27.33,1007.77,0.0,1011.84,000,10.00,13.20
48570,SATUN,สตูล,สตูล,6.65000,100.08333,08-19-2019,01:00:00,26.0,0.00,94,25.0,31.65,1008.95,0.0,1009.64,000,10.00,0.00
48571,KHO HONG AGROMET.,คอหงษ์ สกษ.,สงขลา,7.00000,100.50000,08-19-2019,01:00:00,24.0,0.00,96,23.3,28.53,1010.37,0.0,1011.50,000,10.00,11.00
48574,SA DAO,สะเดา,สงขลา,6.79806,100.39056,08-19-2019,01:00:00,24.6,0.00,97,24.0,29.85,1008.67,0.0,1011.62,000,10.00,27.10
