WmoStationNumber,StationNameEnglish,StationNameThai,Province,Latitude,Longitude,WindDirection,Date,Time,RelativeHumidity,Rainfall24Hr,WindSpeed,AirTemperature,Rainfall,MeanSeaLevelPressure,VaporPressure,StationPressure,LandVisibility,DewPoint
48300,MAE HONG SON,แม่ฮ่องสอน,แม่ฮ่องสอน,19.29897,97.97578,000,08-22-2019,04:00:00,95,7.90,0.0,25.1,0.00,1004.68,30.23,973.74,6.00,24.2
48302,DOI ANG KANG,ดอยอ่างขาง,เชียงใหม่,19.93139,99.04833,120,08-22-2019,04:00:00,99,1.20,7.4,18.0,0.00,1003.24,20.41,842.18,6.00,17.8
48303,CHIANG RAI,เชียงราย,เชียงราย,19.96139,99.88139,000,08-22-2019,04:00:00,92,7.10,0.0,25.4,0.00,1004.68,29.72,961.13,10.00,23.9
48304,CHAING RAI AGROMET.,เชียงราย สกษ.,เชียงราย,19.87083,99.78278,000,08-22-2019,04:00:00,96,0.40,0.0,24.2,0.00,1004.85,28.88,959.22,10.00,23.5
48307,THUNG CHANG,ทุ่งช้าง,น่าน,19.41194,100.88353,000,08-22-2019,04:00:00,100,9.40,0.0,24.6,5.20,1005.78,30.91,968.06,6.00,24.6
48310,PHAYAO,พะเยา,พะเยา,19.13333,99.90000,140,08-22-2019,04:00:00,92,0.70,3.7,25.0,0.00,1004.78,29.00,959.71,7.00,23.5
48315,THA WANGPHA,ท่าวังผา,น่าน,19.11056,100.80250,000,08-22-2019,04:00:00,97,24.30,0.0,24.3,11.40,1006.20,29.57,979.34,6.00,23.9
48324,THOEN,เถิน,ลำปาง,17.63661,99.24475,100,08-22-2019,04:00:00,93,0.00,1.9,25.5,0.00,1005.93,30.44,984.14,15.00,24.3
48325,MAE SARIANG,แม่สะเรียง,แม่ฮ่องสอน,18.16667,97.93333,000,08-22-2019,04:00:00,96,1.10,0.0,25.5,0.80,1005.51,31.25,981.39,6.00,24.8
48327,CHIANG MAI,เชียงใหม่,เชียงใหม่,18.79000,98.97694,000,08-22-2019,04:00:00,92,3.10,0.0,25.5,0.10,1005.61,29.91,971.09,9.00,24.0
48328,LAMPANG,ลำปาง,ลำปาง,18.28333,99.51667,000,08-22-2019,04:00:00,96,51.80,0.0,25.0,0.00,1005.72,30.32,978.11,10.00,24.3
48329,LAMPHUN,ลำพูน,ลำพูน,18.56722,99.03389,000,08-22-2019,04:00:00,97,2.80,0.0,25.0,0.00,1005.13,30.85,971.51,10.00,24.6
48330,PHRAE,แพร่,แพร่,18.16667,100.16667,000,08-22-2019,04:00:00,97,13.60,0.0,24.7,0.70,1005.52,30.03,986.93,4.00,24.1
48331,NAN,น่าน,น่าน,18.77972,100.77778,000,08-22-2019,04:00:00,97,100.10,0.0,24.0,5.10,1006.58,28.78,983.58,6.00,23.4
48333,NAN AGROMET.,น่าน สกษ.,น่าน,18.86667,100.75000,000,08-22-2019,04:00:00,95,31.40,0.0,24.2,0.01,1005.91,28.62,975.85,5.00,23.3
48334,LAMPANG AGROMET.,ลำปาง สกษ.,ลำปาง,18.31667,99.28333,000,08-22-2019,04:00:00,96,0.80,0.0,25.0,0.00,1006.23,30.32,970.62,6.00,24.3
48350,LOEI AGROMET.,เลย สกษ.,เลย,17.40000,101.73333,000,08-22-2019,04:00:00,99,24.40,0.0,24.3,0.00,1005.31,30.10,975.45,10.00,24.1
48351,UTTARADIT,อุตรดิตถ์,อุตรดิตถ์,17.61667,100.10000,000,08-22-2019,04:00:00,95,11.80,0.0,25.0,0.00,1005.56,30.05,998.22,7.00,24.1
48352,NONG KHAI,หนองคาย,หนองคาย,17.86717,102.73303,040,08-22-2019,04:00:00,95,19.60,3.7,26.2,0.00,1005.57,32.32,985.66,10.00,25.3
48353,LOEI,เลย,เลย,17.45000,101.73333,000,08-22-2019,04:00:00,95,13.70,0.0,24.9,0.00,1005.65,29.87,976.88,10.00,24.0
48354,UDON THANI,อุดรธานี,อุดรธานี,17.38333,102.80000,100,08-22-2019,04:00:00,95,28.70,5.6,25.5,0.80,1005.71,30.98,985.48,9.00,24.6
48355,SAKON NAKHON AGROMET.,สกลนคร สกษ.,สกลนคร,17.12503,104.06100,000,08-22-2019,04:00:00,93,4.10,0.0,24.8,1.10,1007.21,29.16,985.34,8.00,23.6
48356,SAKON NAKHON,สกลนคร,สกลนคร,17.15000,104.13333,000,08-22-2019,04:00:00,97,10.30,0.0,24.5,2.20,1006.47,29.93,986.85,8.00,24.1
48357,NAKHON PHANOM,นครพนม,นครพนม,17.41083,104.78250,000,08-22-2019,04:00:00,95,24.60,0.0,24.0,5.50,1007.45,28.27,990.54,7.00,23.1
48358,NAKHON PHANOM AGROMET.,นครพนม สกษ.,นครพนม,17.44306,104.77361,000,08-22-2019,04:00:00,96,11.30,0.0,24.1,2.90,1007.67,28.70,990.09,7.00,23.4
48360,NONG BUA LAM PHU,หนองบัวลำภู,หนองบัวลำภู,17.23250,102.42944,000,08-22-2019,04:00:00,97,0.80,0.0,25.3,0.01,1004.89,31.41,979.04,10.00,24.9
48372,SUKHOTHAI*,สุโขทัย,สุโขทัย,17.10611,99.80000,000,08-22-2019,04:00:00,99,52.20,0.0,26.0,0.00,1005.90,33.32,1000.10,8.00,25.8
48373,SI SAMRONG AGROMET.,ศรีสำโรง สกษ.,สุโขทัย,17.16136,99.86167,000,08-22-2019,04:00:00,99,53.80,0.0,24.5,0.00,1005.50,30.46,999.27,7.00,24.3
48374,LOM SAK,หล่มสัก,เพชรบูรณ์,16.77361,101.24944,000,08-22-2019,04:00:00,96,2.60,0.0,24.0,0.10,1006.49,28.53,989.90,8.00,23.3
48375,MAE SOT,แม่สอด,ตาก,16.65917,98.55083,000,08-22-2019,04:00:00,96,0.80,0.0,24.0,0.40,1004.77,28.53,982.28,10.00,23.3
48376,TAK,ตาก,ตาก,16.87833,99.14333,000,08-22-2019,04:00:00,95,17.60,0.0,25.3,0.00,1006.11,30.60,991.66,6.00,24.4
48377,BHUMIBOL DAM,เขื่อนภูมิพล,ตาก,17.24389,99.00250,000,08-22-2019,04:00:00,85,3.00,0.0,25.8,0.00,1004.14,28.34,987.74,7.00,23.2
48378,PHITSANULOK,พิษณุโลก,พิษณุโลก,16.79481,100.27930,000,08-22-2019,04:00:00,93,0.40,0.0,25.7,0.00,1006.08,30.54,1000.83,10.00,24.4
48379,PHETCHABUN,เพชรบูรณ์,เพชรบูรณ์,16.43333,101.15000,000,08-22-2019,04:00:00,95,15.00,0.0,24.8,0.00,1004.86,29.69,991.59,10.00,23.9
48380,KAMPHAENG PHET,กำแพงเพชร,กำแพงเพชร,16.48681,99.52697,000,08-22-2019,04:00:00,96,6.50,0.0,25.6,0.00,1005.69,31.44,996.33,11.00,24.9
48381,KHON KAEN,ขอนแก่น,ขอนแก่น,16.46111,102.78972,180,08-22-2019,04:00:00,82,0.00,3.7,26.3,0.00,1005.85,28.19,984.14,8.00,23.1
48382,MAHASARAKHAM,มหาสารคาม,มหาสารคาม,16.24722,103.06805,000,08-22-2019,04:00:00,96,50.40,0.0,25.5,0.00,1005.77,31.25,988.21,10.00,24.8
48383,MUKDAHAN,มุกดาหาร,มุกดาหาร,16.54139,104.72889,000,08-22-2019,04:00:00,92,8.80,0.0,25.0,0.80,1004.80,29.00,988.90,10.00,23.5
48384,THA PHRA AGROMET.,ท่าพระ สกษ.,ขอนแก่น,16.33333,102.81667,230,08-22-2019,04:00:00,77,0.00,3.7,26.9,0.00,1005.13,27.44,986.28,8.00,22.6
48386,PICHIT AGROMET.,พิจิตร สกษ.,พิจิตร,16.43806,100.29250,110,08-22-2019,04:00:00,93,0.00,11.1,26.0,0.00,1005.51,31.38,1001.54,5.00,24.8
48387,DOI MU SOE AGROMET.,ดอยมูเซอร์ สกษ.,ตาก,16.75000,98.93333,240,08-22-2019,04:00:00,95,19.40,11.1,20.5,0.20,1006.51,22.95,911.16,5.00,19.7
48390,KALASIN,กาฬสินธุ์,กาฬสินธุ์,16.33250,103.58833,000,08-22-2019,04:00:00,97,5.50,0.0,24.9,1.30,1006.49,30.67,990.40,4.00,24.5
48400,NAKHON SAWAN,นครสวรรค์ ,นครสวรรค์,15.67183,100.13236,000,08-22-2019,04:00:00,89,0.00,0.0,26.4,0.00,1005.38,30.51,1001.35,10.00,24.4
48401,TAKFA AGROMET.,ตากฟ้า สกษ.,นครสวรรค์,15.34944,100.53028,000,08-22-2019,04:00:00,96,0.60,0.0,25.0,0.00,1007.20,30.32,996.46,7.00,24.3
48402,CHAINAT AGROMET.,ชัยนาท สกษ.,ชัยนาท,15.15000,100.18333,150,08-22-2019,04:00:00,92,3.30,3.7,25.5,0.00,1006.44,29.91,1004.51,7.00,24.0
48403,CHAIYAPHUM,ชัยภูมิ,ชัยภูมิ,15.80000,102.03333,000,08-22-2019,04:00:00,88,0.00,0.0,25.4,0.00,1006.20,28.41,985.25,10.00,23.2
48404,ROI ET AGROMET.,ร้อยเอ็ด สกษ.,ร้อยเอ็ด,16.07322,103.60844,000,08-22-2019,04:00:00,96,64.30,0.0,25.0,0.20,1006.47,30.32,988.70,10.00,24.3
48405,ROI ET,ร้อยเอ็ด,ร้อยเอ็ด,16.02000,103.74389,160,08-22-2019,04:00:00,98,41.00,5.6,25.2,0.20,1006.19,31.49,989.95,10.00,24.9
48407,UBON RATCHATHANI,อุบลราชธานี (ศูนย์ฯ),อุบลราชธานี,15.25000,104.86667,000,08-22-2019,04:00:00,92,22.10,0.0,25.4,0.00,1007.19,29.72,993.08,10.00,23.9
48408,UBON RATCHATHANI AGROMET.,อุบลราชธานี สกษ.,อุบลราชธานี,15.23914,105.02350,000,08-22-2019,04:00:00,94,4.60,0.0,25.2,0.00,1008.64,30.15,993.70,9.00,24.2
48409,SI SAKET AGROMET.,ศรีสะเกษ,ศรีสะเกษ,15.00000,104.05000,210,08-22-2019,04:00:00,89,0.00,3.7,26.6,0.00,1007.28,30.89,992.58,6.00,24.6
48410,UTHAITHANI,อุทัยธานี,อุทัยธานี,15.37417,100.03889,"{'0': '   ', '@attributes': {'Unit': 'degree'}}",08-22-2019,04:00:00,90,0.01,0.0,26.3,0.00,1005.58,30.86,1002.55,10.00,24.6
48413,WICHIAN BURI,วิเชียรบุรี,เพชรบูรณ์,15.65700,101.10800,000,08-22-2019,04:00:00,92,0.00,0.0,25.0,0.00,1006.11,29.00,998.11,7.00,23.5
48415,AYUTTHAYA,พระนครศรีอยุธยา,พระนครศรีอยุธยา,14.53472,100.72500,130,08-22-2019,04:00:00,95,16.20,3.7,25.6,2.00,1005.43,31.17,1004.32,6.00,24.7
48416,THA TUM,ท่าตูม,สุรินทร์,15.31667,103.68333,000,08-22-2019,04:00:00,84,0.00,0.0,26.2,0.00,1006.05,28.54,991.34,8.00,23.3
48417,NAKORNNAYOK,นครนายก,นครนายก,14.36222,101.39278,200,08-22-2019,04:00:00,99,1.40,5.6,18.7,0.40,1008.76,21.33,873.20,.05,18.5
48418,BUA CHUM,บัวชุม  ,ลพบุรี,15.26667,101.18736,190,08-22-2019,04:00:00,97,3.70,7.4,25.1,0.00,1006.54,30.77,1000.63,10.00,24.5
48419,PATHUMTHANI,ปทุมธานี สกษ.,ปทุมธานี,14.10000,100.61667,000,08-22-2019,04:00:00,93,2.90,0.0,25.8,0.50,1006.76,31.00,1005.95,8.00,24.6
48420,Samut Prakarn,สมุทรปราการ สกษ.,สมุทรปราการ,13.51667,100.76167,210,08-22-2019,04:00:00,75,0.00,7.4,28.7,0.00,1006.55,29.71,1006.11,10.00,23.9
48421,THONG PHAPHUM,ทองผาภูมิ,กาญจนบุรี,14.74222,98.63639,000,08-22-2019,04:00:00,97,7.40,0.0,24.3,0.00,1007.25,29.31,995.85,3.00,23.7
48425,SUPHAN BURI,สุพรรณบุรี,สุพรรณบุรี,14.47444,100.13889,000,08-22-2019,04:00:00,91,4.20,0.0,26.2,0.00,1006.75,30.94,1005.73,10.00,24.6
48426,LOP BURI,ลพบุรี,ลพบุรี,14.79972,100.64500,000,08-22-2019,04:00:00,92,1.90,0.0,25.9,0.00,1006.53,30.65,1004.70,7.00,24.4
48427,U THONG AGROMET.,อู่ทอง สกษ.,สุพรรณบุรี,14.30361,99.86472,000,08-22-2019,04:00:00,91,0.20,0.0,26.9,0.00,1010.27,32.30,1009.51,7.00,25.3
48429,SUVARNABHUMI AIRPORT,สนามบินสุวรรณภูมิ,สมุทรปราการ,13.68639,100.76750,200,08-22-2019,04:00:00,78,0.00,5.6,27.8,0.00,1007.13,29.09,1006.43,10.00,23.6
48430,PRACHIN BURI,ปราจีนบุรี,ปราจีนบุรี,14.05842,101.36930,000,08-22-2019,04:00:00,87,0.20,0.0,27.4,0.00,1007.39,31.61,1006.69,7.00,25.0
48431,NAKHON RATCHASIMA,นครราชสีมา,นครราชสีมา,14.96830,102.08603,260,08-22-2019,04:00:00,87,0.10,3.7,26.2,0.10,1006.65,29.60,985.45,7.00,23.9
48432,SURIN,สุรินทร์,สุรินทร์,14.88333,103.50000,000,08-22-2019,04:00:00,85,0.00,0.0,25.9,0.00,1006.89,28.52,990.11,6.00,23.3
48433,SURIN AGROMET.,สุรินทร์ สกษ.,สุรินทร์,14.88333,103.45000,180,08-22-2019,04:00:00,88,0.00,9.3,26.0,0.00,1007.32,29.50,990.83,6.00,23.8
48434,CHOK CHAI,โชคชัย,นครราชสีมา,14.71889,102.16861,000,08-22-2019,04:00:00,87,0.00,0.0,26.6,0.00,1006.80,30.34,984.92,10.00,24.3
48435,PAKCHONG AGROMET.,ปากช่อง สกษ.,นครราชสีมา,14.64389,101.33194,190,08-22-2019,04:00:00,86,7.60,7.4,24.2,0.40,1007.44,25.84,963.79,8.00,21.6
48436,NANG RONG,นางรอง,บุรีรัมย์,14.58333,102.80000,180,08-22-2019,04:00:00,83,0.00,3.7,26.7,0.00,1006.92,28.92,986.35,10.00,23.5
48437,BURIRUM,บุรีรัมย์,บุรีรัมย์,15.22575,103.24808,190,08-22-2019,04:00:00,98,0.00,13.0,25.2,0.00,1008.26,31.49,987.30,8.00,24.9
48438,SAMUTSONGKRAM,สมุทรสงคราม,สมุทรสงคราม,13.40778,100.03222,210,08-22-2019,04:00:00,77,0.70,9.3,27.8,0.00,1006.71,28.82,1006.28,10.00,23.4
48439,KABIN BURI,กบินทร์บุรี,ปราจีนบุรี,13.98333,101.70722,000,08-22-2019,04:00:00,91,0.00,0.0,26.3,0.00,1006.95,31.13,1005.53,6.00,24.7
48440,SA KAEW,สระแก้ว,สระแก้ว,13.78889,102.03472,000,08-22-2019,04:00:00,97,3.90,0.0,25.9,0.00,1007.26,32.29,1002.31,7.00,25.3
48450,KANCHANA BURI,กาญจนบุรี,กาญจนบุรี,14.02250,99.53583,000,08-22-2019,04:00:00,84,0.00,0.0,26.4,0.00,1006.75,28.90,1003.45,10.00,23.5
48451,NAKHONPATHOM,นครปฐม,นครปฐม,14.01167,99.97000,000,08-22-2019,04:00:00,93,0.20,0.0,25.9,0.00,1006.65,30.92,1005.54,10.00,24.6
48453,BANG NA AGROMET.,กรุงเทพฯ บางนา สกษ.,กรุงเทพมหานคร,13.66639,100.60611,200,08-22-2019,04:00:00,77,0.01,3.7,28.5,0.01,1006.90,29.87,1006.60,9.00,24.0
48455,BANGKOK METROPOLIS,กรุงเทพมหานคร,กรุงเทพมหานคร,13.72639,100.56000,170,08-22-2019,04:00:00,78,0.00,1.9,27.5,0.00,1006.78,28.80,1006.29,10.00,23.4
48456,DON MUANG AIRPORT,สนามบินดอนเมือง,กรุงเทพมหานคร,13.91917,100.60500,000,08-22-2019,04:00:00,86,5.80,0.0,27.0,0.00,1006.76,30.56,1005.35,10.00,24.4
48458,CHACHOENGSAO,ฉะเชิงเทรา,ฉะเชิงเทรา,13.51556,101.45833,000,08-22-2019,04:00:00,93,0.00,0.0,25.8,0.00,1008.80,31.00,1000.75,10.00,24.6
48459,CHON BURI,ชลบุรี,ชลบุรี,13.36667,100.98333,000,08-22-2019,04:00:00,83,0.00,0.0,28.0,0.00,1006.99,31.39,1006.71,10.00,24.8
48460,KO SICHANG,เกาะสีชัง,ชลบุรี,13.16167,100.80194,200,08-22-2019,04:00:00,81,0.00,5.6,28.5,0.00,1007.16,31.54,1004.04,10.00,24.9
48461,PHATTHAYA,พัทยา,ชลบุรี,12.92000,100.86944,000,08-22-2019,04:00:00,82,0.00,0.0,27.9,0.00,1007.18,30.64,1000.26,10.00,24.4
48462,ARANYA PRATHET,อรัญประเทศ,สระแก้ว,13.70000,102.58333,000,08-22-2019,04:00:00,92,0.00,0.0,26.0,0.00,1007.33,30.84,1001.71,8.00,24.6
48464,RATCHA BURI,ราชบุรี,ราชบุรี,13.48931,99.79239,000,08-22-2019,04:00:00,97,3.30,0.0,25.4,0.00,1008.04,31.33,1006.77,8.00,24.8
48465,PHETCHA BURI,เพชรบุรี,เพชรบุรี,12.99944,100.06056,260,08-22-2019,04:00:00,81,0.70,5.6,27.4,0.00,1007.02,29.69,1006.59,11.00,23.9
48474,NONG PHLUB AGROMET.,หนองพลับ สกษ.,ประจวบคีรีขันธ์,12.58333,99.73333,000,08-22-2019,04:00:00,91,0.00,0.0,25.1,0.00,1007.51,28.92,995.17,10.00,23.5
48475,HUA HIN,หัวหิน,ประจวบคีรีขันธ์,12.58611,99.96250,000,08-22-2019,04:00:00,82,5.50,0.0,26.7,0.00,1007.42,28.65,1006.70,10.00,23.3
48477,SATTAHIP,สัตหีบ,ชลบุรี,12.68333,100.98333,200,08-22-2019,04:00:00,84,2.00,5.6,27.7,0.00,1007.75,31.08,1005.32,10.00,24.7
48478,RAYONG,ระยอง,ระยอง,12.63222,101.34361,230,08-22-2019,04:00:00,80,0.00,14.8,28.6,0.00,1007.49,31.46,1006.98,10.00,24.9
48479,HUAI PONG AGROMET.,ห้วยโป่ง สกษ.,ระยอง,12.73333,101.13333,000,08-22-2019,04:00:00,86,7.40,0.0,26.8,0.00,1007.37,30.18,1002.21,9.00,24.2
48480,CHANTHA BURI,จันทบุรี,จันทบุรี,12.61667,102.11333,200,08-22-2019,04:00:00,85,3.50,3.7,27.5,0.00,1007.48,31.25,1007.06,7.00,24.8
48481,PHLIU  AGROMET.,พลิ้ว สกษ.,จันทบุรี,12.50861,102.17305,000,08-22-2019,04:00:00,96,9.10,0.0,26.5,0.00,1007.97,33.19,1005.19,8.00,25.8
48500,PRACHUAP KHIRIKHAN,ประจวบคีรีขันธ์,ประจวบคีรีขันธ์,11.83333,99.83333,000,08-22-2019,04:00:00,80,1.00,0.0,25.5,0.00,1007.64,26.02,1006.85,10.00,21.7
48501,TRAD,ตราด,ตราด,11.76667,102.88333,060,08-22-2019,04:00:00,94,41.30,5.6,26.2,0.00,1008.10,32.04,1007.64,6.00,25.2
48517,CHUMPHON,ชุมพร,ชุมพร,10.49875,99.18847,000,08-22-2019,04:00:00,92,2.40,0.0,25.0,0.00,1007.31,29.00,1006.63,7.00,23.5
48520,SAWI AGROMET.,สวี สกษ.,ชุมพร,10.33333,99.10000,000,08-22-2019,04:00:00,93,0.40,0.0,25.2,0.00,1008.57,29.89,1007.03,8.00,24.0
48532,RANONG,ระนอง,ระนอง,9.98333,98.61667,250,08-22-2019,04:00:00,91,37.30,5.6,25.6,0.00,1009.28,29.82,1008.36,10.00,24.0
48550,KO SAMUI,เกาะสมุย,สุราษฎร์ธานี,9.46667,100.05000,000,08-22-2019,04:00:00,80,0.70,0.0,27.6,0.00,1008.87,29.52,1008.19,10.00,23.8
48551,SURAT THANI,สุราษฎร์ธานี,สุราษฎร์ธานี,9.13556,99.15194,170,08-22-2019,04:00:00,96,1.20,3.7,24.6,0.00,1009.46,29.59,1008.66,8.00,23.9
48552,NAKHONSI THAMMARAT,นครศรีธรรมราช,นครศรีธรรมราช,8.53778,99.96389,000,08-22-2019,04:00:00,97,35.00,0.0,24.7,0.00,1008.66,30.03,1008.02,10.00,24.1
48554,NAKHONSI THAMMARAT AGROMET.,นครศรีธรรมราช สกษ.,นครศรีธรรมราช,8.35931,100.00000,210,08-22-2019,04:00:00,90,8.00,18.5,25.7,0.00,1007.62,29.74,1007.21,10.00,23.9
48555,SURAT THANI AGROMET.,สุราษฎร์ธานี สกษ.,สุราษฎร์ธานี,9.10000,99.63333,000,08-22-2019,04:00:00,82,0.00,0.0,26.0,0.00,1010.74,27.40,1006.50,6.00,22.6
48556,PHRA SANG,พระแสง สอท.,สุราษฎร์ธานี,8.57022,99.25825,000,08-22-2019,04:00:00,98,4.60,0.0,23.8,0.40,1009.92,28.95,1008.29,8.00,23.5
48557,CHAWANG,ฉวาง,นครศรีธรรมราช,8.43194,99.51194,000,08-22-2019,04:00:00,96,14.80,0.0,24.5,3.00,1010.33,29.41,1006.81,6.00,23.8
48561,TAKUA PA,ตะกั่วป่า,พังงา,8.68417,98.25222,000,08-22-2019,04:00:00,98,49.20,0.0,24.7,6.80,1009.32,30.56,1008.43,10.00,24.4
48563,KRABI,กระบี่,กระบี่,8.10361,98.97528,000,08-22-2019,04:00:00,99,3.90,0.0,23.7,0.00,1009.75,29.03,1006.14,10.00,23.5
48564,PHUKET,ภูเก็ต,ภูเก็ต,7.88333,98.40000,000,08-22-2019,04:00:00,96,26.20,0.0,24.5,0.60,1008.14,29.41,1007.70,8.00,23.8
48565,PHUKET AIRPORT,ภูเก็ต (ศูนย์ฯ),ภูเก็ต,8.14500,98.31444,250,08-22-2019,04:00:00,90,22.00,7.4,26.6,1.60,1008.87,31.44,1007.88,10.00,24.9
48566,KO LANTA,เกาะลันตา,กระบี่,7.53333,99.05000,260,08-22-2019,04:00:00,92,3.40,14.8,26.6,2.20,1009.71,31.99,1008.90,10.00,25.2
48567,TRANG AIRPORT,ตรัง,ตรัง,7.51667,99.61667,000,08-22-2019,04:00:00,97,9.30,0.0,24.7,1.20,1010.57,30.03,1008.74,6.00,24.1
48568,SONGKHLA,สงขลา,สงขลา,7.18211,100.60769,180,08-22-2019,04:00:00,85,2.10,3.7,25.9,0.00,1010.12,28.26,1009.36,10.00,23.1
48569,HAT YAI AIRPORT,หาดใหญ่,สงขลา,6.91667,100.43333,240,08-22-2019,04:00:00,88,0.00,5.6,25.2,0.00,1010.55,28.31,1006.52,10.00,23.1
48570,SATUN,สตูล,สตูล,6.65000,100.08333,000,08-22-2019,04:00:00,96,29.80,0.0,24.7,8.50,1012.63,29.77,1011.93,6.00,24.0
48571,KHO HONG AGROMET.,คอหงษ์ สกษ.,สงขลา,7.00000,100.50000,000,08-22-2019,04:00:00,90,0.40,0.0,25.2,0.00,1010.24,28.83,1009.11,10.00,23.4
48574,SA DAO,สะเดา,สงขลา,6.79806,100.39056,000,08-22-2019,04:00:00,96,7.90,0.0,24.3,0.00,1010.71,29.05,1007.76,10.00,23.6
