WmoStationNumber,StationNameEnglish,StationNameThai,Province,Latitude,Longitude,MeanSeaLevelPressure,Date,Time,WindDirection,MinimumTemperature,StationPressure,Rainfall24Hr,LandVisibility,DewPoint,Rainfall,AirTemperature,WindSpeed,RelativeHumidity,VaporPressure
48300,MAE HONG SON,แม่ฮ่องสอน,แม่ฮ่องสอน,19.29897,97.97578,1007.47,08-23-2019,07:00:00,000,23.8,976.49,0.10,6.00,23.9,0.00,25.5,0.0,91,29.64
48302,DOI ANG KANG,ดอยอ่างขาง,เชียงใหม่,19.93139,99.04833,1005.95,08-23-2019,07:00:00,000,17.8,844.41,0.00,8.00,17.7,0.00,17.9,0.0,99,20.28
48303,CHIANG RAI,เชียงราย,เชียงราย,19.96139,99.88139,1007.59,08-23-2019,07:00:00,000,23.5,963.76,99.20,10.00,23.1,0.00,24.3,0.0,93,28.28
48304,CHAING RAI AGROMET.,เชียงราย สกษ.,เชียงราย,19.87083,99.78278,1007.67,08-23-2019,07:00:00,000,23.3,961.88,8.00,15.00,23.3,0.00,24.0,0.0,96,28.53
48307,THUNG CHANG,ทุ่งช้าง,น่าน,19.41194,100.88353,1008.67,08-23-2019,07:00:00,000,23.2,970.74,11.10,8.00,23.8,2.10,23.8,0.0,100,29.46
48310,PHAYAO,พะเยา,พะเยา,19.13333,99.90000,1007.77,08-23-2019,07:00:00,100,23.6,962.49,8.10,6.00,23.9,0.00,24.5,3.7,97,29.67
48315,THA WANGPHA,ท่าวังผา,น่าน,19.11056,100.80250,1008.94,08-23-2019,07:00:00,000,24.1,982.02,5.80,7.00,23.8,2.80,24.5,0.0,96,29.41
48324,THOEN,เถิน,ลำปาง,17.63661,99.24475,1008.13,08-23-2019,07:00:00,000,24.4,986.25,1.90,6.00,24.2,0.00,24.9,0.0,96,30.13
48325,MAE SARIANG,แม่สะเรียง,แม่ฮ่องสอน,18.16667,97.93333,1008.18,08-23-2019,07:00:00,000,23.7,983.94,1.60,6.00,23.9,0.30,24.8,0.0,95,29.69
48327,CHIANG MAI,เชียงใหม่,เชียงใหม่,18.79000,98.97694,1007.86,08-23-2019,07:00:00,000,24.1,973.16,45.60,10.00,23.6,0.30,24.6,0.0,94,29.07
48328,LAMPANG,ลำปาง,ลำปาง,18.28333,99.51667,1008.66,08-23-2019,07:00:00,000,24.5,980.98,0.00,10.00,24.3,0.00,25.0,0.0,96,30.32
48329,LAMPHUN,ลำพูน,ลำพูน,18.56722,99.03389,1007.50,08-23-2019,07:00:00,000,24.1,973.71,30.20,10.00,23.9,0.20,24.2,0.0,98,29.66
48330,PHRAE,แพร่,แพร่,18.16667,100.16667,1008.08,08-23-2019,07:00:00,000,24.0,989.45,2.30,10.00,22.1,0.00,24.8,0.0,85,26.60
48331,NAN,น่าน,น่าน,18.77972,100.77778,1008.44,08-23-2019,07:00:00,000,23.9,985.46,11.50,10.00,23.7,0.01,24.7,0.0,94,29.25
48333,NAN AGROMET.,น่าน สกษ.,น่าน,18.86667,100.75000,1008.49,08-23-2019,07:00:00,000,23.8,978.33,1.50,7.00,22.5,0.00,24.0,0.0,91,27.25
48334,LAMPANG AGROMET.,ลำปาง สกษ.,ลำปาง,18.31667,99.28333,1007.95,08-23-2019,07:00:00,000,24.0,972.19,2.00,7.00,23.9,0.00,24.2,0.0,98,29.66
48350,LOEI AGROMET.,เลย สกษ.,เลย,17.40000,101.73333,1007.85,08-23-2019,07:00:00,000,23.1,977.84,1.30,12.00,23.2,0.00,23.5,0.0,98,28.42
48351,UTTARADIT,อุตรดิตถ์,อุตรดิตถ์,17.61667,100.10000,1008.26,08-23-2019,07:00:00,000,24.8,1000.90,26.60,6.00,24.3,0.00,25.0,0.0,96,30.32
48352,NONG KHAI,หนองคาย,หนองคาย,17.86717,102.73303,1008.13,08-23-2019,07:00:00,000,25.3,988.18,2.20,15.00,25.6,0.00,26.2,0.0,97,32.87
48353,LOEI,เลย,เลย,17.45000,101.73333,1008.07,08-23-2019,07:00:00,000,23.6,979.14,1.90,12.00,23.3,0.00,24.0,0.0,96,28.53
48354,UDON THANI,อุดรธานี,อุดรธานี,17.38333,102.80000,1008.36,08-23-2019,07:00:00,000,25.0,988.06,3.60,10.00,24.2,0.30,25.2,0.0,94,30.15
48355,SAKON NAKHON AGROMET.,สกลนคร สกษ.,สกลนคร,17.12503,104.06100,1009.80,08-23-2019,07:00:00,000,23.4,987.79,50.40,5.00,22.8,10.20,23.7,0.0,95,27.75
48356,SAKON NAKHON,สกลนคร,สกลนคร,17.15000,104.13333,1008.87,08-23-2019,07:00:00,180,23.0,989.13,42.00,6.00,23.3,8.10,23.6,3.7,98,28.60
48357,NAKHON PHANOM,นครพนม,นครพนม,17.41083,104.78250,1010.08,08-23-2019,07:00:00,000,23.5,993.10,31.60,5.00,22.9,17.00,23.6,0.0,96,27.83
48358,NAKHON PHANOM AGROMET.,นครพนม สกษ.,นครพนม,17.44306,104.77361,1010.19,08-23-2019,07:00:00,000,22.6,992.54,26.30,5.00,23.0,16.60,23.6,0.0,96,28.09
48360,NONG BUA LAM PHU,หนองบัวลำภู,หนองบัวลำภู,17.23250,102.42944,1007.82,08-23-2019,07:00:00,000,24.3,981.83,1.70,9.00,23.8,0.40,24.5,0.0,96,29.41
48372,SUKHOTHAI*,สุโขทัย,สุโขทัย,17.10611,99.80000,1008.04,08-23-2019,07:00:00,000,22.6,1002.22,18.90,8.00,25.3,0.00,25.6,0.0,98,32.26
48373,SI SAMRONG AGROMET.,ศรีสำโรง สกษ.,สุโขทัย,17.16136,99.86167,1008.08,08-23-2019,07:00:00,000,24.4,1001.84,58.50,8.00,25.0,0.00,25.0,0.0,100,31.66
48374,LOM SAK,หล่มสัก,เพชรบูรณ์,16.77361,101.24944,1009.96,08-23-2019,07:00:00,000,23.5,993.34,18.50,10.00,23.0,0.00,24.5,0.0,91,28.11
48375,MAE SOT,แม่สอด,ตาก,16.65917,98.55083,1006.25,08-23-2019,07:00:00,110,23.4,983.76,29.40,10.00,23.2,0.00,24.4,3.7,93,28.45
48376,TAK,ตาก,ตาก,16.87833,99.14333,1008.70,08-23-2019,07:00:00,000,24.3,994.19,13.30,5.00,24.3,0.00,25.0,0.0,96,30.32
48377,BHUMIBOL DAM,เขื่อนภูมิพล,ตาก,17.24389,99.00250,1007.90,08-23-2019,07:00:00,000,24.4,991.40,3.50,7.00,24.4,0.00,25.0,0.0,97,30.58
48378,PHITSANULOK,พิษณุโลก,พิษณุโลก,16.79481,100.27930,1008.38,08-23-2019,07:00:00,000,24.5,1003.11,19.80,10.00,24.9,0.50,25.3,0.0,97,31.41
48379,PHETCHABUN,เพชรบูรณ์,เพชรบูรณ์,16.43333,101.15000,1006.99,08-23-2019,07:00:00,000,24.2,993.68,16.00,10.00,23.8,0.20,24.5,0.0,96,29.41
48380,KAMPHAENG PHET,กำแพงเพชร,กำแพงเพชร,16.48681,99.52697,1008.46,08-23-2019,07:00:00,140,24.7,999.07,5.80,10.00,24.9,0.00,25.3,3.7,97,31.41
48381,KHON KAEN,ขอนแก่น,ขอนแก่น,16.46111,102.78972,1008.68,08-23-2019,07:00:00,150,24.2,986.82,28.00,6.00,24.3,0.20,25.0,7.4,96,30.32
48382,MAHASARAKHAM,มหาสารคาม,มหาสารคาม,16.24722,103.06805,1009.24,08-23-2019,07:00:00,000,24.7,991.58,2.00,7.00,25.0,0.80,25.0,0.0,100,31.66
48383,MUKDAHAN,มุกดาหาร,มุกดาหาร,16.54139,104.72889,1009.66,08-23-2019,07:00:00,000,22.5,993.58,73.80,6.00,22.9,40.00,23.1,0.0,99,27.99
48384,THA PHRA AGROMET.,ท่าพระ สกษ.,ขอนแก่น,16.33333,102.81667,1007.96,08-23-2019,07:00:00,190,25.0,988.95,2.00,6.00,24.8,1.20,25.2,1.9,97,31.22
48385,UMPHANG,อุ้มผาง,ตาก,16.02472,98.86444,1007.95,08-23-2019,07:00:00,000,21.2,956.14,12.40,7.00,21.7,0.40,22.5,0.0,95,26.01
48386,PICHIT AGROMET.,พิจิตร สกษ.,พิจิตร,16.43806,100.29250,1008.08,08-23-2019,07:00:00,090,24.7,1004.10,26.90,5.00,25.2,0.20,25.5,3.7,98,32.07
48387,DOI MU SOE AGROMET.,ดอยมูเซอร์ สกษ.,ตาก,16.75000,98.93333,1008.67,08-23-2019,07:00:00,200,20.4,913.27,17.90,5.00,20.5,0.00,21.0,11.1,97,24.15
48390,KALASIN,กาฬสินธุ์,กาฬสินธุ์,16.33250,103.58833,1008.99,08-23-2019,07:00:00,000,23.3,992.82,38.60,5.00,23.9,3.00,24.1,0.0,99,29.74
48400,NAKHON SAWAN,นครสวรรค์ ,นครสวรรค์,15.67183,100.13236,1008.19,08-23-2019,07:00:00,000,25.4,1004.13,11.90,7.00,25.2,0.00,25.8,0.0,97,32.09
48401,TAKFA AGROMET.,ตากฟ้า สกษ.,นครสวรรค์,15.34944,100.53028,1009.15,08-23-2019,07:00:00,000,25.0,998.39,7.80,7.00,24.3,0.40,25.2,0.0,95,30.42
48402,CHAINAT AGROMET.,ชัยนาท สกษ.,ชัยนาท,15.15000,100.18333,1008.85,08-23-2019,07:00:00,150,25.8,1006.91,6.70,9.00,24.6,0.00,26.0,3.7,92,30.84
48403,CHAIYAPHUM,ชัยภูมิ,ชัยภูมิ,15.80000,102.03333,1008.67,08-23-2019,07:00:00,000,23.5,987.64,1.80,10.00,23.5,0.40,25.0,0.0,92,29.00
48404,ROI ET AGROMET.,ร้อยเอ็ด สกษ.,ร้อยเอ็ด,16.07322,103.60844,1008.88,08-23-2019,07:00:00,000,24.5,991.08,6.90,10.00,24.8,1.10,25.2,0.0,97,31.22
48405,ROI ET,ร้อยเอ็ด,ร้อยเอ็ด,16.02000,103.74389,1008.60,08-23-2019,07:00:00,000,25.0,992.35,11.00,8.00,25.4,1.70,25.8,0.0,97,32.37
48407,UBON RATCHATHANI,อุบลราชธานี (ศูนย์ฯ),อุบลราชธานี,15.25000,104.86667,1009.60,08-23-2019,07:00:00,000,24.1,995.44,27.70,9.00,24.6,1.20,25.2,0.0,97,30.96
48408,UBON RATCHATHANI AGROMET.,อุบลราชธานี สกษ.,อุบลราชธานี,15.23914,105.02350,1010.16,08-23-2019,07:00:00,000,24.5,995.19,26.40,8.00,24.7,1.00,25.0,0.0,98,31.12
48409,SI SAKET AGROMET.,ศรีสะเกษ,ศรีสะเกษ,15.00000,104.05000,1009.62,08-23-2019,07:00:00,000,23.9,994.85,4.60,7.00,25.7,0.01,25.9,0.0,99,33.12
48410,UTHAITHANI,อุทัยธานี,อุทัยธานี,15.37417,100.03889,1007.52,08-23-2019,07:00:00,"{'@attributes': {'Unit': 'degree'}, '0': '   '}",24.4,1004.49,2.60,10.00,25.4,0.20,26.3,0.0,95,32.51
48413,WICHIAN BURI,วิเชียรบุรี,เพชรบูรณ์,15.65700,101.10800,1008.54,08-23-2019,07:00:00,000,24.8,1000.53,3.20,10.00,24.4,0.60,25.3,0.0,95,30.60
48415,AYUTTHAYA,พระนครศรีอยุธยา,พระนครศรีอยุธยา,14.53472,100.72500,1009.24,08-23-2019,07:00:00,120,25.0,1008.12,2.90,8.00,24.8,0.00,26.2,5.6,92,31.22
48416,THA TUM,ท่าตูม,สุรินทร์,15.31667,103.68333,1006.22,08-23-2019,07:00:00,000,25.5,991.49,5.50,8.00,24.2,0.90,25.9,0.0,90,30.11
48417,NAKORNNAYOK,นครนายก,นครนายก,14.36222,101.39278,1010.62,08-23-2019,07:00:00,200,18.2,875.02,48.00,.05,19.0,1.20,19.2,5.6,99,22.01
48418,BUA CHUM,บัวชุม  ,ลพบุรี,15.26667,101.18736,1009.03,08-23-2019,07:00:00,000,24.4,1003.10,0.20,8.00,24.2,0.00,25.4,0.0,93,30.25
48419,PATHUMTHANI,ปทุมธานี สกษ.,ปทุมธานี,14.10000,100.61667,1008.88,08-23-2019,07:00:00,090,25.5,1008.07,0.60,8.00,25.8,0.00,26.5,5.6,96,33.19
48420,Samut Prakarn,สมุทรปราการ สกษ.,สมุทรปราการ,13.51667,100.76167,1008.27,08-23-2019,07:00:00,210,27.7,1007.82,0.50,10.00,24.7,0.00,29.0,13.0,78,31.13
48421,THONG PHAPHUM,ทองผาภูมิ,กาญจนบุรี,14.74222,98.63639,1009.07,08-23-2019,07:00:00,000,24.3,997.65,8.80,3.00,24.1,1.00,24.5,0.0,97,29.93
48425,SUPHAN BURI,สุพรรณบุรี,สุพรรณบุรี,14.47444,100.13889,1008.96,08-23-2019,07:00:00,180,26.0,1007.94,0.10,10.00,24.5,0.10,26.7,3.7,88,30.81
48426,LOP BURI,ลพบุรี,ลพบุรี,14.79972,100.64500,1008.67,08-23-2019,07:00:00,160,26.0,1006.84,0.00,7.00,24.5,0.00,26.1,3.7,91,30.76
48427,U THONG AGROMET.,อู่ทอง สกษ.,สุพรรณบุรี,14.30361,99.86472,1008.59,08-23-2019,07:00:00,000,25.5,1007.82,0.30,8.00,23.9,0.01,26.5,0.0,86,29.62
48429,SUVARNABHUMI AIRPORT,สนามบินสุวรรณภูมิ,สมุทรปราการ,13.68639,100.76750,1009.00,08-23-2019,07:00:00,000,25.3,1008.30,0.01,10.00,26.2,0.01,27.5,0.0,93,34.07
48430,PRACHIN BURI,ปราจีนบุรี,ปราจีนบุรี,14.05842,101.36930,1009.08,08-23-2019,07:00:00,090,25.4,1008.37,0.70,7.00,24.8,0.00,26.2,3.7,92,31.22
48431,NAKHON RATCHASIMA,นครราชสีมา,นครราชสีมา,14.96830,102.08603,1008.80,08-23-2019,07:00:00,220,25.7,987.57,0.60,10.00,22.9,0.00,26.4,3.7,81,27.85
48432,SURIN,สุรินทร์,สุรินทร์,14.88333,103.50000,1009.35,08-23-2019,07:00:00,000,24.5,992.52,1.30,8.00,23.9,0.00,25.7,0.0,90,29.74
48433,SURIN AGROMET.,สุรินทร์ สกษ.,สุรินทร์,14.88333,103.45000,1009.56,08-23-2019,07:00:00,000,24.5,993.01,1.20,5.00,24.8,0.00,25.5,0.0,96,31.25
48434,CHOK CHAI,โชคชัย,นครราชสีมา,14.71889,102.16861,1009.08,08-23-2019,07:00:00,000,25.3,987.11,0.00,10.00,23.8,0.00,26.0,0.0,88,29.50
48435,PAKCHONG AGROMET.,ปากช่อง สกษ.,นครราชสีมา,14.64389,101.33194,1009.18,08-23-2019,07:00:00,000,23.9,965.50,3.80,12.00,23.0,0.00,24.5,0.0,91,28.11
48436,NANG RONG,นางรอง,บุรีรัมย์,14.58333,102.80000,1008.70,08-23-2019,07:00:00,000,26.0,988.07,0.01,8.00,24.1,0.00,26.4,0.0,87,29.97
48437,BURIRUM,บุรีรัมย์,บุรีรัมย์,15.22575,103.24808,1010.83,08-23-2019,07:00:00,170,25.1,989.81,0.60,6.00,25.2,0.40,25.2,5.6,100,32.04
48438,SAMUTSONGKRAM,สมุทรสงคราม,สมุทรสงคราม,13.40778,100.03222,1008.43,08-23-2019,07:00:00,270,26.2,1008.00,23.90,10.00,24.6,0.00,27.8,5.6,83,31.00
48439,KABIN BURI,กบินทร์บุรี,ปราจีนบุรี,13.98333,101.70722,1009.22,08-23-2019,07:00:00,000,25.2,1007.80,0.70,8.00,25.3,0.10,26.0,0.0,96,32.20
48440,SA KAEW,สระแก้ว,สระแก้ว,13.78889,102.03472,1009.27,08-23-2019,07:00:00,000,24.8,1004.30,17.80,8.00,24.9,0.00,25.2,0.0,98,31.49
48450,KANCHANA BURI,กาญจนบุรี,กาญจนบุรี,14.02250,99.53583,1008.79,08-23-2019,07:00:00,000,24.2,1005.49,0.01,12.00,23.5,0.00,26.9,0.0,82,29.02
48451,NAKHONPATHOM,นครปฐม,นครปฐม,14.01167,99.97000,1009.04,08-23-2019,07:00:00,000,25.8,1007.93,1.30,10.00,25.5,0.00,26.5,0.0,94,32.63
48453,BANG NA AGROMET.,กรุงเทพฯ บางนา สกษ.,กรุงเทพมหานคร,13.66639,100.60611,1008.94,08-23-2019,07:00:00,000,26.6,1008.64,3.70,10.00,25.8,0.00,27.5,0.0,90,33.21
48454,BANGKOK PORT (KLONG TOEI),กรุงเทพฯ ท่าเรือคลองเตย,กรุงเทพมหานคร,13.70694,100.56805,1008.73,08-23-2019,07:00:00,000,24.5,1008.04,14.50,9.00,26.4,11.70,27.3,0.0,95,34.52
48455,BANGKOK METROPOLIS,กรุงเทพมหานคร,กรุงเทพมหานคร,13.72639,100.56000,1008.60,08-23-2019,07:00:00,000,25.5,1008.11,19.50,10.00,26.2,0.60,26.6,0.0,98,33.95
48456,DON MUANG AIRPORT,สนามบินดอนเมือง,กรุงเทพมหานคร,13.91917,100.60500,1009.00,08-23-2019,07:00:00,000,26.3,1007.59,6.40,10.00,26.5,0.00,26.8,0.0,98,34.64
48457,PILOT STATION,นำร่อง,สมุทรปราการ,13.39389,100.59944,1008.57,08-23-2019,07:00:00,210,28.1,1006.90,0.00,10.00,26.7,0.00,29.5,22.2,85,35.05
48458,CHACHOENGSAO,ฉะเชิงเทรา,ฉะเชิงเทรา,13.51556,101.45833,1010.46,08-23-2019,07:00:00,000,25.6,1002.40,0.01,10.00,25.2,0.00,26.1,0.0,95,32.12
48459,CHON BURI,ชลบุรี,ชลบุรี,13.36667,100.98333,1008.57,08-23-2019,07:00:00,000,27.4,1008.29,0.00,10.00,25.4,0.00,28.4,0.0,84,32.47
48460,KO SICHANG,เกาะสีชัง,ชลบุรี,13.16167,100.80194,1008.65,08-23-2019,07:00:00,000,28.0,1005.53,0.00,10.00,24.7,0.00,29.0,0.0,78,31.13
48461,PHATTHAYA,พัทยา,ชลบุรี,12.92000,100.86944,1009.17,08-23-2019,07:00:00,210,27.5,1002.25,0.00,10.00,25.0,0.00,28.4,5.6,82,31.62
48462,ARANYA PRATHET,อรัญประเทศ,สระแก้ว,13.70000,102.58333,1009.82,08-23-2019,07:00:00,000,25.4,1004.19,4.10,8.00,25.0,0.00,26.0,0.0,94,31.65
48463,LAEM CHABANG,แหลมฉบัง,ชลบุรี,13.07694,100.87583,1009.93,08-23-2019,07:00:00,230,27.8,1000.63,0.00,10.00,24.3,0.00,28.2,14.8,80,30.40
48464,RATCHA BURI,ราชบุรี,ราชบุรี,13.48931,99.79239,1009.63,08-23-2019,07:00:00,000,25.6,1008.36,15.90,4.00,26.0,0.00,26.0,0.0,100,33.60
48465,PHETCHA BURI,เพชรบุรี,เพชรบุรี,12.99944,100.06056,1008.74,08-23-2019,07:00:00,230,27.1,1008.31,0.00,11.00,23.9,0.00,27.5,11.1,81,29.60
48474,NONG PHLUB AGROMET.,หนองพลับ สกษ.,ประจวบคีรีขันธ์,12.58333,99.73333,1009.21,08-23-2019,07:00:00,000,24.7,996.86,0.00,10.00,23.7,0.00,25.3,0.0,91,29.28
48475,HUA HIN,หัวหิน,ประจวบคีรีขันธ์,12.58611,99.96250,1008.74,08-23-2019,07:00:00,000,26.7,1008.03,0.00,10.00,23.8,0.00,27.1,0.0,82,29.39
48477,SATTAHIP,สัตหีบ,ชลบุรี,12.68333,100.98333,1009.19,08-23-2019,07:00:00,200,27.2,1006.76,0.00,10.00,24.2,0.00,28.5,7.4,78,30.15
48478,RAYONG,ระยอง,ระยอง,12.63222,101.34361,1009.21,08-23-2019,07:00:00,250,28.5,1008.69,0.00,10.00,24.7,0.00,29.0,9.3,78,31.13
48479,HUAI PONG AGROMET.,ห้วยโป่ง สกษ.,ระยอง,12.73333,101.13333,1009.19,08-23-2019,07:00:00,190,27.7,1004.05,0.00,11.00,24.2,0.00,28.4,1.9,78,30.23
48480,CHANTHA BURI,จันทบุรี,จันทบุรี,12.61667,102.11333,1009.89,08-23-2019,07:00:00,200,26.7,1009.48,0.80,8.00,25.4,0.00,27.3,5.6,90,32.53
48481,PHLIU  AGROMET.,พลิ้ว สกษ.,จันทบุรี,12.50861,102.17305,1009.89,08-23-2019,07:00:00,000,25.5,1007.10,0.00,8.00,24.7,0.00,25.6,0.0,95,31.17
48500,PRACHUAP KHIRIKHAN,ประจวบคีรีขันธ์,ประจวบคีรีขันธ์,11.83333,99.83333,1010.09,08-23-2019,07:00:00,000,25.0,1009.30,0.00,10.00,23.2,0.00,26.9,0.0,80,28.49
48501,TRAD,ตราด,ตราด,11.76667,102.88333,1009.99,08-23-2019,07:00:00,110,24.0,1009.53,21.50,7.00,23.6,0.00,25.5,5.6,89,29.11
48517,CHUMPHON,ชุมพร,ชุมพร,10.49875,99.18847,1010.20,08-23-2019,07:00:00,000,24.2,1009.51,13.70,7.00,23.8,0.01,24.5,0.0,96,29.41
48520,SAWI AGROMET.,สวี สกษ.,ชุมพร,10.33333,99.10000,1009.50,08-23-2019,07:00:00,000,24.5,1007.96,2.60,8.00,23.5,0.00,24.5,0.0,94,28.89
48532,RANONG,ระนอง,ระนอง,9.98333,98.61667,1011.05,08-23-2019,07:00:00,000,24.4,1010.12,8.60,1.00,23.6,0.00,24.8,0.0,93,29.16
48550,KO SAMUI,เกาะสมุย,สุราษฎร์ธานี,9.46667,100.05000,1010.48,08-23-2019,07:00:00,000,26.0,1009.79,0.00,13.00,23.8,0.00,27.1,0.0,82,29.39
48551,SURAT THANI,สุราษฎร์ธานี,สุราษฎร์ธานี,9.13556,99.15194,1011.23,08-23-2019,07:00:00,000,24.0,1010.42,0.00,8.00,23.8,0.00,24.5,0.0,96,29.41
48552,NAKHONSI THAMMARAT,นครศรีธรรมราช,นครศรีธรรมราช,8.53778,99.96389,1010.44,08-23-2019,07:00:00,180,25.3,1009.80,0.00,10.00,24.6,0.00,26.0,5.6,92,30.84
48554,NAKHONSI THAMMARAT AGROMET.,นครศรีธรรมราช สกษ.,นครศรีธรรมราช,8.35931,100.00000,1010.63,08-23-2019,07:00:00,000,24.6,1010.22,0.00,10.00,24.2,0.00,25.5,0.0,93,30.17
48555,SURAT THANI AGROMET.,สุราษฎร์ธานี สกษ.,สุราษฎร์ธานี,9.10000,99.63333,1012.68,08-23-2019,07:00:00,000,24.0,1008.42,0.00,6.00,23.5,0.00,25.0,0.0,92,29.00
48556,PHRA SANG,พระแสง สอท.,สุราษฎร์ธานี,8.57022,99.25825,1011.88,08-23-2019,07:00:00,000,24.0,1010.25,1.20,12.00,24.2,0.00,24.5,0.0,98,30.20
48557,CHAWANG,ฉวาง,นครศรีธรรมราช,8.43194,99.51194,1010.66,08-23-2019,07:00:00,000,24.3,1007.14,0.50,7.00,24.1,0.00,24.5,0.0,97,29.93
48560,PHATTHALUNG AGROMET.,พัทลุง สกษ.,พัทลุง,7.58333,100.16667,1010.93,08-23-2019,07:00:00,000,25.0,1009.57,0.00,9.00,24.0,0.00,25.3,0.0,92,29.80
48561,TAKUA PA,ตะกั่วป่า,พังงา,8.68417,98.25222,1010.35,08-23-2019,07:00:00,000,23.8,1009.45,21.10,10.00,24.2,0.00,24.5,0.0,98,30.20
48563,KRABI,กระบี่,กระบี่,8.10361,98.97528,1010.74,08-23-2019,07:00:00,000,23.0,1007.13,8.00,10.00,23.5,0.00,24.1,0.0,97,28.96
48564,PHUKET,ภูเก็ต,ภูเก็ต,7.88333,98.40000,1010.63,08-23-2019,07:00:00,000,25.0,1010.19,23.40,10.00,24.8,0.00,25.5,0.0,96,31.25
48565,PHUKET AIRPORT,ภูเก็ต (ศูนย์ฯ),ภูเก็ต,8.14500,98.31444,1010.37,08-23-2019,07:00:00,000,22.6,1009.37,9.20,9.00,24.4,0.00,24.8,0.0,97,30.48
48566,KO LANTA,เกาะลันตา,กระบี่,7.53333,99.05000,1010.63,08-23-2019,07:00:00,000,24.3,1009.81,42.00,10.00,23.7,0.00,24.6,0.0,95,29.33
48567,TRANG AIRPORT,ตรัง,ตรัง,7.51667,99.61667,1011.20,08-23-2019,07:00:00,000,24.2,1009.37,0.20,10.00,23.8,0.00,24.5,0.0,96,29.41
48568,SONGKHLA,สงขลา,สงขลา,7.18211,100.60769,1011.19,08-23-2019,07:00:00,230,25.7,1010.43,1.10,11.00,23.5,0.00,27.0,1.9,81,28.94
48569,HAT YAI AIRPORT,หาดใหญ่,สงขลา,6.91667,100.43333,1011.61,08-23-2019,07:00:00,000,22.7,1007.56,0.00,10.00,23.8,0.00,24.8,0.0,94,29.42
48570,SATUN,สตูล,สตูล,6.65000,100.08333,1011.43,08-23-2019,07:00:00,000,23.9,1010.74,0.50,10.00,23.7,0.00,24.7,0.0,94,29.25
48571,KHO HONG AGROMET.,คอหงษ์ สกษ.,สงขลา,7.00000,100.50000,1011.05,08-23-2019,07:00:00,000,22.0,1009.92,0.20,10.00,23.8,0.00,25.0,0.0,93,29.52
48574,SA DAO,สะเดา,สงขลา,6.79806,100.39056,1011.57,08-23-2019,07:00:00,000,22.3,1008.61,0.10,10.00,23.9,0.00,24.2,0.0,98,29.66
48580,PATTANI AIRPORT,ปัตตานี,ปัตตานี,6.78333,101.15000,1011.02,08-23-2019,07:00:00,000,24.8,1010.33,0.00,11.00,23.5,0.00,25.0,0.0,92,29.00
48581,YALA AGROMET.,ยะลา สกษ.,ยะลา,6.51667,101.28333,1011.94,08-23-2019,07:00:00,000,23.4,1007.76,0.20,9.00,23.0,0.00,24.0,0.0,94,28.01
48583,NARATHIWAT,นราธิวาส,นราธิวาส,6.41667,101.81667,1011.73,08-23-2019,07:00:00,000,.0,1011.13,0.00,9.00,23.2,0.00,25.0,0.0,90,28.48
