WmoStationNumber,StationNameEnglish,StationNameThai,Province,Latitude,Longitude,StationPressure,Date,Time,RelativeHumidity,WindSpeed,DewPoint,MeanSeaLevelPressure,MinimumTemperature,VaporPressure,Rainfall,WindDirection,LandVisibility,Rainfall24Hr,AirTemperature
48300,MAE HONG SON,แม่ฮ่องสอน,แม่ฮ่องสอน,19.29897,97.97578,974.62,08-22-2019,07:00:00,95,0.0,24.2,1005.59,23.3,30.23,0.00,000,6.00,7.90,25.1
48302,DOI ANG KANG,ดอยอ่างขาง,เชียงใหม่,19.93139,99.04833,842.84,08-22-2019,07:00:00,99,5.6,18.2,1003.78,17.9,20.93,0.00,140,8.00,1.20,18.4
48303,CHIANG RAI,เชียงราย,เชียงราย,19.96139,99.88139,962.50,08-22-2019,07:00:00,93,3.7,23.4,1006.23,24.3,28.81,7.30,220,1.50,14.40,24.6
48304,CHAING RAI AGROMET.,เชียงราย สกษ.,เชียงราย,19.87083,99.78278,960.16,08-22-2019,07:00:00,95,0.0,23.9,1005.75,23.3,29.69,0.01,000,7.00,0.40,24.8
48307,THUNG CHANG,ทุ่งช้าง,น่าน,19.41194,100.88353,969.62,08-22-2019,07:00:00,100,0.0,23.8,1007.50,22.8,29.46,1.70,000,10.00,11.10,23.8
48310,PHAYAO,พะเยา,พะเยา,19.13333,99.90000,961.37,08-22-2019,07:00:00,91,5.6,23.4,1006.51,23.5,28.74,0.01,150,6.00,0.70,25.0
48315,THA WANGPHA,ท่าวังผา,น่าน,19.11056,100.80250,980.35,08-22-2019,07:00:00,96,0.0,23.8,1007.22,24.2,29.41,0.00,000,9.00,15.90,24.5
48324,THOEN,เถิน,ลำปาง,17.63661,99.24475,984.87,08-22-2019,07:00:00,92,0.0,23.8,1006.69,25.2,29.54,0.00,000,15.00,0.00,25.3
48325,MAE SARIANG,แม่สะเรียง,แม่ฮ่องสอน,18.16667,97.93333,982.34,08-22-2019,07:00:00,96,0.0,24.8,1006.49,23.0,31.25,0.20,000,6.00,1.00,25.5
48327,CHIANG MAI,เชียงใหม่,เชียงใหม่,18.79000,98.97694,971.89,08-22-2019,07:00:00,92,0.0,23.6,1006.49,25.0,29.18,0.01,000,9.00,3.10,25.1
48328,LAMPANG,ลำปาง,ลำปาง,18.28333,99.51667,980.05,08-22-2019,07:00:00,98,0.0,24.5,1007.73,24.4,30.75,0.00,000,10.00,51.80,24.8
48329,LAMPHUN,ลำพูน,ลำพูน,18.56722,99.03389,972.45,08-22-2019,07:00:00,97,0.0,24.9,1006.07,25.1,31.41,0.00,000,10.00,2.80,25.3
48330,PHRAE,แพร่,แพร่,18.16667,100.16667,988.16,08-22-2019,07:00:00,96,0.0,24.3,1006.75,24.4,30.32,0.20,000,7.00,13.80,25.0
48331,NAN,น่าน,น่าน,18.77972,100.77778,984.17,08-22-2019,07:00:00,97,0.0,24.1,1007.13,24.0,30.03,0.30,000,10.00,53.40,24.7
48333,NAN AGROMET.,น่าน สกษ.,น่าน,18.86667,100.75000,976.98,08-22-2019,07:00:00,92,0.0,23.2,1007.04,24.0,28.37,0.70,000,6.00,20.10,24.5
48334,LAMPANG AGROMET.,ลำปาง สกษ.,ลำปาง,18.31667,99.28333,970.83,08-22-2019,07:00:00,96,0.0,23.8,1006.51,24.0,29.41,0.10,000,6.00,0.90,24.5
48350,LOEI AGROMET.,เลย สกษ.,เลย,17.40000,101.73333,977.12,08-22-2019,07:00:00,99,0.0,24.0,1007.04,24.1,29.92,0.00,000,6.00,24.20,24.2
48351,UTTARADIT,อุตรดิตถ์,อุตรดิตถ์,17.61667,100.10000,999.76,08-22-2019,07:00:00,93,0.0,24.2,1007.10,25.0,30.25,0.01,000,7.00,11.80,25.4
48352,NONG KHAI,หนองคาย,หนองคาย,17.86717,102.73303,986.87,08-22-2019,07:00:00,97,0.0,25.2,1006.83,25.5,32.09,3.20,000,4.00,5.80,25.8
48353,LOEI,เลย,เลย,17.45000,101.73333,978.40,08-22-2019,07:00:00,95,0.0,24.1,1007.21,24.6,30.05,0.00,000,10.00,13.70,25.0
48354,UDON THANI,อุดรธานี,อุดรธานี,17.38333,102.80000,986.56,08-22-2019,07:00:00,95,3.7,24.7,1006.81,25.2,31.17,0.10,120,8.00,28.60,25.6
48355,SAKON NAKHON AGROMET.,สกลนคร สกษ.,สกลนคร,17.12503,104.06100,985.39,08-22-2019,07:00:00,93,3.7,23.8,1007.25,24.0,29.52,0.90,180,10.00,5.00,25.0
48356,SAKON NAKHON,สกลนคร,สกลนคร,17.15000,104.13333,987.38,08-22-2019,07:00:00,96,5.6,24.3,1006.98,23.7,30.32,1.10,220,12.00,11.40,25.0
48357,NAKHON PHANOM,นครพนม,นครพนม,17.41083,104.78250,991.10,08-22-2019,07:00:00,95,0.0,23.5,1007.99,23.9,28.97,1.40,000,8.00,25.50,24.4
48358,NAKHON PHANOM AGROMET.,นครพนม สกษ.,นครพนม,17.44306,104.77361,990.49,08-22-2019,07:00:00,97,0.0,24.0,1008.04,22.4,29.85,2.30,000,8.00,13.20,24.6
48360,NONG BUA LAM PHU,หนองบัวลำภู,หนองบัวลำภู,17.23250,102.42944,980.42,08-22-2019,07:00:00,96,0.0,24.8,1006.28,25.0,31.25,0.01,000,10.00,0.80,25.5
48372,SUKHOTHAI*,สุโขทัย,สุโขทัย,17.10611,99.80000,1001.52,08-22-2019,07:00:00,98,0.0,25.7,1007.33,22.6,33.04,0.00,000,10.00,52.20,26.0
48373,SI SAMRONG AGROMET.,ศรีสำโรง สกษ.,สุโขทัย,17.16136,99.86167,1000.75,08-22-2019,07:00:00,100,0.0,25.7,1006.96,24.3,33.01,0.00,000,6.00,53.80,25.7
48374,LOM SAK,หล่มสัก,เพชรบูรณ์,16.77361,101.24944,991.89,08-22-2019,07:00:00,94,0.0,23.7,1008.47,24.0,29.25,0.00,000,10.00,2.60,24.7
48375,MAE SOT,แม่สอด,ตาก,16.65917,98.55083,983.61,08-22-2019,07:00:00,93,5.6,22.8,1006.13,23.4,27.76,0.80,140,10.00,1.60,24.0
48376,TAK,ตาก,ตาก,16.87833,99.14333,993.05,08-22-2019,07:00:00,96,0.0,24.4,1007.53,24.6,30.50,0.00,000,5.00,17.60,25.1
48377,BHUMIBOL DAM,เขื่อนภูมิพล,ตาก,17.24389,99.00250,990.35,08-22-2019,07:00:00,92,0.0,24.0,1006.81,25.2,29.91,0.01,000,7.00,3.00,25.5
48378,PHITSANULOK,พิษณุโลก,พิษณุโลก,16.79481,100.27930,1002.04,08-22-2019,07:00:00,93,3.7,24.7,1007.29,25.2,31.11,0.01,120,10.00,0.40,26.0
48379,PHETCHABUN,เพชรบูรณ์,เพชรบูรณ์,16.43333,101.15000,992.42,08-22-2019,07:00:00,96,0.0,23.8,1005.71,24.3,29.41,0.00,000,10.00,15.00,24.5
48380,KAMPHAENG PHET,กำแพงเพชร,กำแพงเพชร,16.48681,99.52697,997.45,08-22-2019,07:00:00,97,0.0,25.1,1006.81,25.1,31.90,0.00,000,10.00,6.50,25.7
48381,KHON KAEN,ขอนแก่น,ขอนแก่น,16.46111,102.78972,985.73,08-22-2019,07:00:00,85,7.4,23.1,1007.50,25.6,28.26,0.00,190,9.00,0.00,25.9
48382,MAHASARAKHAM,มหาสารคาม,มหาสารคาม,16.24722,103.06805,990.27,08-22-2019,07:00:00,92,0.0,24.6,1007.84,25.0,30.84,0.00,000,10.00,15.20,26.0
48383,MUKDAHAN,มุกดาหาร,มุกดาหาร,16.54139,104.72889,991.21,08-22-2019,07:00:00,96,3.7,24.8,1007.12,24.0,31.25,0.50,220,10.00,9.30,25.5
48384,THA PHRA AGROMET.,ท่าพระ สกษ.,ขอนแก่น,16.33333,102.81667,987.69,08-22-2019,07:00:00,82,7.4,23.0,1006.60,25.8,28.11,0.00,180,10.00,0.00,26.4
48385,UMPHANG,อุ้มผาง,ตาก,16.02472,98.86444,957.34,08-22-2019,07:00:00,95,0.0,21.4,1009.26,21.7,25.53,1.90,000,6.00,7.10,22.2
48386,PICHIT AGROMET.,พิจิตร สกษ.,พิจิตร,16.43806,100.29250,1002.82,08-22-2019,07:00:00,94,14.8,24.8,1006.79,25.3,31.27,0.00,110,6.00,0.00,25.8
48387,DOI MU SOE AGROMET.,ดอยมูเซอร์ สกษ.,ตาก,16.75000,98.93333,912.38,08-22-2019,07:00:00,96,7.4,19.8,1007.89,19.9,23.03,0.40,230,1.50,19.80,20.4
48390,KALASIN,กาฬสินธุ์,กาฬสินธุ์,16.33250,103.58833,991.63,08-22-2019,07:00:00,98,0.0,25.3,1007.70,24.8,32.26,0.10,000,7.00,5.60,25.6
48400,NAKHON SAWAN,นครสวรรค์ ,นครสวรรค์,15.67183,100.13236,1002.76,08-22-2019,07:00:00,93,0.0,24.8,1006.81,25.6,31.38,0.00,000,10.00,0.00,26.0
48401,TAKFA AGROMET.,ตากฟ้า สกษ.,นครสวรรค์,15.34944,100.53028,997.90,08-22-2019,07:00:00,92,0.0,24.1,1008.64,24.7,29.99,0.00,000,9.00,0.60,25.4
48402,CHAINAT AGROMET.,ชัยนาท สกษ.,ชัยนาท,15.15000,100.18333,1005.69,08-22-2019,07:00:00,92,9.3,24.0,1007.63,25.0,29.91,0.00,180,9.00,3.30,25.5
48403,CHAIYAPHUM,ชัยภูมิ,ชัยภูมิ,15.80000,102.03333,986.67,08-22-2019,07:00:00,89,0.0,23.5,1007.65,24.0,28.93,0.00,000,10.00,0.00,25.4
48404,ROI ET AGROMET.,ร้อยเอ็ด สกษ.,ร้อยเอ็ด,16.07322,103.60844,990.29,08-22-2019,07:00:00,97,11.1,24.8,1008.06,24.2,31.33,0.00,210,10.00,64.30,25.4
48405,ROI ET,ร้อยเอ็ด,ร้อยเอ็ด,16.02000,103.74389,991.31,08-22-2019,07:00:00,97,0.0,25.0,1007.55,24.8,31.71,0.01,000,10.00,41.00,25.6
48407,UBON RATCHATHANI,อุบลราชธานี (ศูนย์ฯ),อุบลราชธานี,15.25000,104.86667,994.65,08-22-2019,07:00:00,92,0.0,23.9,1008.78,24.8,29.72,0.00,000,10.00,22.10,25.4
48408,UBON RATCHATHANI AGROMET.,อุบลราชธานี สกษ.,อุบลราชธานี,15.23914,105.02350,994.86,08-22-2019,07:00:00,94,0.0,24.0,1009.82,24.5,29.79,0.00,000,9.00,4.60,25.0
48409,SI SAKET AGROMET.,ศรีสะเกษ,ศรีสะเกษ,15.00000,104.05000,994.77,08-22-2019,07:00:00,91,0.0,24.7,1009.51,25.5,31.13,0.00,000,7.00,0.00,26.3
48410,UTHAITHANI,อุทัยธานี,อุทัยธานี,15.37417,100.03889,1003.76,08-22-2019,07:00:00,89,0.0,24.5,1006.79,25.2,30.78,0.00,"{'@attributes': {'Unit': 'degree'}, '0': '   '}",10.00,0.01,26.4
48413,WICHIAN BURI,วิเชียรบุรี,เพชรบูรณ์,15.65700,101.10800,999.61,08-22-2019,07:00:00,93,0.0,24.1,1007.61,24.6,30.07,0.00,000,8.00,0.00,25.3
48415,AYUTTHAYA,พระนครศรีอยุธยา,พระนครศรีอยุธยา,14.53472,100.72500,1006.31,08-22-2019,07:00:00,94,0.0,24.5,1007.42,24.5,30.71,0.60,000,7.00,16.80,25.5
48416,THA TUM,ท่าตูม,สุรินทร์,15.31667,103.68333,991.31,08-22-2019,07:00:00,86,5.6,25.2,1005.94,26.0,32.12,0.00,080,9.00,0.00,27.8
48417,NAKORNNAYOK,นครนายก,นครนายก,14.36222,101.39278,874.37,08-22-2019,07:00:00,99,7.4,18.7,1010.01,18.1,21.60,0.40,200,.05,1.80,18.9
48418,BUA CHUM,บัวชุม  ,ลพบุรี,15.26667,101.18736,1002.18,08-22-2019,07:00:00,96,0.0,24.3,1008.10,24.1,30.32,0.00,000,8.00,3.70,25.0
48419,PATHUMTHANI,ปทุมธานี สกษ.,ปทุมธานี,14.10000,100.61667,1007.17,08-22-2019,07:00:00,93,0.0,25.4,1007.97,25.5,32.35,0.00,000,9.00,2.90,26.5
48420,Samut Prakarn,สมุทรปราการ สกษ.,สมุทรปราการ,13.51667,100.76167,1007.30,08-22-2019,07:00:00,77,11.1,24.6,1007.74,28.5,30.85,0.00,210,10.00,0.00,29.0
48421,THONG PHAPHUM,ทองผาภูมิ,กาญจนบุรี,14.74222,98.63639,996.86,08-22-2019,07:00:00,96,0.0,23.8,1008.27,24.0,29.41,3.70,000,3.00,11.10,24.5
48425,SUPHAN BURI,สุพรรณบุรี,สุพรรณบุรี,14.47444,100.13889,1006.98,08-22-2019,07:00:00,92,0.0,25.0,1007.99,25.7,31.60,0.00,000,10.00,4.40,26.4
48426,LOP BURI,ลพบุรี,ลพบุรี,14.79972,100.64500,1005.93,08-22-2019,07:00:00,89,0.0,24.0,1007.76,25.5,29.84,0.00,000,7.00,1.90,25.9
48427,U THONG AGROMET.,อู่ทอง สกษ.,สุพรรณบุรี,14.30361,99.86472,1006.41,08-22-2019,07:00:00,92,0.0,23.6,1007.18,23.9,29.08,0.00,000,6.00,0.20,24.9
48429,SUVARNABHUMI AIRPORT,สนามบินสุวรรณภูมิ,สมุทรปราการ,13.68639,100.76750,1007.38,08-22-2019,07:00:00,75,11.1,23.7,1008.09,27.4,29.24,0.00,190,10.00,0.00,28.6
48430,PRACHIN BURI,ปราจีนบุรี,ปราจีนบุรี,14.05842,101.36930,1007.37,08-22-2019,07:00:00,97,0.0,26.4,1008.07,26.6,34.48,0.01,000,7.00,0.20,27.0
48431,NAKHON RATCHASIMA,นครราชสีมา,นครราชสีมา,14.96830,102.08603,987.02,08-22-2019,07:00:00,92,0.0,24.0,1008.30,25.0,29.91,0.70,000,8.00,0.80,25.5
48432,SURIN,สุรินทร์,สุรินทร์,14.88333,103.50000,991.43,08-22-2019,07:00:00,91,0.0,24.7,1008.21,25.0,31.13,0.00,000,7.00,0.00,26.3
48433,SURIN AGROMET.,สุรินทร์ สกษ.,สุรินทร์,14.88333,103.45000,992.16,08-22-2019,07:00:00,91,7.4,24.5,1008.67,24.8,30.76,0.00,210,9.00,0.00,26.1
48434,CHOK CHAI,โชคชัย,นครราชสีมา,14.71889,102.16861,986.32,08-22-2019,07:00:00,86,0.0,23.7,1008.26,25.7,29.33,0.00,000,10.00,0.00,26.2
48435,PAKCHONG AGROMET.,ปากช่อง สกษ.,นครราชสีมา,14.64389,101.33194,965.07,08-22-2019,07:00:00,91,3.7,22.0,1008.88,23.0,26.42,1.60,270,10.00,9.20,23.5
48436,NANG RONG,นางรอง,บุรีรัมย์,14.58333,102.80000,987.54,08-22-2019,07:00:00,84,3.7,23.6,1008.15,26.0,29.08,0.00,180,10.00,0.00,26.5
48437,BURIRUM,บุรีรัมย์,บุรีรัมย์,15.22575,103.24808,988.76,08-22-2019,07:00:00,97,11.1,25.3,1009.72,25.2,32.18,0.00,200,9.00,0.00,25.7
48438,SAMUTSONGKRAM,สมุทรสงคราม,สมุทรสงคราม,13.40778,100.03222,1007.02,08-22-2019,07:00:00,79,14.8,24.6,1007.46,27.5,30.90,0.00,210,10.00,0.70,28.6
48439,KABIN BURI,กบินทร์บุรี,ปราจีนบุรี,13.98333,101.70722,1006.90,08-22-2019,07:00:00,95,0.0,25.1,1008.32,25.5,31.93,0.00,000,8.00,0.00,26.0
48440,SA KAEW,สระแก้ว,สระแก้ว,13.78889,102.03472,1003.57,08-22-2019,07:00:00,96,0.0,25.5,1008.52,25.9,32.59,0.00,000,8.00,3.90,26.2
48450,KANCHANA BURI,กาญจนบุรี,กาญจนบุรี,14.02250,99.53583,1004.47,08-22-2019,07:00:00,86,0.0,23.7,1007.77,24.6,29.33,0.00,000,12.00,0.00,26.2
48451,NAKHONPATHOM,นครปฐม,นครปฐม,14.01167,99.97000,1006.86,08-22-2019,07:00:00,94,0.0,25.0,1007.97,25.4,31.65,0.00,000,10.00,0.20,26.0
48453,BANG NA AGROMET.,กรุงเทพฯ บางนา สกษ.,กรุงเทพมหานคร,13.66639,100.60611,1007.81,08-22-2019,07:00:00,80,3.7,24.4,1008.11,27.8,30.59,0.00,170,10.00,0.01,28.3
48454,BANGKOK PORT (KLONG TOEI),กรุงเทพฯ ท่าเรือคลองเตย,กรุงเทพมหานคร,13.70694,100.56805,1006.78,08-22-2019,07:00:00,80,5.6,24.9,1007.46,28.2,31.46,0.00,210,10.00,0.00,28.6
48455,BANGKOK METROPOLIS,กรุงเทพมหานคร,กรุงเทพมหานคร,13.72639,100.56000,1007.74,08-22-2019,07:00:00,80,0.0,24.0,1008.23,27.5,29.90,0.00,000,10.00,0.00,27.8
48456,DON MUANG AIRPORT,สนามบินดอนเมือง,กรุงเทพมหานคร,13.91917,100.60500,1006.61,08-22-2019,07:00:00,89,5.6,25.3,1008.02,26.6,32.25,0.00,120,10.00,5.80,27.3
48457,PILOT STATION,นำร่อง,สมุทรปราการ,13.39389,100.59944,1006.41,08-22-2019,07:00:00,85,22.2,26.2,1008.08,28.5,33.99,0.00,210,10.00,0.00,29.0
48458,CHACHOENGSAO,ฉะเชิงเทรา,ฉะเชิงเทรา,13.51556,101.45833,1002.14,08-22-2019,07:00:00,98,3.7,24.9,1010.22,24.7,31.49,0.00,180,10.00,0.00,25.2
48459,CHON BURI,ชลบุรี,ชลบุรี,13.36667,100.98333,1007.94,08-22-2019,07:00:00,81,5.6,24.6,1008.23,27.3,30.95,0.00,160,10.00,0.00,28.2
48460,KO SICHANG,เกาะสีชัง,ชลบุรี,13.16167,100.80194,1005.10,08-22-2019,07:00:00,83,0.0,25.1,1008.22,27.8,31.79,0.00,000,10.00,0.00,28.2
48461,PHATTHAYA,พัทยา,ชลบุรี,12.92000,100.86944,1001.34,08-22-2019,07:00:00,82,0.0,24.4,1008.27,27.1,30.53,0.00,000,10.00,0.00,27.7
48462,ARANYA PRATHET,อรัญประเทศ,สระแก้ว,13.70000,102.58333,1003.12,08-22-2019,07:00:00,90,0.0,25.3,1008.72,25.7,32.21,0.00,000,8.00,0.00,27.0
48463,LAEM CHABANG,แหลมฉบัง,ชลบุรี,13.07694,100.87583,998.79,08-22-2019,07:00:00,81,0.0,24.4,1008.08,27.5,30.56,0.00,000,10.00,0.00,28.0
48464,RATCHA BURI,ราชบุรี,ราชบุรี,13.48931,99.79239,1007.54,08-22-2019,07:00:00,96,3.7,24.8,1008.81,25.0,31.25,0.00,180,12.00,3.30,25.5
48465,PHETCHA BURI,เพชรบุรี,เพชรบุรี,12.99944,100.06056,1007.68,08-22-2019,07:00:00,77,13.0,23.7,1008.11,26.7,29.38,0.00,240,11.00,0.70,28.1
48474,NONG PHLUB AGROMET.,หนองพลับ สกษ.,ประจวบคีรีขันธ์,12.58333,99.73333,995.88,08-22-2019,07:00:00,91,0.0,23.5,1008.23,24.7,28.92,0.00,000,10.00,0.00,25.1
48475,HUA HIN,หัวหิน,ประจวบคีรีขันธ์,12.58611,99.96250,1007.50,08-22-2019,07:00:00,83,7.4,23.8,1008.21,26.2,29.48,0.00,210,10.00,5.50,27.0
48477,SATTAHIP,สัตหีบ,ชลบุรี,12.68333,100.98333,1005.97,08-22-2019,07:00:00,77,7.4,23.9,1008.40,27.0,29.57,0.00,210,10.00,2.00,28.2
48478,RAYONG,ระยอง,ระยอง,12.63222,101.34361,1008.15,08-22-2019,07:00:00,78,14.8,24.9,1008.66,28.4,31.41,0.00,250,10.00,0.00,29.0
48479,HUAI PONG AGROMET.,ห้วยโป่ง สกษ.,ระยอง,12.73333,101.13333,1003.37,08-22-2019,07:00:00,79,1.9,23.6,1008.52,26.1,29.17,0.00,170,10.00,7.40,27.7
48480,CHANTHA BURI,จันทบุรี,จันทบุรี,12.61667,102.11333,1008.78,08-22-2019,07:00:00,88,0.0,25.4,1009.19,26.7,32.36,0.00,000,7.00,3.50,27.5
48481,PHLIU  AGROMET.,พลิ้ว สกษ.,จันทบุรี,12.50861,102.17305,1006.53,08-22-2019,07:00:00,96,0.0,25.8,1009.31,26.0,33.19,0.00,000,8.00,9.10,26.5
48500,PRACHUAP KHIRIKHAN,ประจวบคีรีขันธ์,ประจวบคีรีขันธ์,11.83333,99.83333,1008.31,08-22-2019,07:00:00,84,7.4,23.4,1009.10,25.2,28.72,0.00,180,10.00,1.00,26.3
48501,TRAD,ตราด,ตราด,11.76667,102.88333,1009.48,08-22-2019,07:00:00,93,3.7,25.0,1009.94,25.5,31.76,0.01,120,7.00,20.50,26.2
48517,CHUMPHON,ชุมพร,ชุมพร,10.49875,99.18847,1010.34,08-22-2019,07:00:00,95,7.4,23.5,1011.03,24.1,28.97,22.00,280,4.00,24.40,24.4
48520,SAWI AGROMET.,สวี สกษ.,ชุมพร,10.33333,99.10000,1008.09,08-22-2019,07:00:00,93,0.0,23.1,1009.64,24.3,28.28,0.00,000,8.00,0.40,24.3
48532,RANONG,ระนอง,ระนอง,9.98333,98.61667,1009.77,08-22-2019,07:00:00,91,5.6,23.5,1010.69,24.1,28.92,0.00,210,10.00,37.30,25.1
48550,KO SAMUI,เกาะสมุย,สุราษฎร์ธานี,9.46667,100.05000,1009.67,08-22-2019,07:00:00,81,0.0,23.7,1010.35,25.7,29.23,0.00,000,10.00,0.70,27.3
48551,SURAT THANI,สุราษฎร์ธานี,สุราษฎร์ธานี,9.13556,99.15194,1010.02,08-22-2019,07:00:00,97,0.0,24.2,1010.83,24.5,30.22,0.00,000,8.00,0.00,24.8
48552,NAKHONSI THAMMARAT,นครศรีธรรมราช,นครศรีธรรมราช,8.53778,99.96389,1010.00,08-22-2019,07:00:00,95,0.0,24.3,1010.64,24.2,30.42,0.20,000,8.00,35.20,25.2
48554,NAKHONSI THAMMARAT AGROMET.,นครศรีธรรมราช สกษ.,นครศรีธรรมราช,8.35931,100.00000,1010.48,08-22-2019,07:00:00,88,0.0,23.1,1010.88,24.5,28.31,0.00,000,10.00,8.00,25.2
48555,SURAT THANI AGROMET.,สุราษฎร์ธานี สกษ.,สุราษฎร์ธานี,9.10000,99.63333,1007.93,08-22-2019,07:00:00,80,0.0,22.3,1012.18,25.0,26.88,0.00,000,6.00,0.00,26.0
48556,PHRA SANG,พระแสง สอท.,สุราษฎร์ธานี,8.57022,99.25825,1009.53,08-22-2019,07:00:00,98,0.0,23.7,1011.17,23.7,29.30,0.01,000,9.00,4.60,24.0
48557,CHAWANG,ฉวาง,นครศรีธรรมราช,8.43194,99.51194,1007.62,08-22-2019,07:00:00,96,0.0,23.5,1011.14,23.9,28.88,0.70,000,7.00,15.50,24.2
48560,PHATTHALUNG AGROMET.,พัทลุง สกษ.,พัทลุง,7.58333,100.16667,1009.97,08-22-2019,07:00:00,88,0.0,23.5,1011.34,25.6,29.03,0.00,000,9.00,0.00,25.6
48561,TAKUA PA,ตะกั่วป่า,พังงา,8.68417,98.25222,1009.44,08-22-2019,07:00:00,99,0.0,23.6,1010.34,23.7,29.20,8.00,000,9.00,54.00,23.8
48563,KRABI,กระบี่,กระบี่,8.10361,98.97528,1007.43,08-22-2019,07:00:00,96,0.0,23.3,1011.04,23.1,28.53,0.00,000,10.00,3.90,24.0
48564,PHUKET,ภูเก็ต,ภูเก็ต,7.88333,98.40000,1010.05,08-22-2019,07:00:00,95,0.0,25.0,1010.49,24.8,31.74,0.20,000,10.00,26.40,25.9
48565,PHUKET AIRPORT,ภูเก็ต (ศูนย์ฯ),ภูเก็ต,8.14500,98.31444,1008.94,08-22-2019,07:00:00,93,0.0,24.7,1009.94,23.5,31.19,0.00,000,8.00,20.70,25.9
48566,KO LANTA,เกาะลันตา,กระบี่,7.53333,99.05000,1009.93,08-22-2019,07:00:00,86,9.3,24.5,1010.75,.0,30.75,0.00,240,10.00,3.40,27.1
48567,TRANG AIRPORT,ตรัง,ตรัง,7.51667,99.61667,1009.51,08-22-2019,07:00:00,98,9.3,23.9,1011.35,24.0,29.66,2.50,160,3.00,11.80,24.2
48568,SONGKHLA,สงขลา,สงขลา,7.18211,100.60769,1010.98,08-22-2019,07:00:00,88,9.3,22.8,1011.74,24.2,27.70,2.20,260,10.00,4.30,25.0
48569,HAT YAI AIRPORT,หาดใหญ่,สงขลา,6.91667,100.43333,1007.94,08-22-2019,07:00:00,90,3.7,22.7,1011.99,23.9,27.60,0.60,300,10.00,0.60,24.5
48570,SATUN,สตูล,สตูล,6.65000,100.08333,1012.39,08-22-2019,07:00:00,96,0.0,23.3,1013.08,22.7,28.53,10.20,000,10.00,40.00,24.0
48571,KHO HONG AGROMET.,คอหงษ์ สกษ.,สงขลา,7.00000,100.50000,1010.73,08-22-2019,07:00:00,95,9.3,23.4,1011.86,23.9,28.79,2.80,330,8.00,3.20,24.3
48574,SA DAO,สะเดา,สงขลา,6.79806,100.39056,1008.98,08-22-2019,07:00:00,97,0.0,23.5,1011.94,22.7,28.96,1.20,000,10.00,9.10,24.1
48580,PATTANI AIRPORT,ปัตตานี,ปัตตานี,6.78333,101.15000,1010.55,08-22-2019,07:00:00,92,0.0,24.0,1011.25,24.6,29.80,0.00,000,10.00,3.70,25.3
48581,YALA AGROMET.,ยะลา สกษ.,ยะลา,6.51667,101.28333,1008.52,08-22-2019,07:00:00,91,5.6,22.7,1012.70,23.5,27.60,0.01,220,7.00,0.20,24.2
48583,NARATHIWAT,นราธิวาส,นราธิวาส,6.41667,101.81667,1010.83,08-22-2019,07:00:00,91,0.0,22.0,1011.43,.0,26.42,0.00,000,9.00,30.70,23.5
