WmoStationNumber,StationNameEnglish,StationNameThai,Province,Latitude,Longitude,Date,Time,VaporPressure,RelativeHumidity,Rainfall,DewPoint,MeanSeaLevelPressure,WindDirection,LandVisibility,AirTemperature,Rainfall24Hr,StationPressure,WindSpeed
48300,MAE HONG SON,แม่ฮ่องสอน,แม่ฮ่องสอน,19.29897,97.97578,08-29-2019,13:00:00,32.06,69,0.00,25.2,1004.10,000,15.00,31.7,1.10,973.84,0.0
48302,DOI ANG KANG,ดอยอ่างขาง,เชียงใหม่,19.93139,99.04833,08-29-2019,13:00:00,23.56,89,0.00,20.1,1003.26,120,8.00,22.0,2.40,844.16,9.3
48303,CHIANG RAI,เชียงราย,เชียงราย,19.96139,99.88139,08-29-2019,13:00:00,30.49,61,0.00,24.4,1003.60,000,12.00,32.9,0.00,961.13,0.0
48304,CHAING RAI AGROMET.,เชียงราย สกษ.,เชียงราย,19.87083,99.78278,08-29-2019,13:00:00,33.12,69,0.00,25.8,1003.76,000,15.00,32.2,0.40,959.34,0.0
48307,THUNG CHANG,ทุ่งช้าง,น่าน,19.41194,100.88353,08-29-2019,13:00:00,33.96,68,0.00,26.2,1003.18,340,12.00,33.0,2.20,966.57,9.3
48310,PHAYAO,พะเยา,พะเยา,19.13333,99.90000,08-29-2019,13:00:00,20.35,44,0.00,17.8,1004.31,000,12.00,31.5,7.30,960.20,0.0
48315,THA WANGPHA,ท่าวังผา,น่าน,19.11056,100.80250,08-29-2019,13:00:00,35.19,70,0.00,26.8,1003.97,090,12.00,33.0,0.90,977.92,5.6
48324,THOEN,เถิน,ลำปาง,17.63661,99.24475,08-29-2019,13:00:00,31.93,69,0.00,25.1,1004.03,300,15.00,31.5,0.00,982.71,1.9
48325,MAE SARIANG,แม่สะเรียง,แม่ฮ่องสอน,18.16667,97.93333,08-29-2019,13:00:00,29.07,63,0.00,23.6,1005.37,000,10.00,31.5,0.00,981.71,0.0
48326,MAE JO AGROMET.,แม่โจ้ สกษ.,เชียงใหม่,18.78333,98.98333,08-29-2019,13:00:00,10.71,100,0.00,8.0,919.15,000,8.00,8.0,0.00,885.70,0.0
48327,CHIANG MAI,เชียงใหม่,เชียงใหม่,18.79000,98.97694,08-29-2019,13:00:00,30.28,61,0.00,24.2,1004.14,350,10.00,32.8,0.01,970.48,3.7
48328,LAMPANG,ลำปาง,ลำปาง,18.28333,99.51667,08-29-2019,13:00:00,31.57,63,0.00,24.9,1004.33,000,10.00,33.0,0.50,977.47,0.0
48329,LAMPHUN,ลำพูน,ลำพูน,18.56722,99.03389,08-29-2019,13:00:00,28.99,62,0.00,23.5,1004.41,020,12.00,31.6,0.00,971.53,9.3
48330,PHRAE,แพร่,แพร่,18.16667,100.16667,08-29-2019,13:00:00,33.66,67,0.00,26.0,1003.61,000,12.00,33.0,0.90,985.56,0.0
48331,NAN,น่าน,น่าน,18.77972,100.77778,08-29-2019,13:00:00,35.21,72,0.00,26.8,1003.48,000,10.00,32.6,2.30,981.19,0.0
48333,NAN AGROMET.,น่าน สกษ.,น่าน,18.86667,100.75000,08-29-2019,13:00:00,34.68,71,0.00,26.5,1003.67,240,12.00,32.5,0.00,974.47,5.6
48334,LAMPANG AGROMET.,ลำปาง สกษ.,ลำปาง,18.31667,99.28333,08-29-2019,13:00:00,31.68,67,0.00,25.0,1003.76,000,7.00,31.8,2.00,969.02,0.0
48350,LOEI AGROMET.,เลย สกษ.,เลย,17.40000,101.73333,08-29-2019,13:00:00,36.36,74,0.00,27.3,1002.54,050,16.00,32.7,0.00,973.57,3.7
48351,UTTARADIT,อุตรดิตถ์,อุตรดิตถ์,17.61667,100.10000,08-29-2019,13:00:00,33.25,64,0.00,25.8,1004.33,000,11.00,33.5,0.00,997.20,0.0
48352,NONG KHAI,หนองคาย,หนองคาย,17.86717,102.73303,08-29-2019,13:00:00,36.22,74,0.00,27.3,1002.48,320,15.00,32.5,0.00,983.04,7.4
48353,LOEI,เลย,เลย,17.45000,101.73333,08-29-2019,13:00:00,27.02,56,0.00,22.4,1002.91,310,15.00,32.3,0.00,974.90,9.3
48354,UDON THANI,อุดรธานี,อุดรธานี,17.38333,102.80000,08-29-2019,13:00:00,32.01,70,0.00,25.2,1003.19,300,13.00,31.4,0.00,983.40,5.6
48355,SAKON NAKHON AGROMET.,สกลนคร สกษ.,สกลนคร,17.12503,104.06100,08-29-2019,13:00:00,32.38,80,0.00,25.4,1003.00,230,12.00,29.2,0.40,981.53,3.7
48356,SAKON NAKHON,สกลนคร,สกลนคร,17.15000,104.13333,08-29-2019,13:00:00,33.99,85,0.00,26.2,1001.90,280,15.00,29.0,0.00,982.65,5.6
48357,NAKHON PHANOM,นครพนม,นครพนม,17.41083,104.78250,08-29-2019,13:00:00,34.11,91,0.50,26.2,1002.36,000,7.00,27.8,0.50,985.75,0.0
48358,NAKHON PHANOM AGROMET.,นครพนม สกษ.,นครพนม,17.44306,104.77361,08-29-2019,13:00:00,34.81,92,1.00,26.6,1002.57,000,8.00,28.0,1.00,985.30,0.0
48360,NONG BUA LAM PHU,หนองบัวลำภู,หนองบัวลำภู,17.23250,102.42944,08-29-2019,13:00:00,29.48,66,0.00,23.8,1001.86,310,15.00,31.0,0.00,976.57,5.6
48372,SUKHOTHAI*,สุโขทัย,สุโขทัย,17.10611,99.80000,08-29-2019,13:00:00,35.81,71,0.00,27.1,1003.49,300,10.00,33.0,0.00,997.84,5.6
48373,SI SAMRONG AGROMET.,ศรีสำโรง สกษ.,สุโขทัย,17.16136,99.86167,08-29-2019,13:00:00,35.74,72,0.00,27.0,1003.93,290,10.00,32.7,0.00,997.88,9.3
48374,LOM SAK,หล่มสัก,เพชรบูรณ์,16.77361,101.24944,08-29-2019,13:00:00,29.66,61,0.00,23.9,1004.44,000,10.00,32.5,0.60,988.34,0.0
48375,MAE SOT,แม่สอด,ตาก,16.65917,98.55083,08-29-2019,13:00:00,29.27,69,0.00,23.7,1003.92,000,10.00,29.9,1.20,981.88,0.0
48376,TAK,ตาก,ตาก,16.87833,99.14333,08-29-2019,13:00:00,28.68,57,0.00,23.3,1004.95,270,10.00,33.0,0.00,990.87,9.3
48377,BHUMIBOL DAM,เขื่อนภูมิพล,ตาก,17.24389,99.00250,08-29-2019,13:00:00,27.01,51,0.00,22.4,1003.97,120,8.00,34.0,0.00,988.01,9.3
48378,PHITSANULOK,พิษณุโลก,พิษณุโลก,16.79481,100.27930,08-29-2019,13:00:00,32.91,69,0.00,25.6,1003.68,300,10.00,32.1,0.00,998.55,9.3
48379,PHETCHABUN,เพชรบูรณ์,เพชรบูรณ์,16.43333,101.15000,08-29-2019,13:00:00,34.47,80,0.00,26.4,1002.38,000,12.00,30.2,0.00,989.39,0.0
48380,KAMPHAENG PHET,กำแพงเพชร,กำแพงเพชร,16.48681,99.52697,08-29-2019,13:00:00,29.58,58,0.00,23.9,1004.22,330,12.00,33.3,0.00,995.11,11.1
48381,KHON KAEN,ขอนแก่น,ขอนแก่น,16.46111,102.78972,08-29-2019,13:00:00,33.26,76,0.00,25.8,1003.33,360,10.00,30.6,2.60,981.99,3.7
48382,MAHASARAKHAM,มหาสารคาม,มหาสารคาม,16.24722,103.06805,08-29-2019,13:00:00,33.99,85,0.00,26.2,1003.49,230,10.00,29.0,76.90,986.16,11.1
48383,MUKDAHAN,มุกดาหาร,มุกดาหาร,16.54139,104.72889,08-29-2019,13:00:00,32.80,87,0.01,25.6,1001.79,240,12.00,28.0,0.01,986.10,3.7
48384,THA PHRA AGROMET.,ท่าพระ สกษ.,ขอนแก่น,16.33333,102.81667,08-29-2019,13:00:00,36.17,82,0.00,27.2,1002.93,000,10.00,30.7,1.50,984.35,0.0
48385,UMPHANG,อุ้มผาง,ตาก,16.02472,98.86444,08-29-2019,13:00:00,25.96,66,0.00,21.7,1005.59,000,11.00,28.7,0.00,954.94,0.0
48386,PICHIT AGROMET.,พิจิตร สกษ.,พิจิตร,16.43806,100.29250,08-29-2019,13:00:00,33.99,69,0.00,26.2,1003.64,280,9.00,32.6,0.00,999.76,5.6
48387,DOI MU SOE AGROMET.,ดอยมูเซอร์ สกษ.,ตาก,16.75000,98.93333,08-29-2019,13:00:00,24.78,83,0.00,20.9,1005.54,250,7.00,24.0,0.10,911.34,9.3
48390,KALASIN,กาฬสินธุ์,กาฬสินธุ์,16.33250,103.58833,08-29-2019,13:00:00,32.19,83,0.00,25.3,1003.34,230,8.00,28.4,43.90,987.49,9.3
48400,NAKHON SAWAN,นครสวรรค์ ,นครสวรรค์,15.67183,100.13236,08-29-2019,13:00:00,33.06,66,0.00,25.7,1004.59,000,10.00,33.0,0.00,1000.64,0.0
48401,TAKFA AGROMET.,ตากฟ้า สกษ.,นครสวรรค์,15.34944,100.53028,08-29-2019,13:00:00,32.30,76,0.00,25.3,1005.66,000,9.00,30.0,12.80,995.11,0.0
48402,CHAINAT AGROMET.,ชัยนาท สกษ.,ชัยนาท,15.15000,100.18333,08-29-2019,13:00:00,30.50,72,0.00,24.4,1004.94,000,12.00,30.1,83.30,1003.04,0.0
48403,CHAIYAPHUM,ชัยภูมิ,ชัยภูมิ,15.80000,102.03333,08-29-2019,13:00:00,32.46,77,0.40,25.4,1003.97,220,10.00,29.8,1.40,983.37,7.4
48404,ROI ET AGROMET.,ร้อยเอ็ด สกษ.,ร้อยเอ็ด,16.07322,103.60844,08-29-2019,13:00:00,31.75,85,0.00,25.0,1003.30,220,11.00,27.9,25.10,985.75,5.6
48405,ROI ET,ร้อยเอ็ด,ร้อยเอ็ด,16.02000,103.74389,08-29-2019,13:00:00,31.87,84,0.01,25.1,1002.96,200,10.00,28.1,13.10,986.93,7.4
48407,UBON RATCHATHANI,อุบลราชธานี (ศูนย์ฯ),อุบลราชธานี,15.25000,104.86667,08-29-2019,13:00:00,30.63,93,9.20,24.4,1003.20,290,10.00,25.6,36.00,989.15,7.4
48408,UBON RATCHATHANI AGROMET.,อุบลราชธานี สกษ.,อุบลราชธานี,15.23914,105.02350,08-29-2019,13:00:00,29.91,92,2.40,24.0,1003.01,000,6.00,25.5,60.00,988.17,0.0
48409,SI SAKET AGROMET.,ศรีสะเกษ,ศรีสะเกษ,15.00000,104.05000,08-29-2019,13:00:00,33.27,97,4.00,25.8,1004.10,310,6.00,26.4,13.40,989.44,11.1
48410,UTHAITHANI,อุทัยธานี,อุทัยธานี,15.37417,100.03889,08-29-2019,13:00:00,31.60,67,0.00,25.0,1004.63,"{'@attributes': {'Unit': 'degree'}, '0': '   '}",10.00,31.9,0.80,1001.66,0.0
48413,WICHIAN BURI,วิเชียรบุรี,เพชรบูรณ์,15.65700,101.10800,08-29-2019,13:00:00,33.88,79,0.00,26.1,1004.39,000,10.00,30.2,0.00,996.55,0.0
48415,AYUTTHAYA,พระนครศรีอยุธยา,พระนครศรีอยุธยา,14.53472,100.72500,08-29-2019,13:00:00,32.96,75,0.00,25.7,1005.74,320,8.00,30.6,2.10,1004.65,3.7
48416,THA TUM,ท่าตูม,สุรินทร์,15.31667,103.68333,08-29-2019,13:00:00,33.19,96,11.80,25.8,1004.21,000,5.00,26.5,29.50,989.54,0.0
48417,NAKORNNAYOK,นครนายก,นครนายก,14.36222,101.39278,08-29-2019,13:00:00,24.08,98,0.00,20.5,1005.33,250,.10,20.8,0.40,871.11,1.9
48418,BUA CHUM,บัวชุม  ,ลพบุรี,15.26667,101.18736,08-29-2019,13:00:00,34.95,88,0.20,26.7,1004.91,000,8.00,28.9,75.00,999.08,0.0
48419,PATHUMTHANI,ปทุมธานี สกษ.,ปทุมธานี,14.10000,100.61667,08-29-2019,13:00:00,30.49,61,0.00,24.4,1004.96,300,8.00,32.9,7.40,1004.17,11.1
48420,Samut Prakarn,สมุทรปราการ สกษ.,สมุทรปราการ,13.51667,100.76167,08-29-2019,13:00:00,31.76,71,0.00,25.0,1004.53,230,10.00,31.0,11.90,1004.09,20.4
48421,THONG PHAPHUM,ทองผาภูมิ,กาญจนบุรี,14.74222,98.63639,08-29-2019,13:00:00,30.54,70,0.00,24.4,1006.16,010,8.00,30.4,15.80,995.00,9.3
48425,SUPHAN BURI,สุพรรณบุรี,สุพรรณบุรี,14.47444,100.13889,08-29-2019,13:00:00,30.94,63,0.00,24.6,1004.73,320,12.00,32.7,2.10,1003.74,3.7
48426,LOP BURI,ลพบุรี,ลพบุรี,14.79972,100.64500,08-29-2019,13:00:00,32.01,79,0.00,25.2,1005.17,050,8.00,29.3,2.40,1003.37,3.7
48427,U THONG AGROMET.,อู่ทอง สกษ.,สุพรรณบุรี,14.30361,99.86472,08-29-2019,13:00:00,26.31,51,0.00,21.9,1004.39,000,9.00,33.5,0.70,1003.64,0.0
48429,SUVARNABHUMI AIRPORT,สนามบินสุวรรณภูมิ,สมุทรปราการ,13.68639,100.76750,08-29-2019,13:00:00,27.52,59,0.00,22.7,1004.76,310,10.00,31.7,0.00,1004.07,20.4
48430,PRACHIN BURI,ปราจีนบุรี,ปราจีนบุรี,14.05842,101.36930,08-29-2019,13:00:00,31.72,72,0.00,25.0,1004.61,270,7.00,30.7,33.00,1003.91,5.6
48431,NAKHON RATCHASIMA,นครราชสีมา,นครราชสีมา,14.96830,102.08603,08-29-2019,13:00:00,31.67,84,0.01,25.0,1005.02,300,10.00,28.0,6.00,983.98,5.6
48432,SURIN,สุรินทร์,สุรินทร์,14.88333,103.50000,08-29-2019,13:00:00,33.58,92,1.10,26.0,1004.42,320,7.00,27.4,14.60,987.77,3.7
48433,SURIN AGROMET.,สุรินทร์ สกษ.,สุรินทร์,14.88333,103.45000,08-29-2019,13:00:00,32.61,90,1.50,25.5,1005.14,000,5.00,27.2,13.30,988.75,0.0
48434,CHOK CHAI,โชคชัย,นครราชสีมา,14.71889,102.16861,08-29-2019,13:00:00,31.65,77,0.01,25.0,1004.46,300,10.00,29.4,3.60,982.84,11.1
48435,PAKCHONG AGROMET.,ปากช่อง สกษ.,นครราชสีมา,14.64389,101.33194,08-29-2019,13:00:00,29.72,85,0.00,23.9,1005.33,230,8.00,26.7,11.50,962.12,7.4
48436,NANG RONG,นางรอง,บุรีรัมย์,14.58333,102.80000,08-29-2019,13:00:00,31.95,85,0.60,25.1,1004.33,330,2.00,28.0,40.40,983.89,3.7
48437,BURIRUM,บุรีรัมย์,บุรีรัมย์,15.22575,103.24808,08-29-2019,13:00:00,33.40,100,1.40,25.9,1006.29,340,6.00,25.9,16.60,985.41,3.7
48438,SAMUTSONGKRAM,สมุทรสงคราม,สมุทรสงคราม,13.40778,100.03222,08-29-2019,13:00:00,29.39,63,0.00,23.8,1009.74,240,10.00,31.8,13.50,1009.31,5.6
48439,KABIN BURI,กบินทร์บุรี,ปราจีนบุรี,13.98333,101.70722,08-29-2019,13:00:00,32.42,79,0.00,25.4,1004.81,000,8.00,29.5,13.10,1003.41,0.0
48440,SA KAEW,สระแก้ว,สระแก้ว,13.78889,102.03472,08-29-2019,13:00:00,33.04,82,0.00,25.7,1004.45,000,8.00,29.1,6.50,999.56,0.0
48450,KANCHANA BURI,กาญจนบุรี,กาญจนบุรี,14.02250,99.53583,08-29-2019,13:00:00,27.97,57,0.00,22.9,1005.10,270,12.00,32.5,0.01,1001.87,9.3
48451,NAKHONPATHOM,นครปฐม,นครปฐม,14.01167,99.97000,08-29-2019,13:00:00,30.53,62,0.00,24.4,1005.05,280,10.00,32.5,0.01,1003.97,11.1
48453,BANG NA AGROMET.,กรุงเทพฯ บางนา สกษ.,กรุงเทพมหานคร,13.66639,100.60611,08-29-2019,13:00:00,28.53,58,0.00,23.3,1004.98,290,10.00,32.5,0.00,1004.69,16.7
48454,BANGKOK PORT (KLONG TOEI),กรุงเทพฯ ท่าเรือคลองเตย,กรุงเทพมหานคร,13.70694,100.56805,08-29-2019,13:00:00,28.52,56,0.00,23.3,1005.06,300,10.00,33.2,0.60,1004.39,7.4
48455,BANGKOK METROPOLIS,กรุงเทพมหานคร,กรุงเทพมหานคร,13.72639,100.56000,08-29-2019,13:00:00,30.08,66,0.00,24.1,1004.63,300,10.00,31.3,1.00,1004.15,11.1
48456,DON MUANG AIRPORT,สนามบินดอนเมือง,กรุงเทพมหานคร,13.91917,100.60500,08-29-2019,13:00:00,29.84,64,0.00,24.0,1004.77,310,10.00,31.6,0.80,1003.38,20.4
48457,PILOT STATION,นำร่อง,สมุทรปราการ,13.39389,100.59944,08-29-2019,13:00:00,36.05,85,0.00,27.2,1005.52,260,12.00,30.1,5.90,1003.87,13.0
48458,CHACHOENGSAO,ฉะเชิงเทรา,ฉะเชิงเทรา,13.51556,101.45833,08-29-2019,13:00:00,30.39,72,0.00,24.3,1006.07,230,10.00,29.9,12.00,998.15,11.1
48459,CHON BURI,ชลบุรี,ชลบุรี,13.36667,100.98333,08-29-2019,13:00:00,28.32,62,0.00,23.1,1004.92,270,10.00,31.4,8.60,1004.64,14.8
48460,KO SICHANG,เกาะสีชัง,ชลบุรี,13.16167,100.80194,08-29-2019,13:00:00,28.94,67,0.00,23.5,1004.89,130,10.00,30.3,21.30,1001.80,7.4
48461,PHATTHAYA,พัทยา,ชลบุรี,12.92000,100.86944,08-29-2019,13:00:00,30.31,71,0.00,24.3,1005.36,210,12.00,30.0,0.40,998.50,9.3
48462,ARANYA PRATHET,อรัญประเทศ,สระแก้ว,13.70000,102.58333,08-29-2019,13:00:00,31.40,75,0.00,24.9,1004.54,320,7.00,29.7,6.10,999.01,7.4
48463,LAEM CHABANG,แหลมฉบัง,ชลบุรี,13.07694,100.87583,08-29-2019,13:00:00,29.06,67,0.00,23.6,1006.14,310,10.00,30.5,5.20,996.94,14.8
48464,RATCHA BURI,ราชบุรี,ราชบุรี,13.48931,99.79239,08-29-2019,13:00:00,44.34,95,0.00,30.8,1005.96,270,14.00,31.7,21.70,1004.72,18.5
48465,PHETCHA BURI,เพชรบุรี,เพชรบุรี,12.99944,100.06056,08-29-2019,13:00:00,28.58,60,0.00,23.3,1005.15,280,11.00,32.1,1.60,1004.73,9.3
48474,NONG PHLUB AGROMET.,หนองพลับ สกษ.,ประจวบคีรีขันธ์,12.58333,99.73333,08-29-2019,13:00:00,29.11,68,0.00,23.6,1005.76,000,9.00,30.1,0.00,993.64,0.0
48475,HUA HIN,หัวหิน,ประจวบคีรีขันธ์,12.58611,99.96250,08-29-2019,13:00:00,29.43,64,0.00,23.8,1005.55,210,10.00,31.4,0.00,1004.85,11.1
48477,SATTAHIP,สัตหีบ,ชลบุรี,12.68333,100.98333,08-29-2019,13:00:00,28.89,59,0.00,23.5,1005.06,260,10.00,32.4,0.01,1002.68,14.8
48478,RAYONG,ระยอง,ระยอง,12.63222,101.34361,08-29-2019,13:00:00,31.13,78,0.20,24.7,1005.15,260,8.00,29.0,0.90,1004.64,25.9
48479,HUAI PONG AGROMET.,ห้วยโป่ง สกษ.,ระยอง,12.73333,101.13333,08-29-2019,13:00:00,25.84,57,0.00,21.6,1004.93,280,11.00,31.1,0.01,999.86,16.7
48480,CHANTHA BURI,จันทบุรี,จันทบุรี,12.61667,102.11333,08-29-2019,13:00:00,31.79,83,0.10,25.1,1005.32,000,8.00,28.2,9.10,1004.91,0.0
48481,PHLIU  AGROMET.,พลิ้ว สกษ.,จันทบุรี,12.50861,102.17305,08-29-2019,13:00:00,33.53,86,0.20,26.0,1005.08,000,8.00,28.5,14.60,1002.33,0.0
48500,PRACHUAP KHIRIKHAN,ประจวบคีรีขันธ์,ประจวบคีรีขันธ์,11.83333,99.83333,08-29-2019,13:00:00,28.53,78,0.30,23.3,1006.78,270,10.00,27.5,3.90,1006.00,3.7
48501,TRAD,ตราด,ตราด,11.76667,102.88333,08-29-2019,13:00:00,31.25,96,13.00,24.8,1005.05,350,5.00,25.5,24.00,1004.59,9.3
48517,CHUMPHON,ชุมพร,ชุมพร,10.49875,99.18847,08-29-2019,13:00:00,30.30,90,2.50,24.3,1007.38,260,8.00,26.0,10.40,1006.70,7.4
48520,SAWI AGROMET.,สวี สกษ.,ชุมพร,10.33333,99.10000,08-29-2019,13:00:00,29.28,91,17.00,23.7,1008.04,320,8.00,25.3,27.00,1006.50,3.7
48532,RANONG,ระนอง,ระนอง,9.98333,98.61667,08-29-2019,13:00:00,30.71,94,21.00,24.5,1009.03,230,8.00,25.5,44.80,1008.11,3.7
48550,KO SAMUI,เกาะสมุย,สุราษฎร์ธานี,9.46667,100.05000,08-29-2019,13:00:00,29.16,74,0.30,23.6,1007.67,270,9.00,28.7,0.30,1006.99,9.3
48551,SURAT THANI,สุราษฎร์ธานี,สุราษฎร์ธานี,9.13556,99.15194,08-29-2019,13:00:00,31.93,69,0.10,25.1,1007.78,310,9.00,31.5,0.50,1007.00,7.4
48552,NAKHONSI THAMMARAT,นครศรีธรรมราช,นครศรีธรรมราช,8.53778,99.96389,08-29-2019,13:00:00,29.06,60,0.00,23.6,1006.44,000,10.00,32.2,4.90,1005.82,0.0
48554,NAKHONSI THAMMARAT AGROMET.,นครศรีธรรมราช สกษ.,นครศรีธรรมราช,8.35931,100.00000,08-29-2019,13:00:00,32.41,66,0.00,25.4,1007.35,240,10.00,32.7,9.70,1006.96,11.1
48555,SURAT THANI AGROMET.,สุราษฎร์ธานี สกษ.,สุราษฎร์ธานี,9.10000,99.63333,08-29-2019,13:00:00,28.89,65,0.00,23.5,1009.88,280,5.00,30.7,0.10,1005.71,7.4
48556,PHRA SANG,พระแสง สอท.,สุราษฎร์ธานี,8.57022,99.25825,08-29-2019,13:00:00,29.65,78,0.00,23.9,1008.82,230,12.00,28.1,9.00,1007.21,11.1
48557,CHAWANG,ฉวาง,นครศรีธรรมราช,8.43194,99.51194,08-29-2019,13:00:00,31.85,77,0.00,25.1,1008.10,000,10.00,29.5,15.80,1004.65,0.0
48560,PHATTHALUNG AGROMET.,พัทลุง สกษ.,พัทลุง,7.58333,100.16667,08-29-2019,13:00:00,31.89,76,0.01,25.1,1007.38,270,10.00,29.8,9.60,1006.04,13.0
48561,TAKUA PA,ตะกั่วป่า,พังงา,8.68417,98.25222,08-29-2019,13:00:00,32.71,79,0.00,25.5,1008.26,270,10.00,29.5,40.20,1007.38,11.1
48563,KRABI,กระบี่,กระบี่,8.10361,98.97528,08-29-2019,13:00:00,31.79,92,3.00,25.1,1007.66,290,8.00,26.5,47.20,1004.10,7.4
48564,PHUKET,ภูเก็ต,ภูเก็ต,7.88333,98.40000,08-29-2019,13:00:00,30.49,66,0.00,24.4,1008.05,260,10.00,31.5,14.40,1007.62,13.0
48565,PHUKET AIRPORT,ภูเก็ต (ศูนย์ฯ),ภูเก็ต,8.14500,98.31444,08-29-2019,13:00:00,32.67,81,0.00,25.5,1007.66,230,8.00,29.2,8.60,1006.68,13.0
48566,KO LANTA,เกาะลันตา,กระบี่,7.53333,99.05000,08-29-2019,13:00:00,31.56,77,0.00,24.9,1007.69,270,10.00,29.5,0.60,1006.88,18.5
48567,TRANG AIRPORT,ตรัง,ตรัง,7.51667,99.61667,08-29-2019,13:00:00,33.83,83,0.90,26.1,1007.69,200,10.00,29.2,12.30,1005.89,7.4
48568,SONGKHLA,สงขลา,สงขลา,7.18211,100.60769,08-29-2019,13:00:00,29.74,79,1.00,23.9,1008.18,240,11.00,28.0,1.00,1007.43,3.7
48569,HAT YAI AIRPORT,หาดใหญ่,สงขลา,6.91667,100.43333,08-29-2019,13:00:00,30.32,96,14.00,24.3,1008.25,300,6.00,25.0,14.00,1004.22,7.4
48570,SATUN,สตูล,สตูล,6.65000,100.08333,08-29-2019,13:00:00,30.30,90,4.10,24.3,1008.75,000,8.00,26.0,9.50,1008.06,0.0
48571,KHO HONG AGROMET.,คอหงษ์ สกษ.,สงขลา,7.00000,100.50000,08-29-2019,13:00:00,29.85,97,6.20,24.0,1008.82,330,10.00,24.6,6.20,1007.69,5.6
48574,SA DAO,สะเดา,สงขลา,6.79806,100.39056,08-29-2019,13:00:00,30.42,95,8.80,24.3,1008.62,260,8.00,25.2,8.80,1005.67,14.8
48580,PATTANI AIRPORT,ปัตตานี,ปัตตานี,6.78333,101.15000,08-29-2019,13:00:00,32.77,92,4.00,25.6,1007.17,220,8.00,27.0,4.00,1006.49,7.4
48581,YALA AGROMET.,ยะลา สกษ.,ยะลา,6.51667,101.28333,08-29-2019,13:00:00,28.48,63,0.00,23.2,1007.71,230,10.00,31.2,0.00,1003.64,9.3
48583,NARATHIWAT,นราธิวาส,นราธิวาส,6.41667,101.81667,08-29-2019,13:00:00,27.79,59,0.00,22.8,1007.07,320,10.00,31.7,0.00,1006.49,11.1
