WmoStationNumber,StationNameEnglish,StationNameThai,Province,Latitude,Longitude,LandVisibility,Date,Time,StationPressure,VaporPressure,DewPoint,MeanSeaLevelPressure,Rainfall,WindDirection,WindSpeed,RelativeHumidity,AirTemperature,Rainfall24Hr
48300,MAE HONG SON,แม่ฮ่องสอน,แม่ฮ่องสอน,19.29897,97.97578,10.00,08-27-2019,10:00:00,975.59,28.91,23.5,1006.18,0.00,020,1.9,72,29.0,0.00
48302,DOI ANG KANG,ดอยอ่างขาง,เชียงใหม่,19.93139,99.04833,7.00,08-27-2019,10:00:00,844.14,23.23,19.9,1003.82,0.00,280,5.6,93,21.0,0.00
48303,CHIANG RAI,เชียงราย,เชียงราย,19.96139,99.88139,10.00,08-27-2019,10:00:00,962.32,28.74,23.4,1005.56,0.00,150,5.6,76,27.9,0.00
48304,CHAING RAI AGROMET.,เชียงราย สกษ.,เชียงราย,19.87083,99.78278,15.00,08-27-2019,10:00:00,960.61,29.60,23.9,1005.80,0.00,000,0.0,81,27.5,0.00
48307,THUNG CHANG,ทุ่งช้าง,น่าน,19.41194,100.88353,12.00,08-27-2019,10:00:00,968.69,32.23,25.3,1006.00,0.00,000,0.0,85,28.0,0.00
48310,PHAYAO,พะเยา,พะเยา,19.13333,99.90000,10.00,08-27-2019,10:00:00,960.90,30.72,24.5,1005.34,0.00,000,0.0,75,29.5,0.00
48315,THA WANGPHA,ท่าวังผา,น่าน,19.11056,100.80250,12.00,08-27-2019,10:00:00,979.95,32.30,25.3,1006.38,0.00,190,9.3,79,29.3,0.10
48324,THOEN,เถิน,ลำปาง,17.63661,99.24475,14.00,08-27-2019,10:00:00,984.77,28.43,23.2,1006.35,0.00,240,5.6,73,28.6,4.70
48325,MAE SARIANG,แม่สะเรียง,แม่ฮ่องสอน,18.16667,97.93333,8.00,08-27-2019,10:00:00,983.47,27.44,22.6,1007.41,0.00,000,0.0,71,28.5,0.00
48327,CHIANG MAI,เชียงใหม่,เชียงใหม่,18.79000,98.97694,10.00,08-27-2019,10:00:00,971.74,29.86,24.0,1005.74,0.00,000,0.0,70,30.2,22.10
48328,LAMPANG,ลำปาง,ลำปาง,18.28333,99.51667,10.00,08-27-2019,10:00:00,978.91,31.97,25.2,1006.10,0.00,000,0.0,77,29.7,1.70
48329,LAMPHUN,ลำพูน,ลำพูน,18.56722,99.03389,12.00,08-27-2019,10:00:00,972.52,29.44,23.8,1005.64,0.00,000,0.0,71,29.7,0.40
48330,PHRAE,แพร่,แพร่,18.16667,100.16667,15.00,08-27-2019,10:00:00,987.68,31.02,24.7,1006.13,0.00,240,5.6,87,27.1,0.00
48331,NAN,น่าน,น่าน,18.77972,100.77778,10.00,08-27-2019,10:00:00,983.34,29.16,23.6,1005.89,0.00,000,0.0,70,29.7,0.00
48333,NAN AGROMET.,น่าน สกษ.,น่าน,18.86667,100.75000,12.00,08-27-2019,10:00:00,976.48,29.30,23.7,1006.05,0.00,000,0.0,72,29.2,0.00
48334,LAMPANG AGROMET.,ลำปาง สกษ.,ลำปาง,18.31667,99.28333,7.00,08-27-2019,10:00:00,970.57,32.13,25.2,1005.64,0.00,000,0.0,78,29.5,12.00
48350,LOEI AGROMET.,เลย สกษ.,เลย,17.40000,101.73333,14.00,08-27-2019,10:00:00,976.21,31.38,24.8,1005.92,0.10,140,3.7,93,26.0,7.30
48351,UTTARADIT,อุตรดิตถ์,อุตรดิตถ์,17.61667,100.10000,7.00,08-27-2019,10:00:00,999.65,31.64,25.0,1006.94,0.00,000,0.0,85,27.7,9.00
48352,NONG KHAI,หนองคาย,หนองคาย,17.86717,102.73303,3.00,08-27-2019,10:00:00,986.14,32.76,25.6,1006.07,7.10,260,3.7,98,26.0,65.10
48353,LOEI,เลย,เลย,17.45000,101.73333,8.00,08-27-2019,10:00:00,977.46,31.63,25.0,1006.07,0.20,100,3.7,90,26.7,8.50
48354,UDON THANI,อุดรธานี,อุดรธานี,17.38333,102.80000,3.00,08-27-2019,10:00:00,986.69,28.70,23.4,1007.04,33.70,260,3.7,96,24.1,48.90
48355,SAKON NAKHON AGROMET.,สกลนคร สกษ.,สกลนคร,17.12503,104.06100,10.00,08-27-2019,10:00:00,985.07,30.83,24.5,1006.77,0.00,130,3.7,87,27.0,18.80
48356,SAKON NAKHON,สกลนคร,สกลนคร,17.15000,104.13333,10.00,08-27-2019,10:00:00,986.38,31.55,24.9,1005.85,0.01,180,3.7,90,26.8,14.40
48357,NAKHON PHANOM,นครพนม,นครพนม,17.41083,104.78250,10.00,08-27-2019,10:00:00,990.15,32.36,25.4,1006.86,0.10,000,0.0,88,27.5,40.10
48358,NAKHON PHANOM AGROMET.,นครพนม สกษ.,นครพนม,17.44306,104.77361,12.00,08-27-2019,10:00:00,989.53,32.73,25.5,1006.90,0.80,000,0.0,90,27.4,18.70
48360,NONG BUA LAM PHU,หนองบัวลำภู,หนองบัวลำภู,17.23250,102.42944,6.00,08-27-2019,10:00:00,979.90,29.30,23.7,1005.89,12.40,000,0.0,98,24.0,23.00
48372,SUKHOTHAI*,สุโขทัย,สุโขทัย,17.10611,99.80000,10.00,08-27-2019,10:00:00,1001.65,32.55,25.5,1007.40,0.00,000,0.0,81,29.0,15.00
48373,SI SAMRONG AGROMET.,ศรีสำโรง สกษ.,สุโขทัย,17.16136,99.86167,10.00,08-27-2019,10:00:00,999.61,33.94,26.2,1005.77,0.00,250,5.6,90,28.0,71.60
48374,LOM SAK,หล่มสัก,เพชรบูรณ์,16.77361,101.24944,10.00,08-27-2019,10:00:00,991.06,29.08,23.6,1007.53,0.00,000,0.0,84,26.5,3.20
48375,MAE SOT,แม่สอด,ตาก,16.65917,98.55083,8.00,08-27-2019,10:00:00,983.67,29.91,24.0,1006.08,6.70,210,3.7,92,25.5,8.80
48376,TAK,ตาก,ตาก,16.87833,99.14333,8.00,08-27-2019,10:00:00,992.63,28.67,23.3,1006.91,0.00,300,7.4,70,29.3,0.00
48377,BHUMIBOL DAM,เขื่อนภูมิพล,ตาก,17.24389,99.00250,12.00,08-27-2019,10:00:00,989.97,28.94,23.5,1006.16,0.00,000,0.0,67,30.3,0.00
48378,PHITSANULOK,พิษณุโลก,พิษณุโลก,16.79481,100.27930,10.00,08-27-2019,10:00:00,1001.92,31.41,24.9,1007.14,0.00,180,3.7,87,27.3,0.40
48379,PHETCHABUN,เพชรบูรณ์,เพชรบูรณ์,16.43333,101.15000,10.00,08-27-2019,10:00:00,992.77,30.59,24.4,1005.98,0.00,000,0.0,89,26.3,8.60
48380,KAMPHAENG PHET,กำแพงเพชร,กำแพงเพชร,16.48681,99.52697,12.00,08-27-2019,10:00:00,997.39,31.11,24.7,1006.68,0.00,100,1.9,82,28.0,2.30
48381,KHON KAEN,ขอนแก่น,ขอนแก่น,16.46111,102.78972,10.00,08-27-2019,10:00:00,984.82,30.97,24.6,1006.53,1.70,210,5.6,89,26.5,5.50
48382,MAHASARAKHAM,มหาสารคาม,มหาสารคาม,16.24722,103.06805,10.00,08-27-2019,10:00:00,989.73,30.56,24.4,1007.17,0.00,240,5.6,81,28.0,0.00
48383,MUKDAHAN,มุกดาหาร,มุกดาหาร,16.54139,104.72889,10.00,08-27-2019,10:00:00,990.05,31.54,24.9,1005.78,0.00,210,9.3,81,28.5,23.40
48384,THA PHRA AGROMET.,ท่าพระ สกษ.,ขอนแก่น,16.33333,102.81667,8.00,08-27-2019,10:00:00,986.92,31.66,25.0,1005.78,1.60,000,0.0,89,27.0,5.30
48385,UMPHANG,อุ้มผาง,ตาก,16.02472,98.86444,10.00,08-27-2019,10:00:00,957.14,27.01,22.4,1008.68,0.00,000,0.0,89,24.3,10.90
48386,PICHIT AGROMET.,พิจิตร สกษ.,พิจิตร,16.43806,100.29250,6.00,08-27-2019,10:00:00,1002.84,31.38,24.8,1006.80,0.00,150,11.1,88,27.0,11.60
48387,DOI MU SOE AGROMET.,ดอยมูเซอร์ สกษ.,ตาก,16.75000,98.93333,6.00,08-27-2019,10:00:00,912.19,24.65,20.9,1007.00,0.20,260,9.3,91,22.4,0.80
48390,KALASIN,กาฬสินธุ์,กาฬสินธุ์,16.33250,103.58833,8.00,08-27-2019,10:00:00,990.48,32.16,25.3,1006.44,0.00,270,5.6,88,27.4,1.20
48400,NAKHON SAWAN,นครสวรรค์ ,นครสวรรค์,15.67183,100.13236,12.00,08-27-2019,10:00:00,1002.97,30.81,24.5,1007.00,0.00,190,5.6,83,27.7,0.01
48401,TAKFA AGROMET.,ตากฟ้า สกษ.,นครสวรรค์,15.34944,100.53028,8.00,08-27-2019,10:00:00,997.87,31.25,24.8,1008.61,1.40,000,0.0,96,25.5,41.00
48402,CHAINAT AGROMET.,ชัยนาท สกษ.,ชัยนาท,15.15000,100.18333,10.00,08-27-2019,10:00:00,1006.26,30.43,24.3,1008.19,2.20,000,0.0,88,26.5,11.90
48403,CHAIYAPHUM,ชัยภูมิ,ชัยภูมิ,15.80000,102.03333,10.00,08-27-2019,10:00:00,986.31,29.89,24.0,1007.20,0.00,250,7.4,86,26.5,2.40
48404,ROI ET AGROMET.,ร้อยเอ็ด สกษ.,ร้อยเอ็ด,16.07322,103.60844,10.00,08-27-2019,10:00:00,989.23,29.69,23.9,1006.87,0.00,210,11.1,81,27.4,0.60
48405,ROI ET,ร้อยเอ็ด,ร้อยเอ็ด,16.02000,103.74389,10.00,08-27-2019,10:00:00,990.15,29.79,24.0,1006.26,0.00,200,7.4,81,27.6,1.10
48407,UBON RATCHATHANI,อุบลราชธานี (ศูนย์ฯ),อุบลราชธานี,15.25000,104.86667,10.00,08-27-2019,10:00:00,992.82,28.91,23.5,1006.71,0.00,220,9.3,68,30.0,8.10
48408,UBON RATCHATHANI AGROMET.,อุบลราชธานี สกษ.,อุบลราชธานี,15.23914,105.02350,10.00,08-27-2019,10:00:00,992.86,30.95,24.6,1007.56,0.00,220,3.7,73,29.9,7.80
48409,SI SAKET AGROMET.,ศรีสะเกษ,ศรีสะเกษ,15.00000,104.05000,10.00,08-27-2019,10:00:00,992.85,31.44,24.9,1007.38,0.00,250,11.1,74,30.0,0.50
48410,UTHAITHANI,อุทัยธานี,อุทัยธานี,15.37417,100.03889,8.00,08-27-2019,10:00:00,1004.21,30.53,24.4,1007.23,2.40,"{'@attributes': {'Unit': 'degree'}, '0': '   '}",0.0,87,26.7,3.40
48413,WICHIAN BURI,วิเชียรบุรี,เพชรบูรณ์,15.65700,101.10800,7.00,08-27-2019,10:00:00,999.26,29.56,23.8,1007.22,0.00,000,0.0,83,26.9,5.50
48415,AYUTTHAYA,พระนครศรีอยุธยา,พระนครศรีอยุธยา,14.53472,100.72500,8.00,08-27-2019,10:00:00,1006.51,28.54,23.3,1007.61,0.00,220,14.8,72,28.8,0.00
48416,THA TUM,ท่าตูม,สุรินทร์,15.31667,103.68333,8.00,08-27-2019,10:00:00,992.65,28.37,23.2,1007.24,0.00,000,0.0,71,29.0,22.60
48417,NAKORNNAYOK,นครนายก,นครนายก,14.36222,101.39278,.05,08-27-2019,10:00:00,874.08,21.46,18.6,1009.73,0.40,290,5.6,99,18.8,28.40
48418,BUA CHUM,บัวชุม  ,ลพบุรี,15.26667,101.18736,7.00,08-27-2019,10:00:00,1001.97,32.07,25.2,1007.86,1.60,210,7.4,93,26.5,19.70
48419,PATHUMTHANI,ปทุมธานี สกษ.,ปทุมธานี,14.10000,100.61667,9.00,08-27-2019,10:00:00,1007.31,28.34,23.1,1008.11,0.00,230,11.1,68,29.7,0.00
48420,Samut Prakarn,สมุทรปราการ สกษ.,สมุทรปราการ,13.51667,100.76167,10.00,08-27-2019,10:00:00,1007.56,29.20,23.6,1008.00,0.00,230,18.5,65,31.0,0.80
48421,THONG PHAPHUM,ทองผาภูมิ,กาญจนบุรี,14.74222,98.63639,3.00,08-27-2019,10:00:00,997.57,30.51,24.4,1008.91,0.00,000,0.0,89,26.4,31.90
48425,SUPHAN BURI,สุพรรณบุรี,สุพรรณบุรี,14.47444,100.13889,10.00,08-27-2019,10:00:00,1006.80,28.91,23.5,1007.80,0.01,300,9.3,72,29.0,0.01
48426,LOP BURI,ลพบุรี,ลพบุรี,14.79972,100.64500,7.00,08-27-2019,10:00:00,1006.12,29.33,23.7,1007.94,0.01,000,0.0,75,28.5,2.80
48427,U THONG AGROMET.,อู่ทอง สกษ.,สุพรรณบุรี,14.30361,99.86472,8.00,08-27-2019,10:00:00,1007.09,28.55,23.3,1007.86,0.01,000,0.0,76,27.8,0.20
48429,SUVARNABHUMI AIRPORT,สนามบินสุวรรณภูมิ,สมุทรปราการ,13.68639,100.76750,10.00,08-27-2019,10:00:00,1007.41,27.42,22.6,1008.11,0.00,300,9.3,67,29.5,0.01
48430,PRACHIN BURI,ปราจีนบุรี,ปราจีนบุรี,14.05842,101.36930,7.00,08-27-2019,10:00:00,1007.35,31.81,25.1,1008.05,0.00,000,0.0,79,29.2,0.30
48431,NAKHON RATCHASIMA,นครราชสีมา,นครราชสีมา,14.96830,102.08603,10.00,08-27-2019,10:00:00,986.32,28.16,23.0,1007.37,0.00,280,7.4,72,28.6,0.01
48432,SURIN,สุรินทร์,สุรินทร์,14.88333,103.50000,10.00,08-27-2019,10:00:00,990.63,29.65,23.9,1007.24,0.00,240,7.4,74,29.1,0.00
48433,SURIN AGROMET.,สุรินทร์ สกษ.,สุรินทร์,14.88333,103.45000,9.00,08-27-2019,10:00:00,991.12,29.30,23.7,1007.38,0.00,270,9.3,68,30.2,0.70
48434,CHOK CHAI,โชคชัย,นครราชสีมา,14.71889,102.16861,10.00,08-27-2019,10:00:00,985.68,27.77,22.8,1007.37,0.00,250,14.8,68,29.4,0.00
48435,PAKCHONG AGROMET.,ปากช่อง สกษ.,นครราชสีมา,14.64389,101.33194,12.00,08-27-2019,10:00:00,964.77,26.29,21.9,1008.18,0.00,230,11.1,78,26.1,0.01
48436,NANG RONG,นางรอง,บุรีรัมย์,14.58333,102.80000,12.00,08-27-2019,10:00:00,986.91,29.81,24.0,1007.23,0.00,120,5.6,68,30.6,0.00
48437,BURIRUM,บุรีรัมย์,บุรีรัมย์,15.22575,103.24808,9.00,08-27-2019,10:00:00,988.27,31.95,25.1,1009.06,0.00,230,11.1,85,28.0,0.40
48438,SAMUTSONGKRAM,สมุทรสงคราม,สมุทรสงคราม,13.40778,100.03222,10.00,08-27-2019,10:00:00,1007.59,29.41,23.8,1008.02,0.00,230,9.3,76,28.4,0.00
48439,KABIN BURI,กบินทร์บุรี,ปราจีนบุรี,13.98333,101.70722,11.00,08-27-2019,10:00:00,1006.41,32.26,25.3,1007.82,0.00,000,0.0,81,29.0,0.00
48440,SA KAEW,สระแก้ว,สระแก้ว,13.78889,102.03472,8.00,08-27-2019,10:00:00,1003.30,31.69,25.0,1008.21,0.00,000,0.0,79,29.0,0.00
48450,KANCHANA BURI,กาญจนบุรี,กาญจนบุรี,14.02250,99.53583,12.00,08-27-2019,10:00:00,1004.87,30.15,24.2,1008.15,0.90,000,0.0,78,28.5,2.80
48451,NAKHONPATHOM,นครปฐม,นครปฐม,14.01167,99.97000,10.00,08-27-2019,10:00:00,1007.40,30.40,24.3,1008.50,0.01,260,3.7,80,28.2,0.40
48453,BANG NA AGROMET.,กรุงเทพฯ บางนา สกษ.,กรุงเทพมหานคร,13.66639,100.60611,10.00,08-27-2019,10:00:00,1007.99,28.67,23.3,1008.28,0.00,170,7.4,66,30.3,1.20
48454,BANGKOK PORT (KLONG TOEI),กรุงเทพฯ ท่าเรือคลองเตย,กรุงเทพมหานคร,13.70694,100.56805,10.00,08-27-2019,10:00:00,1007.25,30.47,24.4,1007.94,0.00,220,5.6,73,29.8,5.30
48455,BANGKOK METROPOLIS,กรุงเทพมหานคร,กรุงเทพมหานคร,13.72639,100.56000,10.00,08-27-2019,10:00:00,1007.17,29.60,23.9,1007.66,0.00,000,0.0,72,29.5,6.50
48456,DON MUANG AIRPORT,สนามบินดอนเมือง,กรุงเทพมหานคร,13.91917,100.60500,10.00,08-27-2019,10:00:00,1006.88,29.19,23.6,1008.28,0.01,200,11.1,73,29.0,13.80
48457,PILOT STATION,นำร่อง,สมุทรปราการ,13.39389,100.59944,12.00,08-27-2019,10:00:00,1006.57,33.12,25.8,1008.24,0.00,220,22.2,83,29.0,0.10
48458,CHACHOENGSAO,ฉะเชิงเทรา,ฉะเชิงเทรา,13.51556,101.45833,10.00,08-27-2019,10:00:00,1002.50,29.73,23.9,1010.44,0.00,240,5.6,67,30.7,0.00
48459,CHON BURI,ชลบุรี,ชลบุรี,13.36667,100.98333,10.00,08-27-2019,10:00:00,1007.55,27.54,22.7,1007.83,0.00,000,0.0,61,31.0,0.20
48460,KO SICHANG,เกาะสีชัง,ชลบุรี,13.16167,100.80194,10.00,08-27-2019,10:00:00,1004.27,27.55,22.7,1007.37,0.00,180,9.3,65,30.0,0.30
48461,PHATTHAYA,พัทยา,ชลบุรี,12.92000,100.86944,12.00,08-27-2019,10:00:00,1001.32,30.13,24.2,1008.22,0.00,210,9.3,74,29.2,0.10
48462,ARANYA PRATHET,อรัญประเทศ,สระแก้ว,13.70000,102.58333,8.00,08-27-2019,10:00:00,1002.75,30.72,24.5,1008.31,0.00,230,5.6,75,29.5,0.00
48463,LAEM CHABANG,แหลมฉบัง,ชลบุรี,13.07694,100.87583,10.00,08-27-2019,10:00:00,999.97,28.76,23.4,1009.17,0.00,270,16.7,63,31.2,0.01
48464,RATCHA BURI,ราชบุรี,ราชบุรี,13.48931,99.79239,14.00,08-27-2019,10:00:00,1007.56,30.67,24.5,1008.81,0.00,180,3.7,73,29.9,3.30
48465,PHETCHA BURI,เพชรบุรี,เพชรบุรี,12.99944,100.06056,11.00,08-27-2019,10:00:00,1007.68,28.55,23.3,1008.11,0.20,240,11.1,76,27.8,0.30
48474,NONG PHLUB AGROMET.,หนองพลับ สกษ.,ประจวบคีรีขันธ์,12.58333,99.73333,10.00,08-27-2019,10:00:00,996.45,29.50,23.8,1008.77,1.70,270,3.7,88,26.0,10.20
48475,HUA HIN,หัวหิน,ประจวบคีรีขันธ์,12.58611,99.96250,10.00,08-27-2019,10:00:00,1007.64,32.12,25.2,1008.35,0.10,000,0.0,86,27.8,3.30
48477,SATTAHIP,สัตหีบ,ชลบุรี,12.68333,100.98333,10.00,08-27-2019,10:00:00,1005.57,28.37,23.2,1007.98,0.30,300,11.1,67,30.0,0.40
48478,RAYONG,ระยอง,ระยอง,12.63222,101.34361,10.00,08-27-2019,10:00:00,1007.83,29.91,24.0,1008.34,0.00,300,9.3,71,29.8,0.01
48479,HUAI PONG AGROMET.,ห้วยโป่ง สกษ.,ระยอง,12.73333,101.13333,13.00,08-27-2019,10:00:00,1003.05,29.11,23.6,1008.16,0.01,190,1.9,68,30.1,0.50
48480,CHANTHA BURI,จันทบุรี,จันทบุรี,12.61667,102.11333,8.00,08-27-2019,10:00:00,1007.97,30.79,24.5,1008.37,0.40,000,0.0,72,30.1,2.10
48481,PHLIU  AGROMET.,พลิ้ว สกษ.,จันทบุรี,12.50861,102.17305,8.00,08-27-2019,10:00:00,1005.70,32.96,25.7,1008.46,0.20,260,7.4,85,28.5,0.60
48500,PRACHUAP KHIRIKHAN,ประจวบคีรีขันธ์,ประจวบคีรีขันธ์,11.83333,99.83333,10.00,08-27-2019,10:00:00,1008.30,27.36,22.6,1009.09,1.20,270,16.7,77,27.0,9.70
48501,TRAD,ตราด,ตราด,11.76667,102.88333,5.00,08-27-2019,10:00:00,1008.29,33.53,26.0,1008.75,2.00,260,3.7,90,27.8,2.60
48517,CHUMPHON,ชุมพร,ชุมพร,10.49875,99.18847,10.00,08-27-2019,10:00:00,1010.15,27.23,22.5,1010.84,0.70,270,3.7,80,26.2,5.60
48520,SAWI AGROMET.,สวี สกษ.,ชุมพร,10.33333,99.10000,8.00,08-27-2019,10:00:00,1008.99,27.03,22.4,1010.52,0.80,270,3.7,74,27.4,2.40
48532,RANONG,ระนอง,ระนอง,9.98333,98.61667,6.00,08-27-2019,10:00:00,1011.69,26.83,22.2,1012.62,16.80,070,9.3,92,23.6,37.30
48550,KO SAMUI,เกาะสมุย,สุราษฎร์ธานี,9.46667,100.05000,12.00,08-27-2019,10:00:00,1009.83,31.80,25.1,1010.52,0.30,290,7.4,87,27.5,3.90
48551,SURAT THANI,สุราษฎร์ธานี,สุราษฎร์ธานี,9.13556,99.15194,9.00,08-27-2019,10:00:00,1010.41,30.84,24.6,1011.21,0.10,000,0.0,92,26.0,3.60
48552,NAKHONSI THAMMARAT,นครศรีธรรมราช,นครศรีธรรมราช,8.53778,99.96389,10.00,08-27-2019,10:00:00,1010.08,29.85,24.0,1010.71,0.00,180,3.7,74,29.2,1.50
48554,NAKHONSI THAMMARAT AGROMET.,นครศรีธรรมราช สกษ.,นครศรีธรรมราช,8.35931,100.00000,10.00,08-27-2019,10:00:00,1010.48,32.87,25.6,1010.89,0.20,240,7.4,97,26.2,5.60
48555,SURAT THANI AGROMET.,สุราษฎร์ธานี สกษ.,สุราษฎร์ธานี,9.10000,99.63333,8.00,08-27-2019,10:00:00,1008.06,27.36,22.6,1012.27,0.00,260,5.6,70,28.6,1.00
48556,PHRA SANG,พระแสง สอท.,สุราษฎร์ธานี,8.57022,99.25825,10.00,08-27-2019,10:00:00,1009.71,31.11,24.7,1011.33,0.00,000,0.0,87,27.0,21.40
48557,CHAWANG,ฉวาง,นครศรีธรรมราช,8.43194,99.51194,8.00,08-27-2019,10:00:00,1007.67,29.36,23.7,1011.15,0.00,000,0.0,79,27.8,9.70
48560,PHATTHALUNG AGROMET.,พัทลุง สกษ.,พัทลุง,7.58333,100.16667,10.00,08-27-2019,10:00:00,1009.91,28.42,23.2,1011.28,4.40,320,3.7,86,25.7,8.40
48561,TAKUA PA,ตะกั่วป่า,พังงา,8.68417,98.25222,10.00,08-27-2019,10:00:00,1010.38,32.36,25.4,1011.27,0.40,270,9.3,88,27.5,60.40
48563,KRABI,กระบี่,กระบี่,8.10361,98.97528,10.00,08-27-2019,10:00:00,1007.99,30.23,24.2,1011.56,0.00,000,0.0,83,27.4,7.30
48564,PHUKET,ภูเก็ต,ภูเก็ต,7.88333,98.40000,10.00,08-27-2019,10:00:00,1010.89,29.74,23.9,1011.33,0.00,270,9.3,74,29.0,9.40
48565,PHUKET AIRPORT,ภูเก็ต (ศูนย์ฯ),ภูเก็ต,8.14500,98.31444,9.00,08-27-2019,10:00:00,1009.90,30.13,24.2,1010.89,0.01,250,5.6,74,29.2,0.01
48566,KO LANTA,เกาะลันตา,กระบี่,7.53333,99.05000,10.00,08-27-2019,10:00:00,1010.71,31.64,25.0,1011.52,1.00,270,24.1,85,27.7,1.40
48567,TRANG AIRPORT,ตรัง,ตรัง,7.51667,99.61667,12.00,08-27-2019,10:00:00,1009.75,28.78,23.4,1011.57,2.90,000,0.0,80,27.2,9.90
48568,SONGKHLA,สงขลา,สงขลา,7.18211,100.60769,10.00,08-27-2019,10:00:00,1010.21,27.60,22.7,1010.96,2.20,240,7.4,79,26.7,2.20
48569,HAT YAI AIRPORT,หาดใหญ่,สงขลา,6.91667,100.43333,10.00,08-27-2019,10:00:00,1007.48,30.48,24.4,1011.49,5.00,250,5.6,85,27.1,17.00
48570,SATUN,สตูล,สตูล,6.65000,100.08333,10.00,08-27-2019,10:00:00,1011.29,30.01,24.1,1011.98,0.60,000,0.0,91,25.7,0.60
48571,KHO HONG AGROMET.,คอหงษ์ สกษ.,สงขลา,7.00000,100.50000,10.00,08-27-2019,10:00:00,1010.06,28.94,23.5,1011.18,30.00,300,5.6,81,27.0,30.00
48574,SA DAO,สะเดา,สงขลา,6.79806,100.39056,9.00,08-27-2019,10:00:00,1008.71,31.82,25.1,1011.65,3.70,310,3.7,90,26.8,9.00
48580,PATTANI AIRPORT,ปัตตานี,ปัตตานี,6.78333,101.15000,9.00,08-27-2019,10:00:00,1010.41,28.73,23.4,1011.10,0.30,300,20.4,86,26.0,15.80
48581,YALA AGROMET.,ยะลา สกษ.,ยะลา,6.51667,101.28333,10.00,08-27-2019,10:00:00,1007.23,31.93,25.1,1011.34,0.00,220,5.6,78,29.4,7.20
48583,NARATHIWAT,นราธิวาส,นราธิวาส,6.41667,101.81667,10.00,08-27-2019,10:00:00,1010.51,27.55,22.7,1011.10,0.00,250,9.3,65,30.0,13.80
