WmoStationNumber,StationNameEnglish,StationNameThai,Province,Latitude,Longitude,VaporPressure,Date,Time,Rainfall,WindSpeed,DewPoint,WindDirection,MeanSeaLevelPressure,Rainfall24Hr,AirTemperature,LandVisibility,RelativeHumidity,StationPressure
48300,MAE HONG SON,แม่ฮ่องสอน,แม่ฮ่องสอน,19.29897,97.97578,31.66,08-23-2019,16:00:00,0.60,5.6,25.0,280,1004.76,0.60,28.7,7.00,80,974.18
48302,DOI ANG KANG,ดอยอ่างขาง,เชียงใหม่,19.93139,99.04833,22.96,08-23-2019,16:00:00,0.00,9.3,19.7,300,1001.85,0.00,23.6,8.00,79,843.73
48303,CHIANG RAI,เชียงราย,เชียงราย,19.96139,99.88139,30.99,08-23-2019,16:00:00,1.10,5.6,24.6,090,1004.11,32.00,30.2,10.00,72,961.26
48304,CHAING RAI AGROMET.,เชียงราย สกษ.,เชียงราย,19.87083,99.78278,27.46,08-23-2019,16:00:00,0.00,5.6,22.6,290,1003.61,7.20,32.1,15.00,57,959.18
48307,THUNG CHANG,ทุ่งช้าง,น่าน,19.41194,100.88353,28.21,08-23-2019,16:00:00,0.20,0.0,23.1,000,1006.50,10.80,29.2,10.00,70,969.32
48310,PHAYAO,พะเยา,พะเยา,19.13333,99.90000,30.20,08-23-2019,16:00:00,0.00,5.6,24.2,090,1003.67,7.50,31.5,10.00,65,959.58
48315,THA WANGPHA,ท่าวังผา,น่าน,19.11056,100.80250,31.72,08-23-2019,16:00:00,0.00,7.4,25.0,160,1005.07,6.70,31.4,12.00,69,978.85
48324,THOEN,เถิน,ลำปาง,17.63661,99.24475,32.13,08-23-2019,16:00:00,0.40,7.4,25.2,110,1005.06,2.30,29.5,15.00,78,983.57
48325,MAE SARIANG,แม่สะเรียง,แม่ฮ่องสอน,18.16667,97.93333,30.98,08-23-2019,16:00:00,4.00,0.0,24.6,000,1005.63,5.80,28.5,8.00,80,981.74
48327,CHIANG MAI,เชียงใหม่,เชียงใหม่,18.79000,98.97694,30.33,08-23-2019,16:00:00,0.00,3.7,24.3,350,1004.30,45.60,31.0,10.00,68,970.43
48328,LAMPANG,ลำปาง,ลำปาง,18.28333,99.51667,31.31,08-23-2019,16:00:00,0.00,0.0,24.8,000,1004.57,0.00,30.5,10.00,72,977.48
48329,LAMPHUN,ลำพูน,ลำพูน,18.56722,99.03389,31.89,08-23-2019,16:00:00,1.30,0.0,25.1,000,1004.32,30.90,29.8,9.00,76,971.24
48330,PHRAE,แพร่,แพร่,18.16667,100.16667,31.20,08-23-2019,16:00:00,0.01,5.6,24.7,270,1004.71,0.40,29.6,15.00,75,986.44
48331,NAN,น่าน,น่าน,18.77972,100.77778,32.36,08-23-2019,16:00:00,0.00,0.0,25.4,000,1004.36,11.50,32.4,10.00,67,982.04
48333,NAN AGROMET.,น่าน สกษ.,น่าน,18.86667,100.75000,30.46,08-23-2019,16:00:00,0.10,0.0,24.3,000,1004.83,1.70,30.5,12.00,70,975.42
48334,LAMPANG AGROMET.,ลำปาง สกษ.,ลำปาง,18.31667,99.28333,32.71,08-23-2019,16:00:00,3.00,0.0,25.5,000,1005.00,8.60,29.5,8.00,79,969.96
48350,LOEI AGROMET.,เลย สกษ.,เลย,17.40000,101.73333,32.38,08-23-2019,16:00:00,11.80,9.3,25.4,290,1004.54,13.10,26.8,2.00,92,974.95
48351,UTTARADIT,อุตรดิตถ์,อุตรดิตถ์,17.61667,100.10000,31.19,08-23-2019,16:00:00,0.00,7.4,24.7,190,1005.40,22.50,31.0,7.00,69,998.21
48352,NONG KHAI,หนองคาย,หนองคาย,17.86717,102.73303,33.50,08-23-2019,16:00:00,0.00,11.1,25.9,230,1004.50,1.80,32.1,20.00,70,985.00
48353,LOEI,เลย,เลย,17.45000,101.73333,29.23,08-23-2019,16:00:00,7.40,18.5,23.7,260,1005.64,9.30,26.0,5.00,87,976.97
48354,UDON THANI,อุดรธานี,อุดรธานี,17.38333,102.80000,29.84,08-23-2019,16:00:00,0.00,7.4,24.0,250,1004.85,3.20,31.6,15.00,64,985.04
48355,SAKON NAKHON AGROMET.,สกลนคร สกษ.,สกลนคร,17.12503,104.06100,30.73,08-23-2019,16:00:00,0.00,3.7,24.5,230,1005.99,50.00,31.2,15.00,68,984.60
48356,SAKON NAKHON,สกลนคร,สกลนคร,17.15000,104.13333,29.19,08-23-2019,16:00:00,0.00,0.0,23.6,000,1004.59,37.30,30.0,15.00,69,985.35
48357,NAKHON PHANOM,นครพนม,นครพนม,17.41083,104.78250,32.59,08-23-2019,16:00:00,0.00,0.0,25.5,000,1005.77,48.90,30.0,12.00,77,989.22
48358,NAKHON PHANOM AGROMET.,นครพนม สกษ.,นครพนม,17.44306,104.77361,30.22,08-23-2019,16:00:00,0.00,0.0,24.2,000,1006.06,31.50,30.1,12.00,71,988.86
48360,NONG BUA LAM PHU,หนองบัวลำภู,หนองบัวลำภู,17.23250,102.42944,29.89,08-23-2019,16:00:00,0.00,3.7,24.0,010,1003.55,1.40,30.5,15.00,68,978.17
48372,SUKHOTHAI*,สุโขทัย,สุโขทัย,17.10611,99.80000,34.90,08-23-2019,16:00:00,0.00,0.0,26.6,000,1005.53,18.20,31.5,10.00,76,999.84
48373,SI SAMRONG AGROMET.,ศรีสำโรง สกษ.,สุโขทัย,17.16136,99.86167,33.48,08-23-2019,16:00:00,0.00,0.0,25.9,000,1004.88,58.50,31.4,10.00,73,998.79
48374,LOM SAK,หล่มสัก,เพชรบูรณ์,16.77361,101.24944,33.00,08-23-2019,16:00:00,0.00,0.0,25.7,000,1005.86,17.40,30.2,10.00,77,989.62
48375,MAE SOT,แม่สอด,ตาก,16.65917,98.55083,29.48,08-23-2019,16:00:00,0.00,7.4,23.8,270,1003.53,26.30,31.0,10.00,66,981.59
48376,TAK,ตาก,ตาก,16.87833,99.14333,32.93,08-23-2019,16:00:00,0.00,3.7,25.7,140,1005.71,7.30,31.0,8.00,73,991.53
48377,BHUMIBOL DAM,เขื่อนภูมิพล,ตาก,17.24389,99.00250,26.73,08-23-2019,16:00:00,0.00,0.0,22.2,000,1004.70,3.50,31.0,12.00,60,988.57
48378,PHITSANULOK,พิษณุโลก,พิษณุโลก,16.79481,100.27930,32.40,08-23-2019,16:00:00,0.00,5.6,25.4,170,1005.41,19.80,32.0,10.00,68,1000.27
48379,PHETCHABUN,เพชรบูรณ์,เพชรบูรณ์,16.43333,101.15000,31.11,08-23-2019,16:00:00,0.00,0.0,24.7,000,1004.03,15.20,32.5,12.00,64,991.11
48380,KAMPHAENG PHET,กำแพงเพชร,กำแพงเพชร,16.48681,99.52697,30.32,08-23-2019,16:00:00,0.00,1.9,24.3,110,1005.19,5.80,31.7,10.00,65,996.03
48381,KHON KAEN,ขอนแก่น,ขอนแก่น,16.46111,102.78972,32.59,08-23-2019,16:00:00,0.00,3.7,25.5,040,1004.80,28.00,30.7,10.00,74,983.42
48382,MAHASARAKHAM,มหาสารคาม,มหาสารคาม,16.24722,103.06805,33.22,08-23-2019,16:00:00,0.00,0.0,25.8,000,1005.28,2.10,32.8,10.00,67,988.14
48383,MUKDAHAN,มุกดาหาร,มุกดาหาร,16.54139,104.72889,31.82,08-23-2019,16:00:00,0.10,3.7,25.1,190,1005.16,78.50,28.5,12.00,82,989.44
48384,THA PHRA AGROMET.,ท่าพระ สกษ.,ขอนแก่น,16.33333,102.81667,30.73,08-23-2019,16:00:00,2.20,3.7,24.5,200,1003.76,4.20,31.9,10.00,65,985.24
48385,UMPHANG,อุ้มผาง,ตาก,16.02472,98.86444,27.93,08-23-2019,16:00:00,8.90,0.0,22.9,000,1005.20,17.40,26.3,10.00,82,954.18
48386,PICHIT AGROMET.,พิจิตร สกษ.,พิจิตร,16.43806,100.29250,30.61,08-23-2019,16:00:00,0.00,9.3,24.4,170,1004.97,26.90,31.7,10.00,65,1001.09
48387,DOI MU SOE AGROMET.,ดอยมูเซอร์ สกษ.,ตาก,16.75000,98.93333,26.35,08-23-2019,16:00:00,0.01,7.4,22.0,230,1005.21,6.30,25.1,6.00,83,911.37
48390,KALASIN,กาฬสินธุ์,กาฬสินธุ์,16.33250,103.58833,35.07,08-23-2019,16:00:00,0.30,0.0,26.7,000,1005.26,39.70,28.4,9.00,91,989.37
48400,NAKHON SAWAN,นครสวรรค์ ,นครสวรรค์,15.67183,100.13236,32.63,08-23-2019,16:00:00,0.00,0.0,25.5,000,1005.32,11.90,32.8,10.00,66,1001.37
48401,TAKFA AGROMET.,ตากฟ้า สกษ.,นครสวรรค์,15.34944,100.53028,30.90,08-23-2019,16:00:00,0.00,1.9,24.6,180,1006.21,7.80,31.7,7.00,66,995.71
48402,CHAINAT AGROMET.,ชัยนาท สกษ.,ชัยนาท,15.15000,100.18333,30.32,08-23-2019,16:00:00,0.00,5.6,24.3,150,1005.63,6.70,31.7,10.00,65,1003.73
48403,CHAIYAPHUM,ชัยภูมิ,ชัยภูมิ,15.80000,102.03333,27.84,08-23-2019,16:00:00,0.00,7.4,22.9,280,1005.19,2.60,33.0,10.00,55,984.77
48404,ROI ET AGROMET.,ร้อยเอ็ด สกษ.,ร้อยเอ็ด,16.07322,103.60844,31.85,08-23-2019,16:00:00,0.00,7.4,25.1,190,1004.50,6.90,31.6,11.00,69,987.14
48405,ROI ET,ร้อยเอ็ด,ร้อยเอ็ด,16.02000,103.74389,30.57,08-23-2019,16:00:00,0.00,7.4,24.4,210,1004.46,11.20,32.1,10.00,64,988.61
48407,UBON RATCHATHANI,อุบลราชธานี (ศูนย์ฯ),อุบลราชธานี,15.25000,104.86667,30.46,08-23-2019,16:00:00,0.00,0.0,24.3,000,1005.62,17.20,30.5,10.00,70,991.77
48408,UBON RATCHATHANI AGROMET.,อุบลราชธานี สกษ.,อุบลราชธานี,15.23914,105.02350,32.01,08-23-2019,16:00:00,0.00,0.0,25.2,000,1006.27,15.80,30.0,10.00,75,991.60
48409,SI SAKET AGROMET.,ศรีสะเกษ,ศรีสะเกษ,15.00000,104.05000,32.63,08-23-2019,16:00:00,0.01,3.7,25.5,260,1005.57,4.60,32.8,10.00,66,991.20
48410,UTHAITHANI,อุทัยธานี,อุทัยธานี,15.37417,100.03889,32.55,08-23-2019,16:00:00,0.01,0.0,25.5,"{'@attributes': {'Unit': 'degree'}, '0': '   '}",1005.53,2.60,31.1,8.00,72,1002.56
48413,WICHIAN BURI,วิเชียรบุรี,เพชรบูรณ์,15.65700,101.10800,31.86,08-23-2019,16:00:00,0.00,0.0,25.1,000,1005.24,3.70,32.3,10.00,66,997.44
48415,AYUTTHAYA,พระนครศรีอยุธยา,พระนครศรีอยุธยา,14.53472,100.72500,32.48,08-23-2019,16:00:00,0.00,7.4,25.4,200,1006.11,2.90,31.9,9.00,69,1005.02
48416,THA TUM,ท่าตูม,สุรินทร์,15.31667,103.68333,31.68,08-23-2019,16:00:00,0.00,0.0,25.0,000,1005.37,5.50,30.4,9.00,73,990.88
48417,NAKORNNAYOK,นครนายก,นครนายก,14.36222,101.39278,25.22,08-23-2019,16:00:00,0.00,5.6,21.2,270,1006.93,49.40,21.7,4.00,97,872.87
48418,BUA CHUM,บัวชุม  ,ลพบุรี,15.26667,101.18736,33.66,08-23-2019,16:00:00,0.00,0.0,26.0,000,1005.49,0.60,33.0,10.00,67,999.74
48419,PATHUMTHANI,ปทุมธานี สกษ.,ปทุมธานี,14.10000,100.61667,36.36,08-23-2019,16:00:00,0.10,5.6,27.3,060,1006.42,0.70,30.1,8.00,85,1005.63
48420,Samut Prakarn,สมุทรปราการ สกษ.,สมุทรปราการ,13.51667,100.76167,31.03,08-23-2019,16:00:00,0.00,13.0,24.7,210,1006.29,0.50,30.5,10.00,71,1005.85
48421,THONG PHAPHUM,ทองผาภูมิ,กาญจนบุรี,14.74222,98.63639,30.31,08-23-2019,16:00:00,2.30,0.0,24.3,000,1007.08,10.00,30.0,6.00,71,995.89
48425,SUPHAN BURI,สุพรรณบุรี,สุพรรณบุรี,14.47444,100.13889,30.40,08-23-2019,16:00:00,0.00,7.4,24.3,210,1005.80,0.10,33.0,12.00,60,1004.81
48426,LOP BURI,ลพบุรี,ลพบุรี,14.79972,100.64500,28.73,08-23-2019,16:00:00,0.00,5.6,23.4,240,1006.08,0.00,32.6,8.00,58,1004.29
48427,U THONG AGROMET.,อู่ทอง สกษ.,สุพรรณบุรี,14.30361,99.86472,27.56,08-23-2019,16:00:00,0.00,7.4,22.7,230,1005.68,0.30,33.0,9.00,55,1004.93
48429,SUVARNABHUMI AIRPORT,สนามบินสุวรรณภูมิ,สมุทรปราการ,13.68639,100.76750,30.61,08-23-2019,16:00:00,0.00,13.0,24.4,200,1006.44,0.01,31.0,10.00,68,1005.75
48430,PRACHIN BURI,ปราจีนบุรี,ปราจีนบุรี,14.05842,101.36930,33.98,08-23-2019,16:00:00,0.01,3.7,26.2,010,1006.44,1.10,30.8,7.00,77,1005.74
48431,NAKHON RATCHASIMA,นครราชสีมา,นครราชสีมา,14.96830,102.08603,26.36,08-23-2019,16:00:00,0.00,9.3,22.0,270,1004.71,0.00,34.8,12.00,47,984.13
48432,SURIN,สุรินทร์,สุรินทร์,14.88333,103.50000,29.84,08-23-2019,16:00:00,0.00,0.0,24.0,000,1005.09,1.30,31.6,11.00,64,988.65
48433,SURIN AGROMET.,สุรินทร์ สกษ.,สุรินทร์,14.88333,103.45000,31.35,08-23-2019,16:00:00,0.00,0.0,24.8,000,1005.36,1.20,32.2,10.00,65,989.24
48434,CHOK CHAI,โชคชัย,นครราชสีมา,14.71889,102.16861,33.37,08-23-2019,16:00:00,11.60,0.0,25.9,000,1005.61,11.60,28.0,10.00,88,983.86
48435,PAKCHONG AGROMET.,ปากช่อง สกษ.,นครราชสีมา,14.64389,101.33194,27.97,08-23-2019,16:00:00,1.00,14.8,22.9,240,1006.14,4.80,28.5,10.00,72,963.15
48436,NANG RONG,นางรอง,บุรีรัมย์,14.58333,102.80000,30.43,08-23-2019,16:00:00,15.50,7.4,24.3,130,1005.96,15.50,26.5,10.00,88,985.39
48437,BURIRUM,บุรีรัมย์,บุรีรัมย์,15.22575,103.24808,33.24,08-23-2019,16:00:00,0.00,5.6,25.8,140,1006.73,0.60,31.7,10.00,71,986.24
48438,SAMUTSONGKRAM,สมุทรสงคราม,สมุทรสงคราม,13.40778,100.03222,33.82,08-23-2019,16:00:00,2.10,9.3,26.1,190,1006.78,26.00,28.5,9.00,87,1006.35
48439,KABIN BURI,กบินทร์บุรี,ปราจีนบุรี,13.98333,101.70722,35.30,08-23-2019,16:00:00,6.30,0.0,26.8,000,1006.23,6.90,29.2,11.00,87,1004.82
48440,SA KAEW,สระแก้ว,สระแก้ว,13.78889,102.03472,32.51,08-23-2019,16:00:00,12.60,0.0,25.4,000,1006.42,30.70,26.3,8.00,95,1001.47
48450,KANCHANA BURI,กาญจนบุรี,กาญจนบุรี,14.02250,99.53583,27.43,08-23-2019,16:00:00,0.00,11.1,22.6,230,1006.05,0.01,33.5,12.00,53,1002.83
48451,NAKHONPATHOM,นครปฐม,นครปฐม,14.01167,99.97000,32.58,08-23-2019,16:00:00,0.00,0.0,25.5,000,1006.22,1.30,32.5,10.00,67,1005.13
48453,BANG NA AGROMET.,กรุงเทพฯ บางนา สกษ.,กรุงเทพมหานคร,13.66639,100.60611,30.90,08-23-2019,16:00:00,0.00,11.1,24.6,210,1006.34,3.70,31.0,10.00,69,1006.05
48454,BANGKOK PORT (KLONG TOEI),กรุงเทพฯ ท่าเรือคลองเตย,กรุงเทพมหานคร,13.70694,100.56805,31.76,08-23-2019,16:00:00,0.00,3.7,25.0,210,1006.42,14.50,31.0,10.00,71,1005.74
48455,BANGKOK METROPOLIS,กรุงเทพมหานคร,กรุงเทพมหานคร,13.72639,100.56000,31.90,08-23-2019,16:00:00,0.00,5.6,25.1,120,1006.35,19.50,32.6,10.00,65,1005.87
48456,DON MUANG AIRPORT,สนามบินดอนเมือง,กรุงเทพมหานคร,13.91917,100.60500,30.28,08-23-2019,16:00:00,0.00,13.0,24.2,240,1006.45,6.40,32.1,10.00,63,1005.07
48457,PILOT STATION,นำร่อง,สมุทรปราการ,13.39389,100.59944,34.88,08-23-2019,16:00:00,0.00,22.2,26.6,190,1006.55,0.00,29.7,10.00,84,1004.89
48458,CHACHOENGSAO,ฉะเชิงเทรา,ฉะเชิงเทรา,13.51556,101.45833,31.31,08-23-2019,16:00:00,0.00,3.7,24.8,230,1007.78,0.01,30.5,10.00,72,999.87
48459,CHON BURI,ชลบุรี,ชลบุรี,13.36667,100.98333,28.66,08-23-2019,16:00:00,0.00,11.1,23.3,180,1006.46,0.00,32.0,10.00,60,1006.19
48460,KO SICHANG,เกาะสีชัง,ชลบุรี,13.16167,100.80194,29.19,08-23-2019,16:00:00,0.00,5.6,23.6,200,1006.78,0.00,30.0,12.00,69,1003.68
48461,PHATTHAYA,พัทยา,ชลบุรี,12.92000,100.86944,30.72,08-23-2019,16:00:00,0.00,0.0,24.5,000,1007.03,0.00,29.5,12.00,75,1000.15
48462,ARANYA PRATHET,อรัญประเทศ,สระแก้ว,13.70000,102.58333,29.10,08-23-2019,16:00:00,21.10,0.0,23.6,000,1007.26,22.60,25.2,7.00,91,1001.63
48463,LAEM CHABANG,แหลมฉบัง,ชลบุรี,13.07694,100.87583,32.79,08-23-2019,16:00:00,0.00,7.4,25.6,230,1007.50,0.00,30.1,10.00,77,998.28
48464,RATCHA BURI,ราชบุรี,ราชบุรี,13.48931,99.79239,30.29,08-23-2019,16:00:00,0.01,7.4,24.3,270,1007.39,1.60,30.7,12.00,69,1006.14
48465,PHETCHA BURI,เพชรบุรี,เพชรบุรี,12.99944,100.06056,28.40,08-23-2019,16:00:00,0.00,18.5,23.2,270,1006.18,0.00,33.0,11.00,56,1005.75
48474,NONG PHLUB AGROMET.,หนองพลับ สกษ.,ประจวบคีรีขันธ์,12.58333,99.73333,28.68,08-23-2019,16:00:00,0.00,11.1,23.3,230,1007.03,0.00,31.3,10.00,63,994.95
48475,HUA HIN,หัวหิน,ประจวบคีรีขันธ์,12.58611,99.96250,28.85,08-23-2019,16:00:00,0.00,11.1,23.4,250,1006.57,0.00,32.8,10.00,58,1005.87
48477,SATTAHIP,สัตหีบ,ชลบุรี,12.68333,100.98333,29.65,08-23-2019,16:00:00,0.00,14.8,23.9,200,1007.90,0.00,30.8,10.00,67,1005.50
48478,RAYONG,ระยอง,ระยอง,12.63222,101.34361,30.99,08-23-2019,16:00:00,0.00,14.8,24.6,270,1007.32,0.00,30.2,10.00,72,1006.81
48479,HUAI PONG AGROMET.,ห้วยโป่ง สกษ.,ระยอง,12.73333,101.13333,29.80,08-23-2019,16:00:00,0.00,9.3,24.0,200,1006.84,0.01,29.6,11.00,72,1001.73
48480,CHANTHA BURI,จันทบุรี,จันทบุรี,12.61667,102.11333,31.93,08-23-2019,16:00:00,0.00,13.0,25.1,200,1006.88,0.00,31.5,10.00,69,1006.48
48481,PHLIU  AGROMET.,พลิ้ว สกษ.,จันทบุรี,12.50861,102.17305,33.17,08-23-2019,16:00:00,0.00,7.4,25.8,180,1006.93,0.00,30.0,8.00,78,1004.19
48500,PRACHUAP KHIRIKHAN,ประจวบคีรีขันธ์,ประจวบคีรีขันธ์,11.83333,99.83333,27.08,08-23-2019,16:00:00,0.00,18.5,22.4,270,1007.71,0.00,30.9,10.00,61,1006.94
48501,TRAD,ตราด,ตราด,11.76667,102.88333,33.17,08-23-2019,16:00:00,0.00,9.3,25.8,260,1007.26,17.30,30.0,10.00,78,1006.80
48517,CHUMPHON,ชุมพร,ชุมพร,10.49875,99.18847,28.22,08-23-2019,16:00:00,0.00,5.6,23.1,300,1008.37,0.60,28.2,8.00,74,1007.69
48520,SAWI AGROMET.,สวี สกษ.,ชุมพร,10.33333,99.10000,30.72,08-23-2019,16:00:00,0.00,7.4,24.5,250,1008.70,1.60,27.8,9.00,82,1007.18
48532,RANONG,ระนอง,ระนอง,9.98333,98.61667,30.31,08-23-2019,16:00:00,0.00,7.4,24.3,230,1008.02,8.60,30.0,10.00,71,1007.11
48550,KO SAMUI,เกาะสมุย,สุราษฎร์ธานี,9.46667,100.05000,29.73,08-23-2019,16:00:00,0.00,5.6,23.9,280,1008.36,0.00,30.7,12.00,67,1007.68
48551,SURAT THANI,สุราษฎร์ธานี,สุราษฎร์ธานี,9.13556,99.15194,31.51,08-23-2019,16:00:00,0.00,3.7,24.9,270,1008.70,1.50,30.6,10.00,72,1007.91
48552,NAKHONSI THAMMARAT,นครศรีธรรมราช,นครศรีธรรมราช,8.53778,99.96389,25.06,08-23-2019,16:00:00,0.00,7.4,21.1,330,1007.36,0.00,29.8,12.00,60,1006.73
48554,NAKHONSI THAMMARAT AGROMET.,นครศรีธรรมราช สกษ.,นครศรีธรรมราช,8.35931,100.00000,26.73,08-23-2019,16:00:00,0.00,7.4,22.2,320,1007.95,0.00,31.0,10.00,60,1007.55
48555,SURAT THANI AGROMET.,สุราษฎร์ธานี สกษ.,สุราษฎร์ธานี,9.10000,99.63333,27.11,08-23-2019,16:00:00,0.00,11.1,22.4,310,1010.10,0.00,31.2,7.00,60,1005.94
48556,PHRA SANG,พระแสง สอท.,สุราษฎร์ธานี,8.57022,99.25825,25.49,08-23-2019,16:00:00,4.00,0.0,21.4,000,1008.67,8.50,32.5,10.00,52,1007.09
48557,CHAWANG,ฉวาง,นครศรีธรรมราช,8.43194,99.51194,29.95,08-23-2019,16:00:00,0.00,0.0,24.1,000,1008.47,0.00,33.2,12.00,59,1005.06
48560,PHATTHALUNG AGROMET.,พัทลุง สกษ.,พัทลุง,7.58333,100.16667,25.93,08-23-2019,16:00:00,0.00,13.0,21.7,310,1007.62,0.00,32.3,10.00,54,1006.29
48561,TAKUA PA,ตะกั่วป่า,พังงา,8.68417,98.25222,29.71,08-23-2019,16:00:00,0.00,0.0,23.9,000,1008.80,27.00,29.7,10.00,71,1007.92
48563,KRABI,กระบี่,กระบี่,8.10361,98.97528,30.05,08-23-2019,16:00:00,0.00,0.0,24.1,000,1008.50,17.80,31.0,10.00,67,1004.98
48564,PHUKET,ภูเก็ต,ภูเก็ต,7.88333,98.40000,30.72,08-23-2019,16:00:00,0.00,0.0,24.5,000,1009.69,29.00,29.5,10.00,75,1009.26
48565,PHUKET AIRPORT,ภูเก็ต (ศูนย์ฯ),ภูเก็ต,8.14500,98.31444,30.79,08-23-2019,16:00:00,0.00,0.0,24.5,000,1008.22,24.60,30.1,10.00,72,1007.24
48566,KO LANTA,เกาะลันตา,กระบี่,7.53333,99.05000,31.29,08-23-2019,16:00:00,0.00,7.4,24.8,270,1008.56,42.00,28.8,10.00,79,1007.75
48567,TRANG AIRPORT,ตรัง,ตรัง,7.51667,99.61667,27.85,08-23-2019,16:00:00,0.00,7.4,22.9,240,1008.47,1.30,30.3,12.00,65,1006.68
48568,SONGKHLA,สงขลา,สงขลา,7.18211,100.60769,28.12,08-23-2019,16:00:00,0.00,5.6,23.0,200,1007.77,0.00,33.0,11.00,56,1007.03
48569,HAT YAI AIRPORT,หาดใหญ่,สงขลา,6.91667,100.43333,31.68,08-23-2019,16:00:00,0.40,11.1,25.0,240,1007.87,1.60,29.7,10.00,76,1003.91
48570,SATUN,สตูล,สตูล,6.65000,100.08333,30.69,08-23-2019,16:00:00,0.00,7.4,24.5,270,1008.24,0.00,31.6,10.00,66,1007.57
48571,KHO HONG AGROMET.,คอหงษ์ สกษ.,สงขลา,7.00000,100.50000,29.33,08-23-2019,16:00:00,0.00,7.4,23.7,190,1007.90,0.00,30.5,12.00,67,1006.80
48574,SA DAO,สะเดา,สงขลา,6.79806,100.39056,32.23,08-23-2019,16:00:00,0.01,11.1,25.3,260,1008.00,0.01,32.2,12.00,67,1005.13
48580,PATTANI AIRPORT,ปัตตานี,ปัตตานี,6.78333,101.15000,33.24,08-23-2019,16:00:00,0.00,11.1,25.8,250,1007.66,0.00,31.7,6.00,71,1006.98
48581,YALA AGROMET.,ยะลา สกษ.,ยะลา,6.51667,101.28333,28.66,08-23-2019,16:00:00,0.00,0.0,23.3,000,1007.45,0.00,32.0,10.00,60,1003.39
48583,NARATHIWAT,นราธิวาส,นราธิวาส,6.41667,101.81667,31.11,08-23-2019,16:00:00,0.00,18.5,24.7,090,1007.32,0.00,32.5,12.00,64,1006.75
