WmoStationNumber,StationNameEnglish,StationNameThai,Province,Latitude,Longitude,Rainfall24Hr,Date,Time,Rainfall,DewPoint,StationPressure,RelativeHumidity,VaporPressure,WindSpeed,WindDirection,MeanSeaLevelPressure,AirTemperature,LandVisibility
48300,MAE HONG SON,แม่ฮ่องสอน,แม่ฮ่องสอน,19.29897,97.97578,0.50,08-29-2019,22:00:00,0.00,25.6,973.80,91,32.89,0.0,000,1004.52,27.2,10.00
48302,DOI ANG KANG,ดอยอ่างขาง,เชียงใหม่,19.93139,99.04833,2.40,08-29-2019,22:00:00,0.00,17.8,843.46,82,20.32,0.0,000,1003.01,21.0,8.00
48303,CHIANG RAI,เชียงราย,เชียงราย,19.96139,99.88139,0.00,08-29-2019,22:00:00,0.00,25.0,959.77,82,31.70,0.0,000,1002.84,28.3,10.00
48304,CHAING RAI AGROMET.,เชียงราย สกษ.,เชียงราย,19.87083,99.78278,0.00,08-29-2019,22:00:00,0.00,24.8,957.82,88,31.38,0.0,000,1002.95,27.0,12.00
48307,THUNG CHANG,ทุ่งช้าง,น่าน,19.41194,100.88353,1.70,08-29-2019,22:00:00,0.00,26.3,965.97,91,34.23,0.0,000,1003.18,28.0,8.00
48310,PHAYAO,พะเยา,พะเยา,19.13333,99.90000,0.00,08-29-2019,22:00:00,0.00,24.7,958.58,82,31.11,0.0,000,1003.14,28.0,10.00
48315,THA WANGPHA,ท่าวังผา,น่าน,19.11056,100.80250,0.30,08-29-2019,22:00:00,0.00,27.1,977.02,92,35.87,3.7,320,1003.44,28.5,8.00
48324,THOEN,เถิน,ลำปาง,17.63661,99.24475,0.00,08-29-2019,22:00:00,0.00,24.9,982.24,90,31.55,0.0,000,1003.90,26.8,12.00
48325,MAE SARIANG,แม่สะเรียง,แม่ฮ่องสอน,18.16667,97.93333,0.00,08-29-2019,22:00:00,0.00,25.1,981.30,87,31.80,0.0,000,1005.26,27.5,8.00
48327,CHIANG MAI,เชียงใหม่,เชียงใหม่,18.79000,98.97694,0.01,08-29-2019,22:00:00,0.00,24.4,969.32,80,30.59,0.0,000,1003.45,28.3,10.00
48328,LAMPANG,ลำปาง,ลำปาง,18.28333,99.51667,1.20,08-29-2019,22:00:00,0.00,25.5,976.83,90,32.61,0.0,000,1004.20,27.2,10.00
48329,LAMPHUN,ลำพูน,ลำพูน,18.56722,99.03389,0.00,08-29-2019,22:00:00,0.00,25.8,970.30,87,33.20,0.0,000,1003.52,28.2,10.00
48330,PHRAE,แพร่,แพร่,18.16667,100.16667,0.00,08-29-2019,22:00:00,0.00,25.7,984.79,88,33.08,0.0,000,1003.13,28.0,10.00
48331,NAN,น่าน,น่าน,18.77972,100.77778,0.00,08-29-2019,22:00:00,0.00,27.1,980.14,91,35.92,0.0,000,1002.68,28.8,10.00
48333,NAN AGROMET.,น่าน สกษ.,น่าน,18.86667,100.75000,0.00,08-29-2019,22:00:00,0.00,25.8,973.47,92,33.17,0.0,000,1003.15,27.2,8.00
48334,LAMPANG AGROMET.,ลำปาง สกษ.,ลำปาง,18.31667,99.28333,2.00,08-29-2019,22:00:00,0.00,26.8,968.39,96,35.23,0.0,000,1003.62,27.5,7.00
48350,LOEI AGROMET.,เลย สกษ.,เลย,17.40000,101.73333,0.00,08-29-2019,22:00:00,0.00,26.3,971.87,96,34.19,0.0,000,1001.35,27.0,12.00
48351,UTTARADIT,อุตรดิตถ์,อุตรดิตถ์,17.61667,100.10000,0.00,08-29-2019,22:00:00,0.00,27.1,996.07,87,35.86,0.0,000,1003.29,29.6,10.00
48352,NONG KHAI,หนองคาย,หนองคาย,17.86717,102.73303,0.00,08-29-2019,22:00:00,0.00,27.1,980.33,89,35.89,9.3,260,999.93,29.2,11.00
48353,LOEI,เลย,เลย,17.45000,101.73333,0.00,08-29-2019,22:00:00,0.00,25.6,973.18,85,32.75,0.0,000,1001.51,28.4,12.00
48354,UDON THANI,อุดรธานี,อุดรธานี,17.38333,102.80000,0.01,08-29-2019,22:00:00,0.01,25.7,980.25,85,32.96,9.3,230,1000.17,28.5,10.00
48355,SAKON NAKHON AGROMET.,สกลนคร สกษ.,สกลนคร,17.12503,104.06100,6.40,08-29-2019,22:00:00,3.20,25.3,978.32,90,32.21,14.8,320,999.87,27.0,8.00
48356,SAKON NAKHON,สกลนคร,สกลนคร,17.15000,104.13333,10.90,08-29-2019,22:00:00,5.80,25.6,979.43,95,32.91,5.6,300,998.77,26.5,7.00
48357,NAKHON PHANOM,นครพนม,นครพนม,17.41083,104.78250,40.30,08-29-2019,22:00:00,6.60,25.4,981.29,93,32.35,3.7,320,997.90,26.5,7.00
48358,NAKHON PHANOM AGROMET.,นครพนม สกษ.,นครพนม,17.44306,104.77361,39.50,08-29-2019,22:00:00,9.80,25.9,980.59,97,33.47,9.3,090,997.86,26.5,5.00
48360,NONG BUA LAM PHU,หนองบัวลำภู,หนองบัวลำภู,17.23250,102.42944,0.00,08-29-2019,22:00:00,0.00,26.6,974.79,92,34.81,0.0,000,1000.29,28.0,10.00
48372,SUKHOTHAI*,สุโขทัย,สุโขทัย,17.10611,99.80000,0.00,08-29-2019,22:00:00,0.00,26.7,997.13,84,34.97,0.0,000,1002.84,29.6,10.00
48373,SI SAMRONG AGROMET.,ศรีสำโรง สกษ.,สุโขทัย,17.16136,99.86167,0.00,08-29-2019,22:00:00,0.00,27.0,996.96,86,35.65,0.0,000,1003.08,29.5,10.00
48374,LOM SAK,หล่มสัก,เพชรบูรณ์,16.77361,101.24944,0.00,08-29-2019,22:00:00,0.00,25.3,987.54,87,32.28,0.0,000,1003.89,27.6,8.00
48375,MAE SOT,แม่สอด,ตาก,16.65917,98.55083,0.00,08-29-2019,22:00:00,0.00,23.3,982.34,91,28.56,7.4,270,1004.76,24.9,10.00
48376,TAK,ตาก,ตาก,16.87833,99.14333,0.00,08-29-2019,22:00:00,0.00,22.4,990.47,68,27.03,14.8,260,1004.73,29.0,10.00
48377,BHUMIBOL DAM,เขื่อนภูมิพล,ตาก,17.24389,99.00250,0.00,08-29-2019,22:00:00,0.00,23.4,987.44,74,28.78,0.0,000,1003.69,28.5,7.00
48378,PHITSANULOK,พิษณุโลก,พิษณุโลก,16.79481,100.27930,0.00,08-29-2019,22:00:00,0.00,25.7,998.27,88,33.08,0.0,000,1003.46,28.0,10.00
48379,PHETCHABUN,เพชรบูรณ์,เพชรบูรณ์,16.43333,101.15000,0.00,08-29-2019,22:00:00,0.00,25.6,987.95,87,32.80,0.0,000,1001.02,28.0,10.00
48380,KAMPHAENG PHET,กำแพงเพชร,กำแพงเพชร,16.48681,99.52697,0.00,08-29-2019,22:00:00,0.00,25.5,994.79,85,32.63,0.0,000,1004.05,28.2,10.00
48381,KHON KAEN,ขอนแก่น,ขอนแก่น,16.46111,102.78972,3.50,08-29-2019,22:00:00,0.90,25.8,979.49,94,33.22,13.0,240,1001.06,26.8,8.00
48382,MAHASARAKHAM,มหาสารคาม,มหาสารคาม,16.24722,103.06805,81.70,08-29-2019,22:00:00,4.20,23.3,985.37,88,28.59,14.8,210,1002.89,25.5,5.00
48383,MUKDAHAN,มุกดาหาร,มุกดาหาร,16.54139,104.72889,51.70,08-29-2019,22:00:00,33.40,23.8,983.22,96,29.41,3.7,220,999.06,24.5,8.00
48384,THA PHRA AGROMET.,ท่าพระ สกษ.,ขอนแก่น,16.33333,102.81667,4.80,08-29-2019,22:00:00,0.60,26.0,981.29,94,33.62,5.6,220,1000.03,27.0,8.00
48385,UMPHANG,อุ้มผาง,ตาก,16.02472,98.86444,1.00,08-29-2019,22:00:00,0.00,22.5,957.01,91,27.25,0.0,000,1008.59,24.0,5.00
48386,PICHIT AGROMET.,พิจิตร สกษ.,พิจิตร,16.43806,100.29250,0.00,08-29-2019,22:00:00,0.00,26.8,999.35,93,35.32,3.7,140,1003.28,28.1,7.00
48387,DOI MU SOE AGROMET.,ดอยมูเซอร์ สกษ.,ตาก,16.75000,98.93333,0.10,08-29-2019,22:00:00,0.00,21.3,911.17,95,25.37,11.1,260,1005.98,22.1,1.50
48390,KALASIN,กาฬสินธุ์,กาฬสินธุ์,16.33250,103.58833,52.60,08-29-2019,22:00:00,7.50,26.1,984.14,98,33.83,13.0,230,1000.05,26.4,5.00
48400,NAKHON SAWAN,นครสวรรค์ ,นครสวรรค์,15.67183,100.13236,0.00,08-29-2019,22:00:00,0.00,24.9,999.87,82,31.51,0.0,000,1003.87,28.2,10.00
48401,TAKFA AGROMET.,ตากฟ้า สกษ.,นครสวรรค์,15.34944,100.53028,12.80,08-29-2019,22:00:00,0.00,26.1,994.29,92,33.78,0.0,000,1004.93,27.5,7.00
48402,CHAINAT AGROMET.,ชัยนาท สกษ.,ชัยนาท,15.15000,100.18333,36.70,08-29-2019,22:00:00,0.00,26.1,1002.86,92,33.78,0.0,000,1004.79,27.5,8.00
48403,CHAIYAPHUM,ชัยภูมิ,ชัยภูมิ,15.80000,102.03333,1.40,08-29-2019,22:00:00,0.00,24.7,982.14,86,31.14,7.4,250,1002.89,27.3,10.00
48404,ROI ET AGROMET.,ร้อยเอ็ด สกษ.,ร้อยเอ็ด,16.07322,103.60844,35.40,08-29-2019,22:00:00,9.80,25.8,982.35,96,33.19,11.1,230,999.91,26.5,8.00
48405,ROI ET,ร้อยเอ็ด,ร้อยเอ็ด,16.02000,103.74389,23.50,08-29-2019,22:00:00,9.30,25.3,983.92,96,32.20,14.8,230,1000.02,26.0,7.00
48407,UBON RATCHATHANI,อุบลราชธานี (ศูนย์ฯ),อุบลราชธานี,15.25000,104.86667,41.20,08-29-2019,22:00:00,4.40,23.7,987.29,92,29.26,9.3,290,1001.34,25.0,10.00
48408,UBON RATCHATHANI AGROMET.,อุบลราชธานี สกษ.,อุบลราชธานี,15.23914,105.02350,69.00,08-29-2019,22:00:00,8.80,23.5,986.23,94,28.89,0.0,000,1001.10,24.5,6.00
48409,SI SAKET AGROMET.,ศรีสะเกษ,ศรีสะเกษ,15.00000,104.05000,17.30,08-29-2019,22:00:00,3.00,25.9,987.69,98,33.43,11.1,320,1002.33,26.2,4.00
48410,UTHAITHANI,อุทัยธานี,อุทัยธานี,15.37417,100.03889,1.60,08-29-2019,22:00:00,0.00,26.0,1000.68,91,33.62,0.0,"{'0': '   ', '@attributes': {'Unit': 'degree'}}",1003.69,27.7,10.00
48413,WICHIAN BURI,วิเชียรบุรี,เพชรบูรณ์,15.65700,101.10800,0.00,08-29-2019,22:00:00,0.00,26.3,995.28,92,34.19,0.0,000,1003.19,27.7,8.00
48415,AYUTTHAYA,พระนครศรีอยุธยา,พระนครศรีอยุธยา,14.53472,100.72500,2.10,08-29-2019,22:00:00,0.00,23.5,1003.16,75,28.86,11.1,230,1004.26,28.4,7.00
48416,THA TUM,ท่าตูม,สุรินทร์,15.31667,103.68333,36.80,08-29-2019,22:00:00,2.20,24.8,988.30,96,31.25,0.0,000,1003.00,25.5,2.00
48417,NAKORNNAYOK,นครนายก,นครนายก,14.36222,101.39278,1.20,08-29-2019,22:00:00,0.00,20.1,876.95,99,23.57,3.7,190,1012.31,20.3,.10
48418,BUA CHUM,บัวชุม  ,ลพบุรี,15.26667,101.18736,75.00,08-29-2019,22:00:00,0.00,26.4,998.04,94,34.36,0.0,000,1003.89,27.5,10.00
48419,PATHUMTHANI,ปทุมธานี สกษ.,ปทุมธานี,14.10000,100.61667,6.60,08-29-2019,22:00:00,0.00,24.7,1003.82,79,31.09,5.6,230,1004.61,28.7,8.00
48420,Samut Prakarn,สมุทรปราการ สกษ.,สมุทรปราการ,13.51667,100.76167,8.50,08-29-2019,22:00:00,0.10,23.8,1003.79,74,29.46,11.1,230,1004.24,29.0,10.00
48421,THONG PHAPHUM,ทองผาภูมิ,กาญจนบุรี,14.74222,98.63639,0.00,08-29-2019,22:00:00,0.00,24.2,995.14,92,30.28,0.0,000,1006.49,25.7,4.00
48425,SUPHAN BURI,สุพรรณบุรี,สุพรรณบุรี,14.47444,100.13889,0.00,08-29-2019,22:00:00,0.00,24.2,1003.60,76,30.18,0.0,000,1004.60,28.8,10.00
48426,LOP BURI,ลพบุรี,ลพบุรี,14.79972,100.64500,2.40,08-29-2019,22:00:00,0.00,25.6,1002.10,83,32.91,3.7,170,1003.91,28.9,8.00
48427,U THONG AGROMET.,อู่ทอง สกษ.,สุพรรณบุรี,14.30361,99.86472,0.20,08-29-2019,22:00:00,0.00,22.5,1003.89,70,27.26,3.7,270,1004.65,28.4,5.00
48429,SUVARNABHUMI AIRPORT,สนามบินสุวรรณภูมิ,สมุทรปราการ,13.68639,100.76750,0.01,08-29-2019,22:00:00,0.01,22.8,1003.99,73,27.77,9.3,260,1004.69,28.1,10.00
48430,PRACHIN BURI,ปราจีนบุรี,ปราจีนบุรี,14.05842,101.36930,33.00,08-29-2019,22:00:00,0.00,25.8,1003.59,85,33.24,5.6,240,1004.28,28.5,7.00
48431,NAKHON RATCHASIMA,นครราชสีมา,นครราชสีมา,14.96830,102.08603,5.80,08-29-2019,22:00:00,0.01,24.6,982.44,86,30.94,3.7,270,1003.50,27.2,7.00
48432,SURIN,สุรินทร์,สุรินทร์,14.88333,103.50000,17.90,08-29-2019,22:00:00,3.10,25.6,986.10,95,32.91,0.0,000,1002.78,26.5,7.00
48433,SURIN AGROMET.,สุรินทร์ สกษ.,สุรินทร์,14.88333,103.45000,16.80,08-29-2019,22:00:00,3.20,25.1,986.68,92,31.79,5.6,270,1003.08,26.5,5.00
48434,CHOK CHAI,โชคชัย,นครราชสีมา,14.71889,102.16861,2.10,08-29-2019,22:00:00,0.01,24.5,981.92,86,30.75,0.0,000,1003.69,27.1,10.00
48435,PAKCHONG AGROMET.,ปากช่อง สกษ.,นครราชสีมา,14.64389,101.33194,11.50,08-29-2019,22:00:00,0.00,23.0,960.99,85,28.08,7.4,230,1004.28,25.8,10.00
48436,NANG RONG,นางรอง,บุรีรัมย์,14.58333,102.80000,14.30,08-29-2019,22:00:00,0.30,25.1,982.67,92,31.79,3.7,220,1003.19,26.5,5.00
48437,BURIRUM,บุรีรัมย์,บุรีรัมย์,15.22575,103.24808,19.40,08-29-2019,22:00:00,2.60,25.6,983.26,100,32.81,13.0,240,1004.11,25.6,7.00
48438,SAMUTSONGKRAM,สมุทรสงคราม,สมุทรสงคราม,13.40778,100.03222,1.30,08-29-2019,22:00:00,0.00,23.6,1003.87,77,29.19,1.9,340,1004.30,28.0,10.00
48439,KABIN BURI,กบินทร์บุรี,ปราจีนบุรี,13.98333,101.70722,13.20,08-29-2019,22:00:00,0.10,25.6,1002.71,92,32.77,0.0,000,1004.12,27.0,8.00
48440,SA KAEW,สระแก้ว,สระแก้ว,13.78889,102.03472,6.70,08-29-2019,22:00:00,0.20,25.2,999.38,94,32.04,0.0,000,1004.31,26.2,7.00
48450,KANCHANA BURI,กาญจนบุรี,กาญจนบุรี,14.02250,99.53583,0.00,08-29-2019,22:00:00,0.00,22.6,1001.97,71,27.44,5.6,320,1005.24,28.5,10.00
48451,NAKHONPATHOM,นครปฐม,นครปฐม,14.01167,99.97000,0.01,08-29-2019,22:00:00,0.00,23.7,1003.92,79,29.36,3.7,280,1005.02,27.8,10.00
48453,BANG NA AGROMET.,กรุงเทพฯ บางนา สกษ.,กรุงเทพมหานคร,13.66639,100.60611,0.01,08-29-2019,22:00:00,0.01,23.3,1004.36,72,28.54,0.0,000,1004.65,28.8,10.00
48455,BANGKOK METROPOLIS,กรุงเทพมหานคร,กรุงเทพมหานคร,13.72639,100.56000,0.00,08-29-2019,22:00:00,0.00,23.5,1004.22,75,28.95,0.0,000,1004.71,28.3,10.00
48456,DON MUANG AIRPORT,สนามบินดอนเมือง,กรุงเทพมหานคร,13.91917,100.60500,0.80,08-29-2019,22:00:00,0.00,23.3,1003.30,73,28.62,14.8,250,1004.70,28.7,10.00
48458,CHACHOENGSAO,ฉะเชิงเทรา,ฉะเชิงเทรา,13.51556,101.45833,15.40,08-29-2019,22:00:00,0.00,25.0,997.84,91,31.71,3.7,180,1005.84,26.6,10.00
48459,CHON BURI,ชลบุรี,ชลบุรี,13.36667,100.98333,8.60,08-29-2019,22:00:00,0.00,24.9,1004.33,81,31.54,0.0,000,1004.61,28.5,10.00
48460,KO SICHANG,เกาะสีชัง,ชลบุรี,13.16167,100.80194,19.70,08-29-2019,22:00:00,0.00,23.8,1001.38,72,29.49,11.1,120,1004.48,29.3,10.00
48461,PHATTHAYA,พัทยา,ชลบุรี,12.92000,100.86944,0.40,08-29-2019,22:00:00,0.00,23.2,998.11,71,28.37,9.3,210,1004.99,29.0,10.00
48462,ARANYA PRATHET,อรัญประเทศ,สระแก้ว,13.70000,102.58333,6.60,08-29-2019,22:00:00,0.00,25.1,998.81,92,31.79,5.6,260,1004.40,26.5,7.00
48464,RATCHA BURI,ราชบุรี,ราชบุรี,13.48931,99.79239,2.80,08-29-2019,22:00:00,0.00,23.7,1004.23,86,29.25,7.4,270,1005.50,26.3,10.00
48465,PHETCHA BURI,เพชรบุรี,เพชรบุรี,12.99944,100.06056,7.20,08-29-2019,22:00:00,0.00,22.8,1004.42,76,27.73,0.0,000,1004.85,27.5,11.00
48474,NONG PHLUB AGROMET.,หนองพลับ สกษ.,ประจวบคีรีขันธ์,12.58333,99.73333,0.00,08-29-2019,22:00:00,0.00,21.6,992.91,75,25.79,0.0,000,1005.17,26.4,8.00
48475,HUA HIN,หัวหิน,ประจวบคีรีขันธ์,12.58611,99.96250,0.00,08-29-2019,22:00:00,0.00,22.6,1004.19,74,27.49,5.6,240,1004.90,27.8,10.00
48477,SATTAHIP,สัตหีบ,ชลบุรี,12.68333,100.98333,0.01,08-29-2019,22:00:00,0.00,23.4,1003.60,70,28.86,7.4,240,1006.02,29.4,10.00
48478,RAYONG,ระยอง,ระยอง,12.63222,101.34361,0.90,08-29-2019,22:00:00,0.01,24.5,1004.88,78,30.73,14.8,250,1005.40,28.8,9.00
48479,HUAI PONG AGROMET.,ห้วยโป่ง สกษ.,ระยอง,12.73333,101.13333,0.01,08-29-2019,22:00:00,0.00,23.9,999.77,77,29.57,0.0,000,1004.89,28.2,9.00
48480,CHANTHA BURI,จันทบุรี,จันทบุรี,12.61667,102.11333,17.50,08-29-2019,22:00:00,1.00,26.0,1004.97,97,33.67,0.0,000,1005.39,26.6,6.00
48481,PHLIU  AGROMET.,พลิ้ว สกษ.,จันทบุรี,12.50861,102.17305,50.90,08-29-2019,22:00:00,0.80,25.3,1002.96,97,32.29,0.0,000,1005.74,25.9,8.00
48500,PRACHUAP KHIRIKHAN,ประจวบคีรีขันธ์,ประจวบคีรีขันธ์,11.83333,99.83333,2.80,08-29-2019,22:00:00,0.00,23.3,1005.49,80,28.67,0.0,000,1006.27,27.0,10.00
48501,TRAD,ตราด,ตราด,11.76667,102.88333,64.90,08-29-2019,22:00:00,11.00,24.6,1004.89,92,30.84,5.6,250,1005.35,26.0,6.00
48517,CHUMPHON,ชุมพร,ชุมพร,10.49875,99.18847,13.60,08-29-2019,22:00:00,0.60,23.5,1007.09,95,28.97,0.0,000,1007.78,24.4,8.00
48520,SAWI AGROMET.,สวี สกษ.,ชุมพร,10.33333,99.10000,31.20,08-29-2019,22:00:00,0.80,21.9,1005.18,90,26.25,0.0,000,1006.73,23.7,7.00
48532,RANONG,ระนอง,ระนอง,9.98333,98.61667,51.30,08-29-2019,22:00:00,0.00,23.5,1008.06,95,28.97,0.0,000,1008.99,24.4,10.00
48550,KO SAMUI,เกาะสมุย,สุราษฎร์ธานี,9.46667,100.05000,0.50,08-29-2019,22:00:00,0.00,23.7,1007.56,86,29.33,0.0,000,1008.25,26.2,10.00
48551,SURAT THANI,สุราษฎร์ธานี,สุราษฎร์ธานี,9.13556,99.15194,6.40,08-29-2019,22:00:00,0.20,23.4,1008.32,98,28.77,3.7,230,1009.13,23.7,8.00
48552,NAKHONSI THAMMARAT,นครศรีธรรมราช,นครศรีธรรมราช,8.53778,99.96389,9.90,08-29-2019,22:00:00,5.50,24.3,1007.58,96,30.32,0.0,000,1008.22,25.0,9.00
48554,NAKHONSI THAMMARAT AGROMET.,นครศรีธรรมราช สกษ.,นครศรีธรรมราช,8.35931,100.00000,7.00,08-29-2019,22:00:00,0.80,24.3,1008.09,97,30.30,0.0,000,1008.50,24.7,10.00
48555,SURAT THANI AGROMET.,สุราษฎร์ธานี สกษ.,สุราษฎร์ธานี,9.10000,99.63333,5.30,08-29-2019,22:00:00,0.50,22.9,1006.95,96,27.83,0.0,000,1011.22,23.6,4.00
48556,PHRA SANG,พระแสง สอท.,สุราษฎร์ธานี,8.57022,99.25825,10.30,08-29-2019,22:00:00,0.50,23.8,1007.02,93,29.52,0.0,000,1008.64,25.0,7.00
48557,CHAWANG,ฉวาง,นครศรีธรรมราช,8.43194,99.51194,22.60,08-29-2019,22:00:00,9.60,23.3,1005.79,96,28.53,0.0,000,1009.30,24.0,10.00
48560,PHATTHALUNG AGROMET.,พัทลุง สกษ.,พัทลุง,7.58333,100.16667,8.20,08-29-2019,22:00:00,0.00,24.9,1007.53,99,31.58,0.0,000,1008.89,25.1,7.00
48561,TAKUA PA,ตะกั่วป่า,พังงา,8.68417,98.25222,35.80,08-29-2019,22:00:00,17.10,24.3,1008.03,100,30.36,0.0,000,1008.92,24.3,8.00
48563,KRABI,กระบี่,กระบี่,8.10361,98.97528,40.10,08-29-2019,22:00:00,0.00,24.9,1005.31,98,31.49,0.0,000,1008.89,25.2,10.00
48564,PHUKET,ภูเก็ต,ภูเก็ต,7.88333,98.40000,7.60,08-29-2019,22:00:00,0.00,24.4,1008.43,80,30.59,0.0,000,1008.86,28.3,10.00
48565,PHUKET AIRPORT,ภูเก็ต (ศูนย์ฯ),ภูเก็ต,8.14500,98.31444,0.50,08-29-2019,22:00:00,0.00,23.4,1007.56,74,28.78,9.3,300,1008.54,28.5,10.00
48566,KO LANTA,เกาะลันตา,กระบี่,7.53333,99.05000,0.00,08-29-2019,22:00:00,0.00,25.4,1008.47,84,32.47,18.5,280,1009.28,28.4,10.00
48567,TRANG AIRPORT,ตรัง,ตรัง,7.51667,99.61667,25.90,08-29-2019,22:00:00,0.00,24.4,1007.70,97,30.58,0.0,000,1009.53,25.0,10.00
48568,SONGKHLA,สงขลา,สงขลา,7.18211,100.60769,1.00,08-29-2019,22:00:00,0.00,22.6,1009.41,83,27.39,1.9,180,1010.17,25.7,11.00
48569,HAT YAI AIRPORT,หาดใหญ่,สงขลา,6.91667,100.43333,22.60,08-29-2019,22:00:00,0.01,23.6,1005.71,98,29.12,5.6,100,1009.76,23.9,10.00
48570,SATUN,สตูล,สตูล,6.65000,100.08333,12.20,08-29-2019,22:00:00,0.00,23.6,1009.27,93,29.16,0.0,000,1009.96,24.8,10.00
48571,KHO HONG AGROMET.,คอหงษ์ สกษ.,สงขลา,7.00000,100.50000,8.40,08-29-2019,22:00:00,0.00,23.6,1008.54,97,29.13,0.0,000,1009.67,24.2,10.00
48574,SA DAO,สะเดา,สงขลา,6.79806,100.39056,16.90,08-29-2019,22:00:00,0.01,24.2,1006.98,96,30.13,0.0,000,1009.93,24.9,10.00
48580,PATTANI AIRPORT,ปัตตานี,ปัตตานี,6.78333,101.15000,11.20,08-29-2019,22:00:00,0.00,23.5,1008.88,97,28.96,0.0,000,1009.57,24.1,7.00
48583,NARATHIWAT,นราธิวาส,นราธิวาส,6.41667,101.81667,0.30,08-29-2019,22:00:00,0.00,22.9,1008.00,83,27.92,9.3,180,1008.59,26.0,8.00
