WmoStationNumber,StationNameEnglish,StationNameThai,Province,Latitude,Longitude,DewPoint,Date,Time,Rainfall,Rainfall24Hr,VaporPressure,AirTemperature,MeanSeaLevelPressure,StationPressure,WindSpeed,LandVisibility,WindDirection,RelativeHumidity
48300,MAE HONG SON,แม่ฮ่องสอน,แม่ฮ่องสอน,19.29897,97.97578,24.4,08-26-2019,01:00:00,0.00,4.00,30.63,25.6,1006.39,975.45,0.0,6.00,000,93
48302,DOI ANG KANG,ดอยอ่างขาง,เชียงใหม่,19.93139,99.04833,18.8,08-26-2019,01:00:00,0.00,0.00,21.63,19.4,1004.62,844.03,11.1,8.00,200,96
48303,CHIANG RAI,เชียงราย,เชียงราย,19.96139,99.88139,23.5,08-26-2019,01:00:00,0.00,0.00,28.98,26.3,1004.69,961.27,0.0,12.00,000,85
48304,CHAING RAI AGROMET.,เชียงราย สกษ.,เชียงราย,19.87083,99.78278,23.9,08-26-2019,01:00:00,0.00,3.00,29.74,25.7,1005.11,959.69,0.0,12.00,000,90
48307,THUNG CHANG,ทุ่งช้าง,น่าน,19.41194,100.88353,24.6,08-26-2019,01:00:00,0.00,6.10,30.87,25.3,1007.03,969.35,0.0,5.00,000,96
48310,PHAYAO,พะเยา,พะเยา,19.13333,99.90000,23.4,08-26-2019,01:00:00,0.00,2.00,28.83,25.2,1003.84,958.84,0.0,10.00,000,90
48315,THA WANGPHA,ท่าวังผา,น่าน,19.11056,100.80250,24.8,08-26-2019,01:00:00,1.10,1.10,31.30,26.1,1006.05,979.36,9.3,6.00,120,93
48324,THOEN,เถิน,ลำปาง,17.63661,99.24475,24.1,08-26-2019,01:00:00,0.00,4.90,30.07,25.3,1005.63,983.83,1.9,12.00,090,93
48325,MAE SARIANG,แม่สะเรียง,แม่ฮ่องสอน,18.16667,97.93333,23.5,08-26-2019,01:00:00,0.00,0.60,29.00,25.0,1007.15,982.95,0.0,6.00,000,92
48327,CHIANG MAI,เชียงใหม่,เชียงใหม่,18.79000,98.97694,23.1,08-26-2019,01:00:00,0.00,0.00,28.18,26.0,1005.33,970.88,3.7,10.00,200,84
48328,LAMPANG,ลำปาง,ลำปาง,18.28333,99.51667,23.3,08-26-2019,01:00:00,0.00,0.00,28.59,25.5,1007.52,979.90,0.0,10.00,000,88
48329,LAMPHUN,ลำพูน,ลำพูน,18.56722,99.03389,24.6,08-26-2019,01:00:00,0.00,0.30,30.84,26.0,1006.42,972.86,0.0,10.00,000,92
48330,PHRAE,แพร่,แพร่,18.16667,100.16667,24.6,08-26-2019,01:00:00,0.00,1.50,30.84,26.0,1004.96,986.47,0.0,10.00,000,92
48331,NAN,น่าน,น่าน,18.77972,100.77778,25.1,08-26-2019,01:00:00,0.00,0.30,31.80,27.5,1005.22,982.52,0.0,10.00,000,87
48333,NAN AGROMET.,น่าน สกษ.,น่าน,18.86667,100.75000,24.2,08-26-2019,01:00:00,0.00,0.00,30.26,26.7,1005.06,975.27,0.0,6.00,000,86
48334,LAMPANG AGROMET.,ลำปาง สกษ.,ลำปาง,18.31667,99.28333,24.7,08-26-2019,01:00:00,0.00,0.00,31.08,25.7,1004.79,969.31,0.0,6.00,000,94
48350,LOEI AGROMET.,เลย สกษ.,เลย,17.40000,101.73333,23.6,08-26-2019,01:00:00,0.00,1.20,29.16,24.8,1004.64,974.85,0.0,10.00,000,93
48351,UTTARADIT,อุตรดิตถ์,อุตรดิตถ์,17.61667,100.10000,25.0,08-26-2019,01:00:00,0.00,7.30,31.71,26.6,1005.72,998.42,0.0,9.00,000,91
48352,NONG KHAI,หนองคาย,หนองคาย,17.86717,102.73303,24.8,08-26-2019,01:00:00,14.20,41.00,31.33,25.4,1003.89,983.97,5.6,3.00,010,97
48353,LOEI,เลย,เลย,17.45000,101.73333,24.3,08-26-2019,01:00:00,0.00,1.20,30.43,26.5,1004.59,976.00,0.0,12.00,000,88
48354,UDON THANI,อุดรธานี,อุดรธานี,17.38333,102.80000,25.5,08-26-2019,01:00:00,7.20,23.70,32.63,26.5,1004.60,984.46,7.4,5.00,080,94
48355,SAKON NAKHON AGROMET.,สกลนคร สกษ.,สกลนคร,17.12503,104.06100,24.6,08-26-2019,01:00:00,0.01,2.60,31.00,25.8,1005.91,984.14,0.0,9.00,000,93
48356,SAKON NAKHON,สกลนคร,สกลนคร,17.15000,104.13333,25.4,08-26-2019,01:00:00,0.00,13.50,32.37,25.8,1004.78,985.27,0.0,10.00,000,97
48357,NAKHON PHANOM,นครพนม,นครพนม,17.41083,104.78250,24.2,08-26-2019,01:00:00,0.00,5.90,30.15,25.2,1005.54,988.73,0.0,10.00,000,94
48358,NAKHON PHANOM AGROMET.,นครพนม สกษ.,นครพนม,17.44306,104.77361,23.8,08-26-2019,01:00:00,0.00,0.00,29.42,24.8,1005.55,988.05,0.0,10.00,000,94
48360,NONG BUA LAM PHU,หนองบัวลำภู,หนองบัวลำภู,17.23250,102.42944,25.4,08-26-2019,01:00:00,0.00,24.50,32.53,27.3,1004.37,978.70,0.0,10.00,000,90
48372,SUKHOTHAI*,สุโขทัย,สุโขทัย,17.10611,99.80000,26.1,08-26-2019,01:00:00,0.00,4.40,33.80,26.1,1005.09,999.30,0.0,10.00,000,100
48373,SI SAMRONG AGROMET.,ศรีสำโรง สกษ.,สุโขทัย,17.16136,99.86167,25.7,08-26-2019,01:00:00,0.00,6.10,33.04,26.0,1005.51,999.31,0.0,10.00,000,98
48374,LOM SAK,หล่มสัก,เพชรบูรณ์,16.77361,101.24944,23.8,08-26-2019,01:00:00,0.00,0.70,29.52,25.0,1006.31,989.78,9.3,10.00,210,93
48375,MAE SOT,แม่สอด,ตาก,16.65917,98.55083,23.2,08-26-2019,01:00:00,0.20,10.20,28.44,24.1,1005.69,983.19,3.7,8.00,150,95
48376,TAK,ตาก,ตาก,16.87833,99.14333,22.2,08-26-2019,01:00:00,0.00,0.00,26.67,27.2,1006.35,991.99,9.3,7.00,270,74
48377,BHUMIBOL DAM,เขื่อนภูมิพล,ตาก,17.24389,99.00250,23.6,08-26-2019,01:00:00,0.00,0.00,29.19,28.0,1004.82,988.53,0.0,7.00,000,77
48378,PHITSANULOK,พิษณุโลก,พิษณุโลก,16.79481,100.27930,24.3,08-26-2019,01:00:00,0.50,4.20,30.42,25.2,1006.21,1000.96,0.0,10.00,000,95
48379,PHETCHABUN,เพชรบูรณ์,เพชรบูรณ์,16.43333,101.15000,24.3,08-26-2019,01:00:00,1.00,5.80,30.42,25.2,1005.08,991.83,0.0,10.00,000,95
48380,KAMPHAENG PHET,กำแพงเพชร,กำแพงเพชร,16.48681,99.52697,24.7,08-26-2019,01:00:00,0.00,1.20,31.08,25.7,1005.90,996.55,0.0,10.00,000,94
48381,KHON KAEN,ขอนแก่น,ขอนแก่น,16.46111,102.78972,25.3,08-26-2019,01:00:00,4.20,13.40,32.26,25.6,1005.10,983.36,0.0,8.00,000,98
48382,MAHASARAKHAM,มหาสารคาม,มหาสารคาม,16.24722,103.06805,24.1,08-26-2019,01:00:00,2.80,14.70,30.02,27.0,1005.46,987.99,9.3,8.00,220,84
48383,MUKDAHAN,มุกดาหาร,มุกดาหาร,16.54139,104.72889,24.3,08-26-2019,01:00:00,0.40,19.50,30.32,25.0,1005.00,989.10,0.0,7.00,000,96
48384,THA PHRA AGROMET.,ท่าพระ สกษ.,ขอนแก่น,16.33333,102.81667,24.1,08-26-2019,01:00:00,1.40,5.10,29.97,25.1,1004.30,985.36,0.0,5.00,000,94
48385,UMPHANG,อุ้มผาง,ตาก,16.02472,98.86444,21.8,08-26-2019,01:00:00,0.00,0.70,26.09,23.0,1007.82,956.11,0.0,5.00,000,93
48386,PICHIT AGROMET.,พิจิตร สกษ.,พิจิตร,16.43806,100.29250,25.2,08-26-2019,01:00:00,0.70,0.80,32.01,25.9,1005.87,1001.90,3.7,6.00,090,96
48387,DOI MU SOE AGROMET.,ดอยมูเซอร์ สกษ.,ตาก,16.75000,98.93333,20.0,08-26-2019,01:00:00,0.50,8.40,23.41,20.5,1007.28,911.86,14.8,.80,210,97
48390,KALASIN,กาฬสินธุ์,กาฬสินธุ์,16.33250,103.58833,25.6,08-26-2019,01:00:00,2.00,8.00,32.84,25.9,1005.53,989.51,9.3,4.00,180,98
48400,NAKHON SAWAN,นครสวรรค์ ,นครสวรรค์,15.67183,100.13236,25.2,08-26-2019,01:00:00,0.00,6.40,32.04,26.2,1006.27,1002.23,0.0,7.00,000,94
48401,TAKFA AGROMET.,ตากฟ้า สกษ.,นครสวรรค์,15.34944,100.53028,24.9,08-26-2019,01:00:00,0.20,2.20,31.55,25.8,1007.18,996.46,0.0,7.00,000,95
48402,CHAINAT AGROMET.,ชัยนาท สกษ.,ชัยนาท,15.15000,100.18333,24.8,08-26-2019,01:00:00,0.00,0.40,31.38,27.0,1007.19,1005.26,3.7,9.00,180,88
48403,CHAIYAPHUM,ชัยภูมิ,ชัยภูมิ,15.80000,102.03333,23.2,08-26-2019,01:00:00,3.70,8.40,28.48,25.0,1005.86,984.88,0.0,10.00,000,90
48404,ROI ET AGROMET.,ร้อยเอ็ด สกษ.,ร้อยเอ็ด,16.07322,103.60844,24.3,08-26-2019,01:00:00,75.00,105.30,30.40,24.9,1005.48,987.73,0.0,6.00,000,97
48405,ROI ET,ร้อยเอ็ด,ร้อยเอ็ด,16.02000,103.74389,24.6,08-26-2019,01:00:00,39.90,71.50,30.91,24.6,1005.25,988.99,0.0,6.00,000,100
48407,UBON RATCHATHANI,อุบลราชธานี (ศูนย์ฯ),อุบลราชธานี,15.25000,104.86667,24.0,08-26-2019,01:00:00,0.80,27.60,29.85,24.6,1006.73,992.59,5.6,10.00,200,97
48408,UBON RATCHATHANI AGROMET.,อุบลราชธานี สกษ.,อุบลราชธานี,15.23914,105.02350,23.8,08-26-2019,01:00:00,7.50,20.70,29.49,24.4,1007.25,992.29,3.7,9.00,180,97
48409,SI SAKET AGROMET.,ศรีสะเกษ,ศรีสะเกษ,15.00000,104.05000,24.8,08-26-2019,01:00:00,1.40,35.70,31.39,25.0,1007.78,993.00,0.0,4.00,000,99
48410,UTHAITHANI,อุทัยธานี,อุทัยธานี,15.37417,100.03889,25.9,08-26-2019,01:00:00,0.10,15.30,33.34,27.0,1006.46,1003.45,0.0,8.00,"{'0': '   ', '@attributes': {'Unit': 'degree'}}",94
48413,WICHIAN BURI,วิเชียรบุรี,เพชรบูรณ์,15.65700,101.10800,24.3,08-26-2019,01:00:00,0.20,2.40,30.46,25.8,1006.39,998.41,0.0,7.00,000,92
48415,AYUTTHAYA,พระนครศรีอยุธยา,พระนครศรีอยุธยา,14.53472,100.72500,24.2,08-26-2019,01:00:00,0.30,1.60,30.26,26.7,1008.04,1006.93,9.3,7.00,170,86
48416,THA TUM,ท่าตูม,สุรินทร์,15.31667,103.68333,25.0,08-26-2019,01:00:00,0.00,22.80,31.71,26.6,1004.69,990.02,5.6,8.00,100,91
48417,NAKORNNAYOK,นครนายก,นครนายก,14.36222,101.39278,19.4,08-26-2019,01:00:00,13.20,67.60,22.51,19.4,1008.42,873.20,0.0,.05,000,100
48418,BUA CHUM,บัวชุม  ,ลพบุรี,15.26667,101.18736,25.3,08-26-2019,01:00:00,0.10,18.30,32.18,25.7,1006.78,1000.88,3.7,9.00,190,97
48419,PATHUMTHANI,ปทุมธานี สกษ.,ปทุมธานี,14.10000,100.61667,24.9,08-26-2019,01:00:00,1.60,11.80,31.49,26.2,1007.91,1007.11,5.6,8.00,230,93
48420,Samut Prakarn,สมุทรปราการ สกษ.,สมุทรปราการ,13.51667,100.76167,25.1,08-26-2019,01:00:00,2.80,3.80,31.88,26.4,1007.85,1007.40,11.1,4.00,230,93
48421,THONG PHAPHUM,ทองผาภูมิ,กาญจนบุรี,14.74222,98.63639,24.0,08-26-2019,01:00:00,0.00,9.80,29.79,25.0,1008.35,996.96,0.0,3.00,000,94
48425,SUPHAN BURI,สุพรรณบุรี,สุพรรณบุรี,14.47444,100.13889,24.0,08-26-2019,01:00:00,0.00,2.40,29.77,27.3,1007.24,1006.23,3.7,10.00,210,82
48426,LOP BURI,ลพบุรี,ลพบุรี,14.79972,100.64500,24.0,08-26-2019,01:00:00,0.00,3.60,29.89,26.5,1007.11,1005.29,0.0,7.00,000,86
48427,U THONG AGROMET.,อู่ทอง สกษ.,สุพรรณบุรี,14.30361,99.86472,22.6,08-26-2019,01:00:00,0.00,0.50,27.36,27.0,1007.26,1006.50,7.4,7.00,230,77
48429,SUVARNABHUMI AIRPORT,สนามบินสุวรรณภูมิ,สมุทรปราการ,13.68639,100.76750,24.0,08-26-2019,01:00:00,4.10,4.30,29.80,25.3,1008.38,1007.67,9.3,9.00,210,92
48430,PRACHIN BURI,ปราจีนบุรี,ปราจีนบุรี,14.05842,101.36930,24.6,08-26-2019,01:00:00,7.80,25.70,30.84,26.0,1007.86,1007.15,3.7,6.00,240,92
48431,NAKHON RATCHASIMA,นครราชสีมา,นครราชสีมา,14.96830,102.08603,23.9,08-26-2019,01:00:00,3.30,37.50,29.61,24.9,1006.79,985.50,9.3,10.00,230,94
48432,SURIN,สุรินทร์,สุรินทร์,14.88333,103.50000,24.1,08-26-2019,01:00:00,8.50,66.00,30.07,25.3,1007.15,990.34,11.1,7.00,220,93
48433,SURIN AGROMET.,สุรินทร์ สกษ.,สุรินทร์,14.88333,103.45000,24.2,08-26-2019,01:00:00,11.50,104.00,30.15,25.2,1007.50,990.97,3.7,5.00,270,94
48434,CHOK CHAI,โชคชัย,นครราชสีมา,14.71889,102.16861,23.7,08-26-2019,01:00:00,3.90,4.30,29.26,25.0,1006.95,984.96,0.0,10.00,000,92
48435,PAKCHONG AGROMET.,ปากช่อง สกษ.,นครราชสีมา,14.64389,101.33194,22.0,08-26-2019,01:00:00,0.50,1.60,26.43,25.0,1007.24,963.71,7.4,9.00,220,83
48436,NANG RONG,นางรอง,บุรีรัมย์,14.58333,102.80000,23.1,08-26-2019,01:00:00,2.60,6.80,28.27,24.0,1006.30,985.55,5.6,7.00,200,95
48437,BURIRUM,บุรีรัมย์,บุรีรัมย์,15.22575,103.24808,23.0,08-26-2019,01:00:00,2.40,6.60,28.07,23.0,1008.11,987.00,16.7,7.00,230,100
48438,SAMUTSONGKRAM,สมุทรสงคราม,สมุทรสงคราม,13.40778,100.03222,24.7,08-26-2019,01:00:00,1.20,1.50,31.08,26.7,1008.46,1008.03,0.0,9.00,000,89
48439,KABIN BURI,กบินทร์บุรี,ปราจีนบุรี,13.98333,101.70722,23.8,08-26-2019,01:00:00,8.50,44.80,29.41,24.5,1007.93,1006.50,0.0,6.00,000,96
48440,SA KAEW,สระแก้ว,สระแก้ว,13.78889,102.03472,24.3,08-26-2019,01:00:00,14.40,19.00,30.38,24.6,1008.01,1003.04,0.0,6.00,000,98
48450,KANCHANA BURI,กาญจนบุรี,กาญจนบุรี,14.02250,99.53583,24.4,08-26-2019,01:00:00,2.20,2.20,30.59,26.3,1007.79,1004.48,0.0,4.00,000,89
48451,NAKHONPATHOM,นครปฐม,นครปฐม,14.01167,99.97000,24.5,08-26-2019,01:00:00,0.00,0.70,30.67,26.2,1007.77,1006.66,0.0,10.00,000,90
48453,BANG NA AGROMET.,กรุงเทพฯ บางนา สกษ.,กรุงเทพมหานคร,13.66639,100.60611,24.4,08-26-2019,01:00:00,2.10,3.10,30.59,26.3,1007.92,1007.62,0.0,8.00,000,89
48455,BANGKOK METROPOLIS,กรุงเทพมหานคร,กรุงเทพมหานคร,13.72639,100.56000,25.1,08-26-2019,01:00:00,2.00,3.10,31.82,25.8,1008.06,1007.57,0.0,10.00,000,96
48456,DON MUANG AIRPORT,สนามบินดอนเมือง,กรุงเทพมหานคร,13.91917,100.60500,24.4,08-26-2019,01:00:00,3.40,10.20,30.50,25.1,1007.94,1006.52,11.1,9.00,210,96
48458,CHACHOENGSAO,ฉะเชิงเทรา,ฉะเชิงเทรา,13.51556,101.45833,24.7,08-26-2019,01:00:00,2.20,2.40,31.08,25.7,1010.00,1001.94,3.7,10.00,230,94
48459,CHON BURI,ชลบุรี,ชลบุรี,13.36667,100.98333,24.5,08-26-2019,01:00:00,1.90,1.90,30.70,26.5,1008.28,1007.99,3.7,8.00,290,89
48460,KO SICHANG,เกาะสีชัง,ชลบุรี,13.16167,100.80194,24.1,08-26-2019,01:00:00,0.00,0.00,30.02,27.0,1008.10,1004.96,0.0,10.00,000,84
48461,PHATTHAYA,พัทยา,ชลบุรี,12.92000,100.86944,23.2,08-26-2019,01:00:00,0.00,0.00,28.47,27.9,1008.30,1001.38,0.0,10.00,000,76
48462,ARANYA PRATHET,อรัญประเทศ,สระแก้ว,13.70000,102.58333,23.4,08-26-2019,01:00:00,9.30,9.90,28.78,24.0,1007.86,1002.20,7.4,6.00,250,97
48464,RATCHA BURI,ราชบุรี,ราชบุรี,13.48931,99.79239,24.0,08-26-2019,01:00:00,1.60,1.60,29.80,25.3,1008.72,1007.44,0.0,10.00,000,92
48465,PHETCHA BURI,เพชรบุรี,เพชรบุรี,12.99944,100.06056,23.1,08-26-2019,01:00:00,0.90,0.90,28.28,26.2,1008.13,1007.70,0.0,11.00,000,83
48474,NONG PHLUB AGROMET.,หนองพลับ สกษ.,ประจวบคีรีขันธ์,12.58333,99.73333,23.5,08-26-2019,01:00:00,0.20,3.70,28.97,24.4,1008.49,996.11,0.0,8.00,000,95
48475,HUA HIN,หัวหิน,ประจวบคีรีขันธ์,12.58611,99.96250,23.4,08-26-2019,01:00:00,0.10,0.10,28.70,26.0,1008.22,1007.50,0.0,10.00,000,85
48477,SATTAHIP,สัตหีบ,ชลบุรี,12.68333,100.98333,22.5,08-26-2019,01:00:00,0.00,0.30,27.18,28.5,1008.14,1005.72,11.1,10.00,250,70
48478,RAYONG,ระยอง,ระยอง,12.63222,101.34361,23.1,08-26-2019,01:00:00,0.01,0.10,28.24,28.5,1008.44,1007.92,5.6,8.00,260,73
48479,HUAI PONG AGROMET.,ห้วยโป่ง สกษ.,ระยอง,12.73333,101.13333,23.7,08-26-2019,01:00:00,0.00,0.60,29.33,27.5,1008.30,1003.15,0.0,8.00,000,80
48480,CHANTHA BURI,จันทบุรี,จันทบุรี,12.61667,102.11333,25.5,08-26-2019,01:00:00,0.40,25.20,32.63,26.5,1008.62,1008.20,0.0,7.00,000,94
48481,PHLIU  AGROMET.,พลิ้ว สกษ.,จันทบุรี,12.50861,102.17305,25.3,08-26-2019,01:00:00,0.30,10.90,32.20,26.0,1008.63,1005.85,0.0,8.00,000,96
48500,PRACHUAP KHIRIKHAN,ประจวบคีรีขันธ์,ประจวบคีรีขันธ์,11.83333,99.83333,22.5,08-26-2019,01:00:00,1.20,2.60,27.21,25.6,1008.51,1007.72,7.4,6.00,280,83
48501,TRAD,ตราด,ตราด,11.76667,102.88333,24.0,08-26-2019,01:00:00,0.00,18.40,29.88,27.5,1008.98,1008.53,7.4,6.00,240,81
48517,CHUMPHON,ชุมพร,ชุมพร,10.49875,99.18847,21.9,08-26-2019,01:00:00,0.90,7.40,26.35,24.8,1009.77,1009.08,7.4,8.00,280,84
48520,SAWI AGROMET.,สวี สกษ.,ชุมพร,10.33333,99.10000,22.6,08-26-2019,01:00:00,0.00,8.00,27.47,25.6,1009.33,1007.79,3.7,7.00,240,84
48532,RANONG,ระนอง,ระนอง,9.98333,98.61667,24.2,08-26-2019,01:00:00,0.00,70.20,30.17,25.5,1010.51,1009.59,0.0,10.00,000,93
48550,KO SAMUI,เกาะสมุย,สุราษฎร์ธานี,9.46667,100.05000,22.7,08-26-2019,01:00:00,0.00,4.00,27.60,26.7,1009.92,1009.23,0.0,10.00,000,79
48551,SURAT THANI,สุราษฎร์ธานี,สุราษฎร์ธานี,9.13556,99.15194,23.6,08-26-2019,01:00:00,0.00,0.80,29.15,24.5,1010.24,1009.43,3.7,10.00,180,95
48552,NAKHONSI THAMMARAT,นครศรีธรรมราช,นครศรีธรรมราช,8.53778,99.96389,22.1,08-26-2019,01:00:00,0.00,0.00,26.64,26.3,1008.92,1008.28,0.0,10.00,000,78
48554,NAKHONSI THAMMARAT AGROMET.,นครศรีธรรมราช สกษ.,นครศรีธรรมราช,8.35931,100.00000,22.0,08-26-2019,01:00:00,0.00,0.01,26.37,26.0,1009.56,1009.15,0.0,10.00,000,78
48555,SURAT THANI AGROMET.,สุราษฎร์ธานี สกษ.,สุราษฎร์ธานี,9.10000,99.63333,22.4,08-26-2019,01:00:00,0.00,0.10,27.03,27.4,1011.23,1007.01,3.7,5.00,230,74
48556,PHRA SANG,พระแสง สอท.,สุราษฎร์ธานี,8.57022,99.25825,24.3,08-26-2019,01:00:00,0.00,8.60,30.32,25.0,1010.18,1008.56,0.0,10.00,000,96
48557,CHAWANG,ฉวาง,นครศรีธรรมราช,8.43194,99.51194,23.8,08-26-2019,01:00:00,0.00,5.80,29.41,24.5,1009.66,1006.15,0.0,6.00,000,96
48560,PHATTHALUNG AGROMET.,พัทลุง สกษ.,พัทลุง,7.58333,100.16667,24.3,08-26-2019,01:00:00,0.00,9.70,30.30,24.7,1009.89,1008.52,0.0,7.00,000,97
48561,TAKUA PA,ตะกั่วป่า,พังงา,8.68417,98.25222,23.6,08-26-2019,01:00:00,0.00,10.30,29.15,24.5,1010.55,1009.65,0.0,10.00,000,95
48563,KRABI,กระบี่,กระบี่,8.10361,98.97528,23.9,08-26-2019,01:00:00,0.00,14.40,29.61,24.9,1010.22,1006.63,0.0,10.00,000,94
48564,PHUKET,ภูเก็ต,ภูเก็ต,7.88333,98.40000,23.9,08-26-2019,01:00:00,0.00,14.80,29.60,27.5,1010.04,1009.60,0.0,10.00,000,81
48565,PHUKET AIRPORT,ภูเก็ต (ศูนย์ฯ),ภูเก็ต,8.14500,98.31444,24.0,08-26-2019,01:00:00,0.00,10.60,29.82,28.9,1009.44,1008.45,11.1,10.00,320,75
48566,KO LANTA,เกาะลันตา,กระบี่,7.53333,99.05000,24.7,08-26-2019,01:00:00,0.00,17.00,31.18,28.6,1010.11,1009.29,22.2,10.00,270,80
48567,TRANG AIRPORT,ตรัง,ตรัง,7.51667,99.61667,24.6,08-26-2019,01:00:00,0.00,57.80,30.87,25.3,1010.06,1008.23,0.0,10.00,000,96
48568,SONGKHLA,สงขลา,สงขลา,7.18211,100.60769,22.6,08-26-2019,01:00:00,0.00,2.20,27.47,25.6,1010.01,1009.25,1.9,10.00,220,84
48569,HAT YAI AIRPORT,หาดใหญ่,สงขลา,6.91667,100.43333,23.5,08-26-2019,01:00:00,0.00,2.40,28.98,24.7,1010.29,1006.25,3.7,10.00,990,93
48570,SATUN,สตูล,สตูล,6.65000,100.08333,23.3,08-26-2019,01:00:00,0.00,87.20,28.56,24.9,1010.11,1009.42,0.0,10.00,000,91
48571,KHO HONG AGROMET.,คอหงษ์ สกษ.,สงขลา,7.00000,100.50000,24.0,08-26-2019,01:00:00,0.00,8.60,29.91,25.5,1010.23,1009.10,0.0,10.00,000,92
48574,SA DAO,สะเดา,สงขลา,6.79806,100.39056,23.8,08-26-2019,01:00:00,0.00,10.40,29.41,24.5,1010.73,1007.78,0.0,10.00,000,96
