WmoStationNumber,StationNameEnglish,StationNameThai,Province,Latitude,Longitude,LandVisibility,Date,Time,Rainfall24Hr,AirTemperature,WindDirection,VaporPressure,DewPoint,WindSpeed,Rainfall,RelativeHumidity,StationPressure,MeanSeaLevelPressure
48300,MAE HONG SON,แม่ฮ่องสอน,แม่ฮ่องสอน,19.29897,97.97578,15.00,08-28-2019,16:00:00,2.40,31.3,000,31.80,25.1,0.0,0.60,70,972.03,1002.27
48302,DOI ANG KANG,ดอยอ่างขาง,เชียงใหม่,19.93139,99.04833,7.00,08-28-2019,16:00:00,5.50,21.5,120,24.91,21.0,5.6,0.00,97,842.90,1002.05
48303,CHIANG RAI,เชียงราย,เชียงราย,19.96139,99.88139,15.00,08-28-2019,16:00:00,14.50,31.5,060,30.77,24.5,11.1,0.00,67,960.09,1002.70
48304,CHAING RAI AGROMET.,เชียงราย สกษ.,เชียงราย,19.87083,99.78278,15.00,08-28-2019,16:00:00,32.20,30.9,240,30.13,24.2,7.4,0.00,67,958.20,1002.76
48307,THUNG CHANG,ทุ่งช้าง,น่าน,19.41194,100.88353,12.00,08-28-2019,16:00:00,27.40,29.6,000,33.50,25.9,0.0,0.00,81,966.45,1003.48
48310,PHAYAO,พะเยา,พะเยา,19.13333,99.90000,12.00,08-28-2019,16:00:00,6.90,30.0,140,31.72,25.0,5.6,0.00,75,958.76,1003.03
48315,THA WANGPHA,ท่าวังผา,น่าน,19.11056,100.80250,10.00,08-28-2019,16:00:00,27.30,31.6,160,33.32,25.9,5.6,0.60,72,977.81,1003.98
48324,THOEN,เถิน,ลำปาง,17.63661,99.24475,13.00,08-28-2019,16:00:00,0.00,33.1,240,28.32,23.1,9.3,0.00,56,982.15,1003.36
48325,MAE SARIANG,แม่สะเรียง,แม่ฮ่องสอน,18.16667,97.93333,10.00,08-28-2019,16:00:00,0.00,32.0,000,23.77,20.3,0.0,0.00,50,979.82,1003.39
48327,CHIANG MAI,เชียงใหม่,เชียงใหม่,18.79000,98.97694,10.00,08-28-2019,16:00:00,2.60,31.0,130,29.48,23.8,3.7,0.00,66,969.29,1003.11
48328,LAMPANG,ลำปาง,ลำปาง,18.28333,99.51667,10.00,08-28-2019,16:00:00,41.30,29.5,000,29.33,23.7,0.0,0.50,71,978.47,1005.68
48329,LAMPHUN,ลำพูน,ลำพูน,18.56722,99.03389,12.00,08-28-2019,16:00:00,6.40,31.0,000,28.09,23.0,0.0,0.00,63,970.20,1003.11
48330,PHRAE,แพร่,แพร่,18.16667,100.16667,10.00,08-28-2019,16:00:00,54.40,32.3,000,31.27,24.8,0.0,0.00,65,984.89,1002.98
48331,NAN,น่าน,น่าน,18.77972,100.77778,10.00,08-28-2019,16:00:00,12.00,33.0,200,30.40,24.3,7.4,0.00,60,980.88,1003.13
48333,NAN AGROMET.,น่าน สกษ.,น่าน,18.86667,100.75000,12.00,08-28-2019,16:00:00,9.80,31.0,000,30.90,24.6,0.0,0.00,69,973.93,1003.25
48334,LAMPANG AGROMET.,ลำปาง สกษ.,ลำปาง,18.31667,99.28333,7.00,08-28-2019,16:00:00,20.00,30.3,000,32.92,25.6,0.0,0.00,76,968.53,1003.43
48350,LOEI AGROMET.,เลย สกษ.,เลย,17.40000,101.73333,17.00,08-28-2019,16:00:00,0.00,32.3,300,35.15,26.8,5.6,0.00,73,973.31,1002.32
48351,UTTARADIT,อุตรดิตถ์,อุตรดิตถ์,17.61667,100.10000,10.00,08-28-2019,16:00:00,61.90,32.5,000,31.69,25.0,0.0,0.00,65,995.66,1002.80
48352,NONG KHAI,หนองคาย,หนองคาย,17.86717,102.73303,20.00,08-28-2019,16:00:00,0.00,31.2,340,36.06,27.2,5.6,0.00,79,983.64,1003.17
48353,LOEI,เลย,เลย,17.45000,101.73333,15.00,08-28-2019,16:00:00,0.01,32.3,000,30.40,24.3,0.0,0.00,63,975.37,1003.39
48354,UDON THANI,อุดรธานี,อุดรธานี,17.38333,102.80000,15.00,08-28-2019,16:00:00,0.01,32.0,010,31.81,25.1,9.3,0.00,67,983.32,1003.07
48355,SAKON NAKHON AGROMET.,สกลนคร สกษ.,สกลนคร,17.12503,104.06100,12.00,08-28-2019,16:00:00,1.40,29.5,000,33.58,26.0,0.0,0.40,81,982.26,1003.72
48356,SAKON NAKHON,สกลนคร,สกลนคร,17.15000,104.13333,15.00,08-28-2019,16:00:00,4.20,31.5,270,29.63,23.9,3.7,0.00,64,983.87,1002.99
48357,NAKHON PHANOM,นครพนม,นครพนม,17.41083,104.78250,12.00,08-28-2019,16:00:00,23.00,29.6,120,31.20,24.7,5.6,0.00,75,987.64,1004.19
48358,NAKHON PHANOM AGROMET.,นครพนม สกษ.,นครพนม,17.44306,104.77361,12.00,08-28-2019,16:00:00,3.70,31.7,000,32.94,25.7,0.0,0.00,70,987.00,1004.08
48360,NONG BUA LAM PHU,หนองบัวลำภู,หนองบัวลำภู,17.23250,102.42944,12.00,08-28-2019,16:00:00,16.80,32.0,340,31.81,25.1,3.7,0.00,67,977.26,1002.49
48372,SUKHOTHAI*,สุโขทัย,สุโขทัย,17.10611,99.80000,10.00,08-28-2019,16:00:00,10.00,32.7,000,31.82,25.1,0.0,0.00,64,997.57,1003.23
48373,SI SAMRONG AGROMET.,ศรีสำโรง สกษ.,สุโขทัย,17.16136,99.86167,12.00,08-28-2019,16:00:00,24.10,32.5,020,31.40,24.9,5.6,0.00,64,997.31,1003.36
48374,LOM SAK,หล่มสัก,เพชรบูรณ์,16.77361,101.24944,10.00,08-28-2019,16:00:00,0.00,30.6,000,28.42,23.2,0.0,0.00,65,987.73,1003.92
48375,MAE SOT,แม่สอด,ตาก,16.65917,98.55083,10.00,08-28-2019,16:00:00,2.30,26.4,240,29.43,23.8,11.1,1.20,86,981.60,1003.89
48376,TAK,ตาก,ตาก,16.87833,99.14333,8.00,08-28-2019,16:00:00,0.00,32.0,260,25.37,21.3,11.1,0.00,53,990.02,1004.13
48377,BHUMIBOL DAM,เขื่อนภูมิพล,ตาก,17.24389,99.00250,8.00,08-28-2019,16:00:00,0.20,34.2,120,29.71,23.9,11.1,0.00,55,987.21,1003.15
48378,PHITSANULOK,พิษณุโลก,พิษณุโลก,16.79481,100.27930,10.00,08-28-2019,16:00:00,0.00,32.0,270,30.36,24.3,7.4,0.00,64,998.44,1003.56
48379,PHETCHABUN,เพชรบูรณ์,เพชรบูรณ์,16.43333,101.15000,12.00,08-28-2019,16:00:00,0.00,30.1,000,31.93,25.1,0.0,0.00,75,989.49,1002.50
48380,KAMPHAENG PHET,กำแพงเพชร,กำแพงเพชร,16.48681,99.52697,12.00,08-28-2019,16:00:00,4.70,32.6,000,31.61,25.0,0.0,0.00,64,994.84,1003.96
48381,KHON KAEN,ขอนแก่น,ขอนแก่น,16.46111,102.78972,10.00,08-28-2019,16:00:00,1.80,30.0,180,32.30,25.3,5.6,0.01,76,981.70,1003.09
48382,MAHASARAKHAM,มหาสารคาม,มหาสารคาม,16.24722,103.06805,12.00,08-28-2019,16:00:00,1.90,33.5,240,33.25,25.8,11.1,0.00,64,985.71,1002.77
48383,MUKDAHAN,มุกดาหาร,มุกดาหาร,16.54139,104.72889,11.00,08-28-2019,16:00:00,1.60,31.5,050,33.40,25.9,5.6,0.00,72,987.49,1003.03
48384,THA PHRA AGROMET.,ท่าพระ สกษ.,ขอนแก่น,16.33333,102.81667,8.00,08-28-2019,16:00:00,0.60,30.4,000,35.81,27.1,0.0,0.20,82,983.60,1002.19
48385,UMPHANG,อุ้มผาง,ตาก,16.02472,98.86444,10.00,08-28-2019,16:00:00,0.40,29.5,000,25.30,21.3,0.0,0.00,61,954.65,1005.15
48386,PICHIT AGROMET.,พิจิตร สกษ.,พิจิตร,16.43806,100.29250,12.00,08-28-2019,16:00:00,0.00,33.6,320,30.20,24.2,3.7,0.00,58,999.45,1003.31
48387,DOI MU SOE AGROMET.,ดอยมูเซอร์ สกษ.,ตาก,16.75000,98.93333,7.00,08-28-2019,16:00:00,0.40,23.9,230,24.86,21.0,7.4,0.01,84,910.68,1004.84
48390,KALASIN,กาฬสินธุ์,กาฬสินธุ์,16.33250,103.58833,10.00,08-28-2019,16:00:00,0.00,31.3,000,35.06,26.7,0.0,0.00,77,987.45,1003.15
48400,NAKHON SAWAN,นครสวรรค์ ,นครสวรรค์,15.67183,100.13236,12.00,08-28-2019,16:00:00,0.00,32.6,360,34.29,26.3,3.7,0.00,70,999.59,1003.54
48401,TAKFA AGROMET.,ตากฟ้า สกษ.,นครสวรรค์,15.34944,100.53028,10.00,08-28-2019,16:00:00,0.00,33.3,300,27.59,22.7,5.6,0.00,54,993.70,1004.12
48402,CHAINAT AGROMET.,ชัยนาท สกษ.,ชัยนาท,15.15000,100.18333,12.00,08-28-2019,16:00:00,0.00,34.5,300,29.46,23.8,5.6,0.00,54,1001.29,1003.17
48403,CHAIYAPHUM,ชัยภูมิ,ชัยภูมิ,15.80000,102.03333,14.00,08-28-2019,16:00:00,0.00,33.6,010,29.04,23.6,14.8,0.00,56,982.32,1002.64
48404,ROI ET AGROMET.,ร้อยเอ็ด สกษ.,ร้อยเอ็ด,16.07322,103.60844,10.00,08-28-2019,16:00:00,0.00,31.6,000,30.12,24.2,0.0,0.00,65,985.38,1002.70
48405,ROI ET,ร้อยเอ็ด,ร้อยเอ็ด,16.02000,103.74389,10.00,08-28-2019,16:00:00,0.10,31.2,000,32.47,25.4,0.0,0.00,71,986.69,1002.55
48407,UBON RATCHATHANI,อุบลราชธานี (ศูนย์ฯ),อุบลราชธานี,15.25000,104.86667,10.00,08-28-2019,16:00:00,3.20,31.0,340,29.48,23.8,7.4,0.00,66,989.65,1003.45
48408,UBON RATCHATHANI AGROMET.,อุบลราชธานี สกษ.,อุบลราชธานี,15.23914,105.02350,10.00,08-28-2019,16:00:00,0.60,30.2,000,33.59,26.0,0.0,0.20,78,988.88,1003.50
48409,SI SAKET AGROMET.,ศรีสะเกษ,ศรีสะเกษ,15.00000,104.05000,10.00,08-28-2019,16:00:00,0.60,31.3,040,33.86,26.1,11.1,0.00,74,989.75,1004.17
48410,UTHAITHANI,อุทัยธานี,อุทัยธานี,15.37417,100.03889,10.00,08-28-2019,16:00:00,0.00,34.9,"{'0': '   ', '@attributes': {'Unit': 'degree'}}",30.60,24.4,0.0,0.00,55,1000.41,1003.34
48413,WICHIAN BURI,วิเชียรบุรี,เพชรบูรณ์,15.65700,101.10800,10.00,08-28-2019,16:00:00,0.00,33.8,000,31.21,24.8,0.0,0.00,59,995.10,1002.85
48415,AYUTTHAYA,พระนครศรีอยุธยา,พระนครศรีอยุธยา,14.53472,100.72500,8.00,08-28-2019,16:00:00,0.00,33.4,230,30.95,24.6,9.3,0.00,60,1002.76,1003.84
48416,THA TUM,ท่าตูม,สุรินทร์,15.31667,103.68333,9.00,08-28-2019,16:00:00,5.50,31.4,100,34.98,26.7,3.7,0.00,76,990.81,1005.26
48417,NAKORNNAYOK,นครนายก,นครนายก,14.36222,101.39278,6.00,08-28-2019,16:00:00,0.50,21.9,280,23.64,20.2,5.6,0.00,90,870.76,1004.39
48418,BUA CHUM,บัวชุม  ,ลพบุรี,15.26667,101.18736,10.00,08-28-2019,16:00:00,0.00,33.1,000,32.38,25.4,0.0,0.00,64,997.45,1003.19
48419,PATHUMTHANI,ปทุมธานี สกษ.,ปทุมธานี,14.10000,100.61667,10.00,08-28-2019,16:00:00,0.00,35.0,270,27.61,22.7,11.1,0.00,49,1002.96,1003.73
48420,Samut Prakarn,สมุทรปราการ สกษ.,สมุทรปราการ,13.51667,100.76167,10.00,08-28-2019,16:00:00,0.00,31.2,210,30.73,24.5,14.8,0.00,68,1003.78,1004.22
48421,THONG PHAPHUM,ทองผาภูมิ,กาญจนบุรี,14.74222,98.63639,7.00,08-28-2019,16:00:00,3.90,30.5,000,29.89,24.0,0.0,0.00,68,994.69,1005.85
48425,SUPHAN BURI,สุพรรณบุรี,สุพรรณบุรี,14.47444,100.13889,12.00,08-28-2019,16:00:00,0.00,34.6,180,28.80,23.4,3.7,0.00,52,1002.03,1003.02
48426,LOP BURI,ลพบุรี,ลพบุรี,14.79972,100.64500,9.00,08-28-2019,16:00:00,0.00,33.8,180,28.59,23.3,3.7,0.00,54,1001.55,1003.33
48427,U THONG AGROMET.,อู่ทอง สกษ.,สุพรรณบุรี,14.30361,99.86472,9.00,08-28-2019,16:00:00,0.00,35.5,270,25.22,21.2,7.4,0.00,44,1002.01,1002.76
48429,SUVARNABHUMI AIRPORT,สนามบินสุวรรณภูมิ,สมุทรปราการ,13.68639,100.76750,10.00,08-28-2019,16:00:00,0.01,32.0,200,30.08,24.1,13.0,0.00,63,1003.11,1003.80
48430,PRACHIN BURI,ปราจีนบุรี,ปราจีนบุรี,14.05842,101.36930,10.00,08-28-2019,16:00:00,0.00,34.9,000,31.19,24.7,0.0,0.00,56,1002.75,1003.44
48431,NAKHON RATCHASIMA,นครราชสีมา,นครราชสีมา,14.96830,102.08603,12.00,08-28-2019,16:00:00,0.00,32.4,270,28.33,23.1,9.3,0.00,58,982.07,1002.76
48432,SURIN,สุรินทร์,สุรินทร์,14.88333,103.50000,14.00,08-28-2019,16:00:00,50.90,33.0,000,28.68,23.3,0.0,0.00,57,986.59,1002.92
48433,SURIN AGROMET.,สุรินทร์ สกษ.,สุรินทร์,14.88333,103.45000,14.00,08-28-2019,16:00:00,45.20,33.5,330,29.70,23.9,5.6,0.00,57,987.76,1003.79
48434,CHOK CHAI,โชคชัย,นครราชสีมา,14.71889,102.16861,10.00,08-28-2019,16:00:00,0.01,33.5,000,29.70,23.9,0.0,0.00,57,981.33,1002.63
48435,PAKCHONG AGROMET.,ปากช่อง สกษ.,นครราชสีมา,14.64389,101.33194,15.00,08-28-2019,16:00:00,0.10,30.1,240,26.13,21.8,18.5,0.00,61,961.16,1003.83
48436,NANG RONG,นางรอง,บุรีรัมย์,14.58333,102.80000,10.00,08-28-2019,16:00:00,1.40,34.2,270,28.26,23.1,7.4,0.00,53,982.06,1002.04
48437,BURIRUM,บุรีรัมย์,บุรีรัมย์,15.22575,103.24808,10.00,08-28-2019,16:00:00,0.60,33.7,320,32.48,25.4,3.7,0.00,62,984.17,1004.48
48438,SAMUTSONGKRAM,สมุทรสงคราม,สมุทรสงคราม,13.40778,100.03222,7.00,08-28-2019,16:00:00,0.30,29.0,320,31.69,25.0,7.4,0.30,79,1004.52,1004.95
48439,KABIN BURI,กบินทร์บุรี,ปราจีนบุรี,13.98333,101.70722,11.00,08-28-2019,16:00:00,0.00,33.2,000,32.89,25.6,0.0,0.00,65,1002.12,1003.51
48440,SA KAEW,สระแก้ว,สระแก้ว,13.78889,102.03472,10.00,08-28-2019,16:00:00,0.00,32.5,000,31.98,25.2,0.0,0.00,65,998.65,1003.48
48450,KANCHANA BURI,กาญจนบุรี,กาญจนบุรี,14.02250,99.53583,12.00,08-28-2019,16:00:00,0.00,34.5,220,28.59,23.3,5.6,0.00,52,1000.29,1003.49
48451,NAKHONPATHOM,นครปฐม,นครปฐม,14.01167,99.97000,10.00,08-28-2019,16:00:00,0.00,35.0,290,28.18,23.1,7.4,0.00,50,1002.23,1003.30
48453,BANG NA AGROMET.,กรุงเทพฯ บางนา สกษ.,กรุงเทพมหานคร,13.66639,100.60611,10.00,08-28-2019,16:00:00,0.00,32.8,230,29.99,24.1,9.3,0.00,60,1003.73,1004.02
48454,BANGKOK PORT (KLONG TOEI),กรุงเทพฯ ท่าเรือคลองเตย,กรุงเทพมหานคร,13.70694,100.56805,10.00,08-28-2019,16:00:00,0.00,32.6,220,29.87,24.0,3.7,0.00,61,1003.40,1004.08
48455,BANGKOK METROPOLIS,กรุงเทพมหานคร,กรุงเทพมหานคร,13.72639,100.56000,10.00,08-28-2019,16:00:00,0.00,32.5,240,30.53,24.4,5.6,0.00,62,1003.49,1003.97
48456,DON MUANG AIRPORT,สนามบินดอนเมือง,กรุงเทพมหานคร,13.91917,100.60500,10.00,08-28-2019,16:00:00,0.01,34.3,320,27.05,22.4,11.1,0.00,50,1002.08,1003.45
48457,PILOT STATION,นำร่อง,สมุทรปราการ,13.39389,100.59944,15.00,08-28-2019,16:00:00,0.00,29.8,210,35.70,27.0,25.9,0.00,85,1002.66,1004.32
48458,CHACHOENGSAO,ฉะเชิงเทรา,ฉะเชิงเทรา,13.51556,101.45833,10.00,08-28-2019,16:00:00,0.10,33.0,250,27.84,22.9,3.7,0.00,55,997.68,1005.52
48459,CHON BURI,ชลบุรี,ชลบุรี,13.36667,100.98333,10.00,08-28-2019,16:00:00,0.00,33.5,270,28.27,23.1,3.7,0.00,55,1003.49,1003.76
48460,KO SICHANG,เกาะสีชัง,ชลบุรี,13.16167,100.80194,12.00,08-28-2019,16:00:00,0.00,30.3,100,28.67,23.3,5.6,0.00,66,1001.38,1004.47
48461,PHATTHAYA,พัทยา,ชลบุรี,12.92000,100.86944,12.00,08-28-2019,16:00:00,0.00,31.0,270,29.48,23.8,5.6,0.00,66,998.12,1004.96
48462,ARANYA PRATHET,อรัญประเทศ,สระแก้ว,13.70000,102.58333,8.00,08-28-2019,16:00:00,0.00,33.8,240,31.80,25.1,9.3,0.00,60,997.90,1003.35
48463,LAEM CHABANG,แหลมฉบัง,ชลบุรี,13.07694,100.87583,10.00,08-28-2019,16:00:00,0.00,32.1,230,28.86,23.4,16.7,0.00,60,996.28,1005.42
48464,RATCHA BURI,ราชบุรี,ราชบุรี,13.48931,99.79239,10.00,08-28-2019,16:00:00,5.00,29.5,140,35.05,26.7,3.7,5.00,85,1004.23,1005.48
48465,PHETCHA BURI,เพชรบุรี,เพชรบุรี,12.99944,100.06056,11.00,08-28-2019,16:00:00,0.70,31.3,170,34.46,26.4,9.3,0.70,75,1004.00,1004.43
48474,NONG PHLUB AGROMET.,หนองพลับ สกษ.,ประจวบคีรีขันธ์,12.58333,99.73333,9.00,08-28-2019,16:00:00,0.00,32.5,000,29.66,23.9,0.0,0.00,61,992.91,1004.93
48475,HUA HIN,หัวหิน,ประจวบคีรีขันธ์,12.58611,99.96250,12.00,08-28-2019,16:00:00,0.00,33.8,280,27.74,22.8,18.5,0.00,53,1003.72,1004.42
48477,SATTAHIP,สัตหีบ,ชลบุรี,12.68333,100.98333,10.00,08-28-2019,16:00:00,0.00,33.5,200,28.56,23.3,11.1,0.00,55,1002.66,1005.04
48478,RAYONG,ระยอง,ระยอง,12.63222,101.34361,12.00,08-28-2019,16:00:00,0.00,30.7,270,31.72,25.0,14.8,0.00,72,1004.12,1004.63
48479,HUAI PONG AGROMET.,ห้วยโป่ง สกษ.,ระยอง,12.73333,101.13333,15.00,08-28-2019,16:00:00,0.00,32.0,250,27.55,22.7,3.7,0.00,58,999.29,1004.35
48480,CHANTHA BURI,จันทบุรี,จันทบุรี,12.61667,102.11333,10.00,08-28-2019,16:00:00,0.00,32.0,180,29.79,24.0,7.4,0.00,63,1004.41,1004.81
48481,PHLIU  AGROMET.,พลิ้ว สกษ.,จันทบุรี,12.50861,102.17305,8.00,08-28-2019,16:00:00,0.00,31.3,200,33.57,26.0,7.4,0.00,73,1002.24,1004.97
48500,PRACHUAP KHIRIKHAN,ประจวบคีรีขันธ์,ประจวบคีรีขันธ์,11.83333,99.83333,6.00,08-28-2019,16:00:00,3.20,28.2,000,32.35,25.4,0.0,3.20,85,1005.71,1006.50
48501,TRAD,ตราด,ตราด,11.76667,102.88333,8.00,08-28-2019,16:00:00,0.00,30.2,320,33.00,25.7,5.6,0.00,77,1005.03,1005.48
48517,CHUMPHON,ชุมพร,ชุมพร,10.49875,99.18847,10.00,08-28-2019,16:00:00,0.60,29.7,260,29.71,23.9,11.1,0.01,71,1005.47,1006.15
48520,SAWI AGROMET.,สวี สกษ.,ชุมพร,10.33333,99.10000,9.00,08-28-2019,16:00:00,2.60,29.4,260,28.04,23.0,3.7,0.00,68,1005.04,1006.55
48532,RANONG,ระนอง,ระนอง,9.98333,98.61667,10.00,08-28-2019,16:00:00,17.60,28.6,240,30.07,24.1,7.4,0.00,77,1006.83,1007.74
48550,KO SAMUI,เกาะสมุย,สุราษฎร์ธานี,9.46667,100.05000,10.00,08-28-2019,16:00:00,1.90,30.5,000,31.31,24.8,0.0,0.00,72,1006.17,1006.85
48551,SURAT THANI,สุราษฎร์ธานี,สุราษฎร์ธานี,9.13556,99.15194,10.00,08-28-2019,16:00:00,1.50,28.5,280,32.39,25.4,5.6,0.01,83,1006.80,1007.59
48552,NAKHONSI THAMMARAT,นครศรีธรรมราช,นครศรีธรรมราช,8.53778,99.96389,7.00,08-28-2019,16:00:00,5.40,25.6,330,29.29,23.7,11.1,2.50,89,1006.24,1006.88
48554,NAKHONSI THAMMARAT AGROMET.,นครศรีธรรมราช สกษ.,นครศรีธรรมราช,8.35931,100.00000,10.00,08-28-2019,16:00:00,11.10,29.4,000,33.66,26.0,0.0,6.90,82,1006.97,1007.37
48555,SURAT THANI AGROMET.,สุราษฎร์ธานี สกษ.,สุราษฎร์ธานี,9.10000,99.63333,7.00,08-28-2019,16:00:00,3.50,30.0,230,28.91,23.5,14.8,0.00,68,1005.39,1009.57
48556,PHRA SANG,พระแสง สอท.,สุราษฎร์ธานี,8.57022,99.25825,8.00,08-28-2019,16:00:00,8.00,24.2,000,28.88,23.5,0.0,6.20,96,1006.76,1008.38
48557,CHAWANG,ฉวาง,นครศรีธรรมราช,8.43194,99.51194,6.00,08-28-2019,16:00:00,9.90,25.5,000,29.91,24.0,0.0,6.50,92,1005.49,1008.98
48560,PHATTHALUNG AGROMET.,พัทลุง สกษ.,พัทลุง,7.58333,100.16667,10.00,08-28-2019,16:00:00,1.20,29.4,300,29.96,24.1,9.3,0.01,73,1005.74,1007.08
48561,TAKUA PA,ตะกั่วป่า,พังงา,8.68417,98.25222,8.00,08-28-2019,16:00:00,26.10,25.5,270,32.07,25.2,11.1,25.50,98,1007.70,1008.59
48563,KRABI,กระบี่,กระบี่,8.10361,98.97528,10.00,08-28-2019,16:00:00,15.90,26.9,000,28.76,23.4,0.0,5.00,81,1004.57,1008.13
48564,PHUKET,ภูเก็ต,ภูเก็ต,7.88333,98.40000,10.00,08-28-2019,16:00:00,9.00,29.6,260,31.20,24.7,7.4,1.60,75,1007.49,1007.92
48565,PHUKET AIRPORT,ภูเก็ต (ศูนย์ฯ),ภูเก็ต,8.14500,98.31444,10.00,08-28-2019,16:00:00,0.60,29.5,270,29.88,24.0,18.5,0.01,72,1006.95,1007.93
48566,KO LANTA,เกาะลันตา,กระบี่,7.53333,99.05000,10.00,08-28-2019,16:00:00,3.20,29.4,260,32.79,25.6,25.9,0.00,80,1006.94,1007.75
48567,TRANG AIRPORT,ตรัง,ตรัง,7.51667,99.61667,10.00,08-28-2019,16:00:00,1.60,30.0,250,31.15,24.7,11.1,0.20,73,1005.62,1007.42
48568,SONGKHLA,สงขลา,สงขลา,7.18211,100.60769,12.00,08-28-2019,16:00:00,0.00,32.3,300,28.98,23.5,9.3,0.00,60,1006.02,1006.76
48569,HAT YAI AIRPORT,หาดใหญ่,สงขลา,6.91667,100.43333,10.00,08-28-2019,16:00:00,0.80,31.5,240,29.07,23.6,16.7,0.00,63,1003.06,1007.00
48570,SATUN,สตูล,สตูล,6.65000,100.08333,10.00,08-28-2019,16:00:00,22.00,31.7,290,30.90,24.6,7.4,0.00,66,1006.76,1007.44
48571,KHO HONG AGROMET.,คอหงษ์ สกษ.,สงขลา,7.00000,100.50000,10.00,08-28-2019,16:00:00,0.00,32.3,270,30.12,24.2,13.0,0.00,62,1005.52,1006.62
48574,SA DAO,สะเดา,สงขลา,6.79806,100.39056,12.00,08-28-2019,16:00:00,0.01,33.0,280,30.69,24.5,14.8,0.00,61,1004.30,1007.16
48580,PATTANI AIRPORT,ปัตตานี,ปัตตานี,6.78333,101.15000,12.00,08-28-2019,16:00:00,0.00,33.0,270,33.06,25.7,14.8,0.00,66,1005.27,1005.94
48581,YALA AGROMET.,ยะลา สกษ.,ยะลา,6.51667,101.28333,10.00,08-28-2019,16:00:00,0.10,31.9,190,28.18,23.1,5.6,0.00,60,1003.21,1007.27
48583,NARATHIWAT,นราธิวาส,นราธิวาส,6.41667,101.81667,10.00,08-28-2019,16:00:00,0.00,32.0,320,26.45,22.0,9.3,0.00,56,1005.78,1006.36
