WmoStationNumber,StationNameEnglish,StationNameThai,Province,Latitude,Longitude,LandVisibility,Date,Time,VaporPressure,RelativeHumidity,WindDirection,WindSpeed,MeanSeaLevelPressure,Rainfall,StationPressure,AirTemperature,DewPoint,Rainfall24Hr
48300,MAE HONG SON,แม่ฮ่องสอน,แม่ฮ่องสอน,19.29897,97.97578,10.00,08-30-2019,10:00:00,31.61,78,000,0.0,1003.34,0.00,972.85,29.1,25.0,0.01
48302,DOI ANG KANG,ดอยอ่างขาง,เชียงใหม่,19.93139,99.04833,8.00,08-30-2019,10:00:00,24.28,94,000,0.0,1001.09,0.00,842.19,21.7,20.6,0.00
48303,CHIANG RAI,เชียงราย,เชียงราย,19.96139,99.88139,12.00,08-30-2019,10:00:00,33.45,82,000,0.0,1002.13,0.00,959.24,29.3,25.9,0.00
48304,CHAING RAI AGROMET.,เชียงราย สกษ.,เชียงราย,19.87083,99.78278,15.00,08-30-2019,10:00:00,32.52,86,000,0.0,1002.18,1.80,957.22,28.0,25.4,1.80
48307,THUNG CHANG,ทุ่งช้าง,น่าน,19.41194,100.88353,12.00,08-30-2019,10:00:00,32.60,87,000,0.0,1001.56,0.01,964.40,27.9,25.5,8.20
48310,PHAYAO,พะเยา,พะเยา,19.13333,99.90000,10.00,08-30-2019,10:00:00,34.03,94,000,0.0,1002.86,0.20,958.20,27.2,26.2,1.50
48315,THA WANGPHA,ท่าวังผา,น่าน,19.11056,100.80250,10.00,08-30-2019,10:00:00,31.02,87,040,3.7,1002.10,0.10,975.60,27.1,24.7,2.60
48324,THOEN,เถิน,ลำปาง,17.63661,99.24475,12.00,08-30-2019,10:00:00,31.72,86,070,1.9,1002.03,1.50,980.47,27.6,25.0,1.50
48325,MAE SARIANG,แม่สะเรียง,แม่ฮ่องสอน,18.16667,97.93333,8.00,08-30-2019,10:00:00,30.42,83,000,0.0,1003.59,0.00,979.67,27.5,24.3,0.00
48327,CHIANG MAI,เชียงใหม่,เชียงใหม่,18.79000,98.97694,10.00,08-30-2019,10:00:00,30.56,81,000,0.0,1002.46,0.00,968.33,28.0,24.4,0.40
48328,LAMPANG,ลำปาง,ลำปาง,18.28333,99.51667,8.00,08-30-2019,10:00:00,31.19,93,000,0.0,1002.90,0.80,975.45,25.9,24.7,3.60
48329,LAMPHUN,ลำพูน,ลำพูน,18.56722,99.03389,10.00,08-30-2019,10:00:00,31.20,83,000,0.0,1002.32,0.00,969.11,27.9,24.7,0.00
48330,PHRAE,แพร่,แพร่,18.16667,100.16667,12.00,08-30-2019,10:00:00,29.70,93,150,1.9,1002.21,9.90,983.70,25.1,23.9,39.50
48331,NAN,น่าน,น่าน,18.77972,100.77778,10.00,08-30-2019,10:00:00,30.45,82,000,0.0,1001.38,0.00,978.79,27.8,24.3,0.00
48333,NAN AGROMET.,น่าน สกษ.,น่าน,18.86667,100.75000,12.00,08-30-2019,10:00:00,31.22,87,080,9.3,1001.58,10.00,971.94,27.2,24.8,11.00
48334,LAMPANG AGROMET.,ลำปาง สกษ.,ลำปาง,18.31667,99.28333,6.00,08-30-2019,10:00:00,30.97,84,000,0.0,1001.87,0.00,966.70,27.5,24.6,0.01
48350,LOEI AGROMET.,เลย สกษ.,เลย,17.40000,101.73333,15.00,08-30-2019,10:00:00,35.19,94,310,3.7,998.34,5.00,969.04,27.9,26.8,5.90
48351,UTTARADIT,อุตรดิตถ์,อุตรดิตถ์,17.61667,100.10000,10.00,08-30-2019,10:00:00,28.70,73,310,18.5,1000.95,0.00,993.73,28.6,23.4,0.00
48352,NONG KHAI,หนองคาย,หนองคาย,17.86717,102.73303,12.00,08-30-2019,10:00:00,31.48,73,340,11.1,997.73,0.20,978.24,30.3,24.9,2.00
48353,LOEI,เลย,เลย,17.45000,101.73333,14.00,08-30-2019,10:00:00,32.39,83,330,9.3,998.81,4.50,970.57,28.5,25.4,5.30
48354,UDON THANI,อุดรธานี,อุดรธานี,17.38333,102.80000,15.00,08-30-2019,10:00:00,30.72,75,320,14.8,997.12,0.00,977.33,29.5,24.5,2.30
48355,SAKON NAKHON AGROMET.,สกลนคร สกษ.,สกลนคร,17.12503,104.06100,6.00,08-30-2019,10:00:00,27.25,91,350,5.6,995.26,1.50,973.59,24.0,22.5,15.00
48356,SAKON NAKHON,สกลนคร,สกลนคร,17.15000,104.13333,6.00,08-30-2019,10:00:00,28.61,97,120,22.2,994.74,3.10,975.31,23.9,23.3,22.20
48357,NAKHON PHANOM,นครพนม,นครพนม,17.41083,104.78250,6.00,08-30-2019,10:00:00,27.43,90,080,18.5,999.92,2.30,983.16,24.4,22.6,48.30
48358,NAKHON PHANOM AGROMET.,นครพนม สกษ.,นครพนม,17.44306,104.77361,8.00,08-30-2019,10:00:00,27.92,95,090,14.8,999.36,8.00,981.91,23.8,22.9,60.80
48360,NONG BUA LAM PHU,หนองบัวลำภู,หนองบัวลำภู,17.23250,102.42944,15.00,08-30-2019,10:00:00,33.37,88,310,13.0,996.42,0.00,971.01,28.0,25.9,4.00
48372,SUKHOTHAI*,สุโขทัย,สุโขทัย,17.10611,99.80000,10.00,08-30-2019,10:00:00,34.65,91,000,0.0,1002.47,0.00,996.74,28.2,26.5,0.00
48373,SI SAMRONG AGROMET.,ศรีสำโรง สกษ.,สุโขทัย,17.16136,99.86167,8.00,08-30-2019,10:00:00,33.66,89,000,0.0,1000.84,0.01,994.71,28.0,26.0,0.01
48374,LOM SAK,หล่มสัก,เพชรบูรณ์,16.77361,101.24944,7.00,08-30-2019,10:00:00,31.17,95,000,0.0,1001.04,41.30,984.63,25.6,24.7,63.30
48375,MAE SOT,แม่สอด,ตาก,16.65917,98.55083,10.00,08-30-2019,10:00:00,30.02,84,000,0.0,1002.07,0.00,979.87,27.0,24.1,0.00
48376,TAK,ตาก,ตาก,16.87833,99.14333,8.00,08-30-2019,10:00:00,28.08,71,260,14.8,1001.71,0.00,987.48,28.7,23.0,0.00
48377,BHUMIBOL DAM,เขื่อนภูมิพล,ตาก,17.24389,99.00250,8.00,08-30-2019,10:00:00,28.50,65,240,11.1,1001.38,0.00,985.28,30.5,23.2,0.00
48378,PHITSANULOK,พิษณุโลก,พิษณุโลก,16.79481,100.27930,10.00,08-30-2019,10:00:00,31.95,85,330,7.4,1000.37,1.20,995.20,28.0,25.1,1.20
48379,PHETCHABUN,เพชรบูรณ์,เพชรบูรณ์,16.43333,101.15000,7.00,08-30-2019,10:00:00,31.85,94,000,0.0,999.56,9.30,986.42,26.1,25.1,14.00
48380,KAMPHAENG PHET,กำแพงเพชร,กำแพงเพชร,16.48681,99.52697,10.00,08-30-2019,10:00:00,30.46,77,300,9.3,1000.57,0.00,991.36,28.8,24.3,0.00
48381,KHON KAEN,ขอนแก่น,ขอนแก่น,16.46111,102.78972,7.00,08-30-2019,10:00:00,32.77,92,300,13.0,997.24,0.30,975.77,27.0,25.6,15.60
48382,MAHASARAKHAM,มหาสารคาม,มหาสารคาม,16.24722,103.06805,6.00,08-30-2019,10:00:00,31.10,100,000,0.0,997.35,20.60,979.89,24.7,24.7,147.70
48383,MUKDAHAN,มุกดาหาร,มุกดาหาร,16.54139,104.72889,9.00,08-30-2019,10:00:00,27.15,99,180,3.7,998.03,35.60,982.11,22.6,22.4,176.70
48384,THA PHRA AGROMET.,ท่าพระ สกษ.,ขอนแก่น,16.33333,102.81667,8.00,08-30-2019,10:00:00,32.37,97,000,0.0,996.16,3.50,977.41,25.8,25.4,23.70
48385,UMPHANG,อุ้มผาง,ตาก,16.02472,98.86444,11.00,08-30-2019,10:00:00,27.10,87,000,0.0,1005.42,0.00,954.13,24.8,22.4,1.00
48386,PICHIT AGROMET.,พิจิตร สกษ.,พิจิตร,16.43806,100.29250,3.00,08-30-2019,10:00:00,31.17,95,190,18.5,1000.64,2.00,996.69,25.6,24.7,2.00
48387,DOI MU SOE AGROMET.,ดอยมูเซอร์ สกษ.,ตาก,16.75000,98.93333,.20,08-30-2019,10:00:00,25.07,99,230,11.1,1004.07,0.20,909.20,21.3,21.1,0.60
48390,KALASIN,กาฬสินธุ์,กาฬสินธุ์,16.33250,103.58833,7.00,08-30-2019,10:00:00,30.46,99,000,0.0,996.48,72.60,980.53,24.5,24.3,198.90
48400,NAKHON SAWAN,นครสวรรค์ ,นครสวรรค์,15.67183,100.13236,5.00,08-30-2019,10:00:00,33.50,95,000,0.0,1001.86,0.90,997.84,26.8,25.9,1.00
48401,TAKFA AGROMET.,ตากฟ้า สกษ.,นครสวรรค์,15.34944,100.53028,7.00,08-30-2019,10:00:00,30.30,90,150,1.9,1002.70,0.01,992.04,26.0,24.3,1.20
48402,CHAINAT AGROMET.,ชัยนาท สกษ.,ชัยนาท,15.15000,100.18333,9.00,08-30-2019,10:00:00,30.59,89,000,0.0,1001.87,0.00,999.94,26.3,24.4,1.20
48403,CHAIYAPHUM,ชัยภูมิ,ชัยภูมิ,15.80000,102.03333,10.00,08-30-2019,10:00:00,29.82,91,250,13.0,999.46,2.90,978.66,25.6,24.0,22.20
48404,ROI ET AGROMET.,ร้อยเอ็ด สกษ.,ร้อยเอ็ด,16.07322,103.60844,4.00,08-30-2019,10:00:00,28.53,96,230,22.2,996.62,48.30,978.97,24.0,23.3,249.50
48405,ROI ET,ร้อยเอ็ด,ร้อยเอ็ด,16.02000,103.74389,5.00,08-30-2019,10:00:00,29.11,100,200,20.4,996.17,42.50,980.00,23.6,23.6,210.30
48407,UBON RATCHATHANI,อุบลราชธานี (ศูนย์ฯ),อุบลราชธานี,15.25000,104.86667,10.00,08-30-2019,10:00:00,28.27,95,190,5.6,1000.93,5.60,986.84,24.0,23.1,72.90
48408,UBON RATCHATHANI AGROMET.,อุบลราชธานี สกษ.,อุบลราชธานี,15.23914,105.02350,5.00,08-30-2019,10:00:00,28.01,96,180,5.6,1002.00,3.20,987.08,23.7,23.0,61.80
48409,SI SAKET AGROMET.,ศรีสะเกษ,ศรีสะเกษ,15.00000,104.05000,2.50,08-30-2019,10:00:00,29.75,97,180,9.3,1001.70,1.40,986.98,24.4,24.0,44.70
48410,UTHAITHANI,อุทัยธานี,อุทัยธานี,15.37417,100.03889,8.00,08-30-2019,10:00:00,32.73,90,"{'0': '   ', '@attributes': {'Unit': 'degree'}}",0.0,1000.75,0.20,997.76,27.4,25.5,2.00
48413,WICHIAN BURI,วิเชียรบุรี,เพชรบูรณ์,15.65700,101.10800,7.00,08-30-2019,10:00:00,30.34,94,000,0.0,1001.56,7.80,993.61,25.3,24.3,8.20
48415,AYUTTHAYA,พระนครศรีอยุธยา,พระนครศรีอยุธยา,14.53472,100.72500,6.00,08-30-2019,10:00:00,29.76,89,210,11.1,1002.46,0.30,1001.35,26.0,24.0,2.30
48416,THA TUM,ท่าตูม,สุรินทร์,15.31667,103.68333,2.00,08-30-2019,10:00:00,28.42,98,210,3.7,1000.33,25.80,985.57,23.5,23.2,84.90
48417,NAKORNNAYOK,นครนายก,นครนายก,14.36222,101.39278,.10,08-30-2019,10:00:00,21.73,99,200,7.4,1003.51,5.20,868.78,19.0,18.8,15.80
48418,BUA CHUM,บัวชุม  ,ลพบุรี,15.26667,101.18736,5.00,08-30-2019,10:00:00,30.58,97,230,3.7,1002.26,5.40,996.37,25.0,24.4,9.20
48419,PATHUMTHANI,ปทุมธานี สกษ.,ปทุมธานี,14.10000,100.61667,7.00,08-30-2019,10:00:00,30.02,84,210,5.6,1002.64,0.90,1001.84,27.0,24.1,1.10
48420,Samut Prakarn,สมุทรปราการ สกษ.,สมุทรปราการ,13.51667,100.76167,10.00,08-30-2019,10:00:00,29.74,74,230,11.1,1002.98,0.00,1002.54,29.0,23.9,2.40
48421,THONG PHAPHUM,ทองผาภูมิ,กาญจนบุรี,14.74222,98.63639,7.00,08-30-2019,10:00:00,29.60,81,000,0.0,1004.57,0.00,993.31,27.5,23.9,0.00
48425,SUPHAN BURI,สุพรรณบุรี,สุพรรณบุรี,14.47444,100.13889,12.00,08-30-2019,10:00:00,30.56,86,220,3.7,1002.18,0.30,1001.17,27.0,24.4,0.30
48426,LOP BURI,ลพบุรี,ลพบุรี,14.79972,100.64500,7.00,08-30-2019,10:00:00,31.08,94,000,0.0,1002.16,0.20,1000.34,25.7,24.7,1.30
48427,U THONG AGROMET.,อู่ทอง สกษ.,สุพรรณบุรี,14.30361,99.86472,8.00,08-30-2019,10:00:00,28.53,78,230,7.4,1002.18,0.20,1001.42,27.5,23.3,0.40
48429,SUVARNABHUMI AIRPORT,สนามบินสุวรรณภูมิ,สมุทรปราการ,13.68639,100.76750,8.00,08-30-2019,10:00:00,30.31,84,210,9.3,1002.70,0.01,1002.00,27.3,24.3,0.01
48430,PRACHIN BURI,ปราจีนบุรี,ปราจีนบุรี,14.05842,101.36930,6.00,08-30-2019,10:00:00,30.84,92,270,3.7,1002.44,3.60,1001.74,26.0,24.6,5.90
48431,NAKHON RATCHASIMA,นครราชสีมา,นครราชสีมา,14.96830,102.08603,6.00,08-30-2019,10:00:00,28.70,96,250,9.3,1000.17,6.30,978.96,24.1,23.4,12.60
48432,SURIN,สุรินทร์,สุรินทร์,14.88333,103.50000,7.00,08-30-2019,10:00:00,29.59,96,220,7.4,1000.90,2.60,984.15,24.6,23.9,21.20
48433,SURIN AGROMET.,สุรินทร์ สกษ.,สุรินทร์,14.88333,103.45000,4.00,08-30-2019,10:00:00,29.69,95,190,3.7,1001.18,3.80,984.72,24.8,23.9,23.70
48434,CHOK CHAI,โชคชัย,นครราชสีมา,14.71889,102.16861,4.00,08-30-2019,10:00:00,29.33,95,000,0.0,1000.87,6.10,978.98,24.6,23.7,12.10
48435,PAKCHONG AGROMET.,ปากช่อง สกษ.,นครราชสีมา,14.64389,101.33194,8.00,08-30-2019,10:00:00,26.83,92,210,7.4,1002.37,3.20,958.86,23.6,22.2,7.80
48436,NANG RONG,นางรอง,บุรีรัมย์,14.58333,102.80000,3.00,08-30-2019,10:00:00,29.16,93,210,7.4,1000.75,2.20,980.17,24.8,23.6,13.10
48437,BURIRUM,บุรีรัมย์,บุรีรัมย์,15.22575,103.24808,4.00,08-30-2019,10:00:00,29.11,100,220,24.1,1001.48,13.60,980.54,23.6,23.6,40.40
48438,SAMUTSONGKRAM,สมุทรสงคราม,สมุทรสงคราม,13.40778,100.03222,10.00,08-30-2019,10:00:00,29.16,74,260,5.6,1002.92,0.00,1002.49,28.7,23.6,0.70
48439,KABIN BURI,กบินทร์บุรี,ปราจีนบุรี,13.98333,101.70722,6.00,08-30-2019,10:00:00,31.25,96,000,0.0,1002.30,3.50,1000.88,25.5,24.8,7.60
48440,SA KAEW,สระแก้ว,สระแก้ว,13.78889,102.03472,7.00,08-30-2019,10:00:00,31.36,95,000,0.0,1002.84,2.90,997.91,25.7,24.8,14.80
48450,KANCHANA BURI,กาญจนบุรี,กาญจนบุรี,14.02250,99.53583,12.00,08-30-2019,10:00:00,27.75,69,270,3.7,1003.08,0.00,999.82,29.1,22.8,0.00
48451,NAKHONPATHOM,นครปฐม,นครปฐม,14.01167,99.97000,5.00,08-30-2019,10:00:00,29.60,81,000,0.0,1003.07,0.01,1001.97,27.5,23.9,0.10
48453,BANG NA AGROMET.,กรุงเทพฯ บางนา สกษ.,กรุงเทพมหานคร,13.66639,100.60611,7.00,08-30-2019,10:00:00,30.40,80,230,9.3,1003.11,0.10,1002.82,28.2,24.3,0.10
48454,BANGKOK PORT (KLONG TOEI),กรุงเทพฯ ท่าเรือคลองเตย,กรุงเทพมหานคร,13.70694,100.56805,8.00,08-30-2019,10:00:00,31.22,87,240,7.4,1003.19,0.60,1002.51,27.2,24.8,0.60
48455,BANGKOK METROPOLIS,กรุงเทพมหานคร,กรุงเทพมหานคร,13.72639,100.56000,7.00,08-30-2019,10:00:00,31.94,90,270,3.7,1003.16,0.80,1002.67,27.0,25.1,0.80
48456,DON MUANG AIRPORT,สนามบินดอนเมือง,กรุงเทพมหานคร,13.91917,100.60500,10.00,08-30-2019,10:00:00,29.48,83,220,13.0,1007.79,0.01,1006.38,27.0,23.8,0.01
48457,PILOT STATION,นำร่อง,สมุทรปราการ,13.39389,100.59944,9.00,08-30-2019,10:00:00,35.46,89,240,25.9,1003.44,0.01,1001.77,29.0,26.9,0.10
48458,CHACHOENGSAO,ฉะเชิงเทรา,ฉะเชิงเทรา,13.51556,101.45833,10.00,08-30-2019,10:00:00,31.38,93,000,0.0,1005.03,0.90,997.01,26.0,24.8,6.60
48459,CHON BURI,ชลบุรี,ชลบุรี,13.36667,100.98333,10.00,08-30-2019,10:00:00,29.49,72,000,0.0,1003.45,0.00,1003.17,29.3,23.8,0.40
48460,KO SICHANG,เกาะสีชัง,ชลบุรี,13.16167,100.80194,10.00,08-30-2019,10:00:00,31.13,78,110,7.4,1003.17,0.00,1000.07,29.0,24.7,0.00
48461,PHATTHAYA,พัทยา,ชลบุรี,12.92000,100.86944,10.00,08-30-2019,10:00:00,29.27,74,240,13.0,1003.67,0.00,996.80,28.9,23.7,0.00
48462,ARANYA PRATHET,อรัญประเทศ,สระแก้ว,13.70000,102.58333,7.00,08-30-2019,10:00:00,31.76,93,240,9.3,1002.83,0.40,997.24,26.2,25.0,1.80
48463,LAEM CHABANG,แหลมฉบัง,ชลบุรี,13.07694,100.87583,9.00,08-30-2019,10:00:00,29.57,73,290,11.1,1003.40,0.00,994.19,29.2,23.9,0.00
48464,RATCHA BURI,ราชบุรี,ราชบุรี,13.48931,99.79239,14.00,08-30-2019,10:00:00,31.11,82,000,0.0,1003.90,0.00,1002.64,28.0,24.7,2.30
48465,PHETCHA BURI,เพชรบุรี,เพชรบุรี,12.99944,100.06056,11.00,08-30-2019,10:00:00,28.45,71,220,5.6,1003.12,0.00,1002.69,28.9,23.2,6.30
48474,NONG PHLUB AGROMET.,หนองพลับ สกษ.,ประจวบคีรีขันธ์,12.58333,99.73333,10.00,08-30-2019,10:00:00,29.38,73,180,5.6,1003.34,0.00,991.21,29.1,23.7,0.00
48475,HUA HIN,หัวหิน,ประจวบคีรีขันธ์,12.58611,99.96250,10.00,08-30-2019,10:00:00,29.88,72,240,7.4,1003.29,0.00,1002.58,29.5,24.0,0.00
48477,SATTAHIP,สัตหีบ,ชลบุรี,12.68333,100.98333,10.00,08-30-2019,10:00:00,30.14,70,230,11.1,1003.67,0.00,1001.27,30.2,24.2,0.01
48478,RAYONG,ระยอง,ระยอง,12.63222,101.34361,10.00,08-30-2019,10:00:00,33.99,85,240,24.1,1004.40,0.00,1003.89,29.0,26.2,0.20
48479,HUAI PONG AGROMET.,ห้วยโป่ง สกษ.,ระยอง,12.73333,101.13333,11.00,08-30-2019,10:00:00,29.13,71,210,9.3,1003.38,0.00,998.28,29.4,23.6,0.00
48480,CHANTHA BURI,จันทบุรี,จันทบุรี,12.61667,102.11333,8.00,08-30-2019,10:00:00,32.39,83,220,7.4,1003.98,0.00,1003.57,28.5,25.4,8.80
48481,PHLIU  AGROMET.,พลิ้ว สกษ.,จันทบุรี,12.50861,102.17305,8.00,08-30-2019,10:00:00,31.54,81,220,7.4,1004.56,0.00,1001.81,28.5,24.9,36.50
48500,PRACHUAP KHIRIKHAN,ประจวบคีรีขันธ์,ประจวบคีรีขันธ์,11.83333,99.83333,10.00,08-30-2019,10:00:00,27.69,72,220,5.6,1005.26,0.00,1004.48,28.2,22.8,1.00
48501,TRAD,ตราด,ตราด,11.76667,102.88333,6.00,08-30-2019,10:00:00,34.07,89,220,18.5,1004.95,0.00,1004.49,28.2,26.2,70.30
48517,CHUMPHON,ชุมพร,ชุมพร,10.49875,99.18847,7.00,08-30-2019,10:00:00,32.01,96,290,7.4,1006.93,1.40,1006.25,25.9,25.2,7.90
48520,SAWI AGROMET.,สวี สกษ.,ชุมพร,10.33333,99.10000,6.00,08-30-2019,10:00:00,31.22,87,300,1.9,1006.45,0.40,1004.93,27.2,24.8,22.80
48532,RANONG,ระนอง,ระนอง,9.98333,98.61667,7.00,08-30-2019,10:00:00,30.05,95,230,7.4,1007.77,16.90,1006.84,25.0,24.1,66.40
48550,KO SAMUI,เกาะสมุย,สุราษฎร์ธานี,9.46667,100.05000,10.00,08-30-2019,10:00:00,29.98,81,000,0.0,1007.06,0.10,1006.37,27.7,24.1,0.60
48551,SURAT THANI,สุราษฎร์ธานี,สุราษฎร์ธานี,9.13556,99.15194,6.00,08-30-2019,10:00:00,31.25,96,240,7.4,1007.80,5.10,1007.00,25.5,24.8,12.80
48552,NAKHONSI THAMMARAT,นครศรีธรรมราช,นครศรีธรรมราช,8.53778,99.96389,9.00,08-30-2019,10:00:00,30.81,88,000,0.0,1007.35,0.01,1006.71,26.7,24.5,10.60
48554,NAKHONSI THAMMARAT AGROMET.,นครศรีธรรมราช สกษ.,นครศรีธรรมราช,8.35931,100.00000,10.00,08-30-2019,10:00:00,31.11,82,190,11.1,1007.77,0.00,1007.37,28.0,24.7,9.20
48555,SURAT THANI AGROMET.,สุราษฎร์ธานี สกษ.,สุราษฎร์ธานี,9.10000,99.63333,6.00,08-30-2019,10:00:00,29.22,76,260,16.7,1008.99,0.60,1004.79,28.3,23.7,5.80
48556,PHRA SANG,พระแสง สอท.,สุราษฎร์ธานี,8.57022,99.25825,8.00,08-30-2019,10:00:00,30.20,98,220,7.4,1008.66,4.60,1007.04,24.5,24.2,20.80
48557,CHAWANG,ฉวาง,นครศรีธรรมราช,8.43194,99.51194,7.00,08-30-2019,10:00:00,31.00,83,000,0.0,1009.19,1.00,1005.72,27.8,24.6,21.60
48560,PHATTHALUNG AGROMET.,พัทลุง สกษ.,พัทลุง,7.58333,100.16667,10.00,08-30-2019,10:00:00,31.79,92,190,7.4,1008.19,0.50,1006.83,26.5,25.1,13.70
48561,TAKUA PA,ตะกั่วป่า,พังงา,8.68417,98.25222,6.00,08-30-2019,10:00:00,30.69,96,240,18.5,1008.87,24.20,1007.98,25.2,24.5,89.60
48563,KRABI,กระบี่,กระบี่,8.10361,98.97528,8.00,08-30-2019,10:00:00,29.04,97,250,5.6,1008.86,5.10,1005.26,24.0,23.6,52.10
48564,PHUKET,ภูเก็ต,ภูเก็ต,7.88333,98.40000,8.00,08-30-2019,10:00:00,30.02,84,000,0.0,1008.37,5.60,1007.93,27.0,24.1,26.20
48565,PHUKET AIRPORT,ภูเก็ต (ศูนย์ฯ),ภูเก็ต,8.14500,98.31444,3.00,08-30-2019,10:00:00,30.05,95,330,20.4,1008.30,20.00,1007.30,25.0,24.1,52.80
48566,KO LANTA,เกาะลันตา,กระบี่,7.53333,99.05000,5.00,08-30-2019,10:00:00,32.56,88,270,33.3,1008.75,0.20,1007.93,27.6,25.5,19.00
48567,TRANG AIRPORT,ตรัง,ตรัง,7.51667,99.61667,12.00,08-30-2019,10:00:00,31.27,94,000,0.0,1008.50,20.50,1006.68,25.8,24.8,38.80
48568,SONGKHLA,สงขลา,สงขลา,7.18211,100.60769,11.00,08-30-2019,10:00:00,29.06,67,220,7.4,1008.01,0.00,1007.26,30.5,23.6,1.00
48569,HAT YAI AIRPORT,หาดใหญ่,สงขลา,6.91667,100.43333,10.00,08-30-2019,10:00:00,31.03,74,230,11.1,1008.35,0.00,1004.39,29.8,24.7,23.20
48570,SATUN,สตูล,สตูล,6.65000,100.08333,10.00,08-30-2019,10:00:00,31.84,74,000,0.0,1008.52,0.00,1007.85,30.2,25.1,21.90
48571,KHO HONG AGROMET.,คอหงษ์ สกษ.,สงขลา,7.00000,100.50000,10.00,08-30-2019,10:00:00,30.54,70,000,0.0,1007.88,0.00,1006.78,30.4,24.4,8.80
48574,SA DAO,สะเดา,สงขลา,6.79806,100.39056,10.00,08-30-2019,10:00:00,33.13,76,210,7.4,1008.23,0.00,1005.34,30.4,25.8,18.60
48580,PATTANI AIRPORT,ปัตตานี,ปัตตานี,6.78333,101.15000,11.00,08-30-2019,10:00:00,33.48,73,000,0.0,1007.24,0.00,1006.56,31.4,25.9,11.20
48581,YALA AGROMET.,ยะลา สกษ.,ยะลา,6.51667,101.28333,8.00,08-30-2019,10:00:00,28.21,70,210,5.6,1008.56,0.00,1004.46,29.2,23.1,7.50
48583,NARATHIWAT,นราธิวาส,นราธิวาส,6.41667,101.81667,10.00,08-30-2019,10:00:00,28.86,75,240,9.3,1008.17,0.00,1007.59,28.4,23.5,0.30
