WmoStationNumber,StationNameEnglish,StationNameThai,Province,Latitude,Longitude,Date,Time,DewPoint,MeanSeaLevelPressure,RelativeHumidity,StationPressure,AirTemperature,VaporPressure,WindSpeed,Rainfall24Hr,WindDirection,LandVisibility,Rainfall
48300,MAE HONG SON,แม่ฮ่องสอน,แม่ฮ่องสอน,19.29897,97.97578,08-30-2019,22:00:00,24.4,1001.49,91,970.74,26.0,30.57,0.0,0.10,000,10.00,0.00
48302,DOI ANG KANG,ดอยอ่างขาง,เชียงใหม่,19.93139,99.04833,08-30-2019,22:00:00,17.4,1000.33,78,841.45,21.5,19.91,0.0,0.00,000,8.00,0.00
48303,CHIANG RAI,เชียงราย,เชียงราย,19.96139,99.88139,08-30-2019,22:00:00,23.7,999.48,73,956.67,29.1,29.38,5.6,0.01,010,12.00,0.00
48304,CHAING RAI AGROMET.,เชียงราย สกษ.,เชียงราย,19.87083,99.78278,08-30-2019,22:00:00,24.5,999.60,82,954.73,27.8,30.72,0.0,1.80,000,12.00,0.00
48307,THUNG CHANG,ทุ่งช้าง,น่าน,19.41194,100.88353,08-30-2019,22:00:00,24.9,1001.46,100,963.94,24.9,31.47,0.0,16.60,000,6.00,5.30
48310,PHAYAO,พะเยา,พะเยา,19.13333,99.90000,08-30-2019,22:00:00,23.9,1000.85,95,955.93,24.8,29.69,0.0,27.80,000,10.00,25.50
48315,THA WANGPHA,ท่าวังผา,น่าน,19.11056,100.80250,08-30-2019,22:00:00,25.0,1001.49,95,974.90,25.9,31.74,0.0,14.60,000,6.00,11.30
48324,THOEN,เถิน,ลำปาง,17.63661,99.24475,08-30-2019,22:00:00,26.7,1000.74,97,979.19,27.3,35.10,0.0,21.60,000,5.00,14.10
48325,MAE SARIANG,แม่สะเรียง,แม่ฮ่องสอน,18.16667,97.93333,08-30-2019,22:00:00,26.0,1001.68,90,977.82,27.8,33.53,0.0,0.01,000,8.00,0.00
48327,CHIANG MAI,เชียงใหม่,เชียงใหม่,18.79000,98.97694,08-30-2019,22:00:00,24.5,1001.29,90,967.00,26.2,30.67,0.0,7.20,000,8.00,2.60
48328,LAMPANG,ลำปาง,ลำปาง,18.28333,99.51667,08-30-2019,22:00:00,24.4,1001.40,95,973.94,25.3,30.60,0.0,23.80,000,10.00,17.50
48329,LAMPHUN,ลำพูน,ลำพูน,18.56722,99.03389,08-30-2019,22:00:00,24.8,1001.10,96,967.67,25.5,31.25,0.0,8.80,000,8.00,7.80
48330,PHRAE,แพร่,แพร่,18.16667,100.16667,08-30-2019,22:00:00,24.7,1000.70,95,982.26,25.6,31.17,0.0,66.70,000,5.00,14.20
48331,NAN,น่าน,น่าน,18.77972,100.77778,08-30-2019,22:00:00,24.7,1000.31,92,977.62,26.1,31.03,0.0,3.70,000,10.00,0.00
48333,NAN AGROMET.,น่าน สกษ.,น่าน,18.86667,100.75000,08-30-2019,22:00:00,24.2,1000.73,95,970.91,25.1,30.23,0.0,17.00,000,6.00,2.50
48334,LAMPANG AGROMET.,ลำปาง สกษ.,ลำปาง,18.31667,99.28333,08-30-2019,22:00:00,24.3,1001.02,96,965.60,25.0,30.32,0.0,24.60,000,5.00,22.80
48350,LOEI AGROMET.,เลย สกษ.,เลย,17.40000,101.73333,08-30-2019,22:00:00,22.9,1000.47,98,970.65,23.2,27.91,0.0,51.70,000,6.00,0.80
48351,UTTARADIT,อุตรดิตถ์,อุตรดิตถ์,17.61667,100.10000,08-30-2019,22:00:00,24.8,1000.61,96,993.31,25.5,31.25,0.0,36.60,000,7.00,34.60
48352,NONG KHAI,หนองคาย,หนองคาย,17.86717,102.73303,08-30-2019,22:00:00,23.4,999.65,98,979.70,23.7,28.77,18.5,3.60,080,3.00,0.80
48353,LOEI,เลย,เลย,17.45000,101.73333,08-30-2019,22:00:00,22.5,1001.31,96,972.51,23.3,27.33,5.6,17.40,310,6.00,1.20
48354,UDON THANI,อุดรธานี,อุดรธานี,17.38333,102.80000,08-30-2019,22:00:00,23.0,998.80,97,978.58,23.5,28.17,13.0,23.00,020,5.00,4.80
48355,SAKON NAKHON AGROMET.,สกลนคร สกษ.,สกลนคร,17.12503,104.06100,08-30-2019,22:00:00,22.9,1001.16,98,979.30,23.2,27.91,7.4,38.70,120,5.00,7.90
48356,SAKON NAKHON,สกลนคร,สกลนคร,17.15000,104.13333,08-30-2019,22:00:00,23.5,1001.16,100,981.57,23.5,28.94,9.3,43.00,070,6.00,6.60
48357,NAKHON PHANOM,นครพนม,นครพนม,17.41083,104.78250,08-30-2019,22:00:00,21.9,1003.54,81,986.77,25.3,26.19,7.4,18.40,120,10.00,0.01
48358,NAKHON PHANOM AGROMET.,นครพนม สกษ.,นครพนม,17.44306,104.77361,08-30-2019,22:00:00,22.8,1003.80,93,986.28,24.0,27.76,7.4,39.50,080,10.00,0.50
48360,NONG BUA LAM PHU,หนองบัวลำภู,หนองบัวลำภู,17.23250,102.42944,08-30-2019,22:00:00,22.9,998.03,92,972.27,24.2,27.85,13.0,23.80,340,7.00,2.00
48372,SUKHOTHAI*,สุโขทัย,สุโขทัย,17.10611,99.80000,08-30-2019,22:00:00,26.0,1001.58,99,995.81,26.2,33.71,0.0,11.10,000,6.00,10.00
48373,SI SAMRONG AGROMET.,ศรีสำโรง สกษ.,สุโขทัย,17.16136,99.86167,08-30-2019,22:00:00,25.5,1000.73,100,994.54,25.5,32.62,0.0,39.90,000,6.00,37.70
48374,LOM SAK,หล่มสัก,เพชรบูรณ์,16.77361,101.24944,08-30-2019,22:00:00,23.7,1001.39,95,984.91,24.6,29.33,0.0,106.40,000,10.00,0.50
48375,MAE SOT,แม่สอด,ตาก,16.65917,98.55083,08-30-2019,22:00:00,23.3,1001.68,88,979.37,25.5,28.59,0.0,3.70,000,6.00,3.00
48376,TAK,ตาก,ตาก,16.87833,99.14333,08-30-2019,22:00:00,24.4,1002.13,93,987.75,25.7,30.54,7.4,21.20,230,4.00,20.20
48377,BHUMIBOL DAM,เขื่อนภูมิพล,ตาก,17.24389,99.00250,08-30-2019,22:00:00,24.3,1001.34,90,985.00,26.0,30.30,0.0,17.70,000,6.00,17.20
48378,PHITSANULOK,พิษณุโลก,พิษณุโลก,16.79481,100.27930,08-30-2019,22:00:00,25.1,1001.52,97,996.30,25.5,31.79,3.7,23.60,230,5.00,5.00
48379,PHETCHABUN,เพชรบูรณ์,เพชรบูรณ์,16.43333,101.15000,08-30-2019,22:00:00,23.9,999.28,96,986.08,24.6,29.59,0.0,35.80,000,10.00,0.00
48380,KAMPHAENG PHET,กำแพงเพชร,กำแพงเพชร,16.48681,99.52697,08-30-2019,22:00:00,25.4,1001.89,97,992.59,26.0,32.48,5.6,23.90,100,4.00,19.50
48381,KHON KAEN,ขอนแก่น,ขอนแก่น,16.46111,102.78972,08-30-2019,22:00:00,23.5,1000.02,100,978.24,23.5,28.94,9.3,44.10,240,4.00,15.20
48382,MAHASARAKHAM,มหาสารคาม,มหาสารคาม,16.24722,103.06805,08-30-2019,22:00:00,23.5,1001.35,100,983.75,23.5,28.94,0.0,228.20,000,4.00,25.80
48383,MUKDAHAN,มุกดาหาร,มุกดาหาร,16.54139,104.72889,08-30-2019,22:00:00,23.6,1002.12,92,986.26,24.9,29.08,9.3,184.00,090,10.00,1.00
48384,THA PHRA AGROMET.,ท่าพระ สกษ.,ขอนแก่น,16.33333,102.81667,08-30-2019,22:00:00,23.3,998.91,99,979.96,23.5,28.68,11.1,62.30,180,5.00,13.80
48385,UMPHANG,อุ้มผาง,ตาก,16.02472,98.86444,08-30-2019,22:00:00,22.8,1004.41,93,953.04,24.0,27.76,0.0,2.90,000,7.00,0.00
48386,PICHIT AGROMET.,พิจิตร สกษ.,พิจิตร,16.43806,100.29250,08-30-2019,22:00:00,24.8,1000.97,98,997.01,25.1,31.31,9.3,65.20,160,4.00,9.00
48387,DOI MU SOE AGROMET.,ดอยมูเซอร์ สกษ.,ตาก,16.75000,98.93333,08-30-2019,22:00:00,20.7,1003.23,95,908.49,21.5,24.44,11.1,26.00,280,.30,22.10
48390,KALASIN,กาฬสินธุ์,กาฬสินธุ์,16.33250,103.58833,08-30-2019,22:00:00,23.6,1000.34,99,984.29,23.8,29.20,5.6,234.10,180,3.00,15.10
48400,NAKHON SAWAN,นครสวรรค์ ,นครสวรรค์,15.67183,100.13236,08-30-2019,22:00:00,25.3,1001.51,96,997.49,26.0,32.20,0.0,46.40,000,5.00,12.40
48401,TAKFA AGROMET.,ตากฟ้า สกษ.,นครสวรรค์,15.34944,100.53028,08-30-2019,22:00:00,25.1,1003.06,97,992.37,25.5,31.79,3.7,34.50,190,3.00,12.70
48402,CHAINAT AGROMET.,ชัยนาท สกษ.,ชัยนาท,15.15000,100.18333,08-30-2019,22:00:00,25.8,1002.80,96,1000.88,26.5,33.19,0.0,6.10,000,4.00,0.30
48403,CHAIYAPHUM,ชัยภูมิ,ชัยภูมิ,15.80000,102.03333,08-30-2019,22:00:00,23.7,1000.95,97,980.02,24.1,29.22,7.4,56.60,220,4.00,1.00
48404,ROI ET AGROMET.,ร้อยเอ็ด สกษ.,ร้อยเอ็ด,16.07322,103.60844,08-30-2019,22:00:00,23.3,1001.09,96,983.36,24.0,28.53,18.5,356.20,200,6.00,6.70
48405,ROI ET,ร้อยเอ็ด,ร้อยเอ็ด,16.02000,103.74389,08-30-2019,22:00:00,23.9,1000.62,99,984.41,24.1,29.74,11.1,325.90,200,7.00,5.30
48407,UBON RATCHATHANI,อุบลราชธานี (ศูนย์ฯ),อุบลราชธานี,15.25000,104.86667,08-30-2019,22:00:00,23.5,1003.89,94,989.78,24.5,28.89,9.3,60.20,150,10.00,0.10
48408,UBON RATCHATHANI AGROMET.,อุบลราชธานี สกษ.,อุบลราชธานี,15.23914,105.02350,08-30-2019,22:00:00,23.5,1004.63,97,989.70,24.1,28.96,0.0,53.40,000,5.00,0.40
48409,SI SAKET AGROMET.,ศรีสะเกษ,ศรีสะเกษ,15.00000,104.05000,08-30-2019,22:00:00,24.6,1003.39,97,988.69,25.2,30.96,3.7,43.70,160,4.00,0.00
48410,UTHAITHANI,อุทัยธานี,อุทัยธานี,15.37417,100.03889,08-30-2019,22:00:00,25.8,1001.66,97,998.65,26.4,33.27,0.0,15.70,"{'0': '   ', '@attributes': {'Unit': 'degree'}}",5.00,5.60
48413,WICHIAN BURI,วิเชียรบุรี,เพชรบูรณ์,15.65700,101.10800,08-30-2019,22:00:00,24.2,1001.29,95,993.34,25.1,30.23,0.0,39.60,000,5.00,2.00
48415,AYUTTHAYA,พระนครศรีอยุธยา,พระนครศรีอยุธยา,14.53472,100.72500,08-30-2019,22:00:00,24.6,1002.24,85,1001.14,27.3,30.86,7.4,3.20,220,5.00,0.00
48416,THA TUM,ท่าตูม,สุรินทร์,15.31667,103.68333,08-30-2019,22:00:00,24.1,1002.82,97,988.08,24.5,29.93,3.7,122.50,180,3.00,2.20
48417,NAKORNNAYOK,นครนายก,นครนายก,14.36222,101.39278,08-30-2019,22:00:00,20.2,1003.29,99,869.18,20.4,23.72,5.6,36.00,180,.10,13.40
48418,BUA CHUM,บัวชุม  ,ลพบุรี,15.26667,101.18736,08-30-2019,22:00:00,25.2,1001.99,99,996.11,25.4,32.15,0.0,45.40,000,5.00,8.80
48419,PATHUMTHANI,ปทุมธานี สกษ.,ปทุมธานี,14.10000,100.61667,08-30-2019,22:00:00,25.8,1002.52,92,1001.72,27.2,33.17,0.0,1.50,000,8.00,0.20
48420,Samut Prakarn,สมุทรปราการ สกษ.,สมุทรปราการ,13.51667,100.76167,08-30-2019,22:00:00,25.2,1002.69,80,1002.25,29.0,31.98,18.5,0.80,230,10.00,0.00
48421,THONG PHAPHUM,ทองผาภูมิ,กาญจนบุรี,14.74222,98.63639,08-30-2019,22:00:00,24.3,1004.04,92,992.73,25.8,30.46,0.0,0.00,000,5.00,0.00
48425,SUPHAN BURI,สุพรรณบุรี,สุพรรณบุรี,14.47444,100.13889,08-30-2019,22:00:00,24.3,1002.53,80,1001.52,28.0,30.28,3.7,0.40,200,10.00,0.01
48426,LOP BURI,ลพบุรี,ลพบุรี,14.79972,100.64500,08-30-2019,22:00:00,25.0,1002.49,91,1000.67,26.6,31.71,0.0,2.70,000,7.00,0.20
48427,U THONG AGROMET.,อู่ทอง สกษ.,สุพรรณบุรี,14.30361,99.86472,08-30-2019,22:00:00,23.6,1002.51,81,1001.75,27.1,29.13,0.0,0.20,000,6.00,0.01
48429,SUVARNABHUMI AIRPORT,สนามบินสุวรรณภูมิ,สมุทรปราการ,13.68639,100.76750,08-30-2019,22:00:00,23.6,1002.70,75,1002.00,28.5,29.05,11.1,0.60,210,10.00,0.01
48430,PRACHIN BURI,ปราจีนบุรี,ปราจีนบุรี,14.05842,101.36930,08-30-2019,22:00:00,25.2,1002.68,89,1001.98,27.2,32.05,0.0,7.20,000,7.00,0.00
48431,NAKHON RATCHASIMA,นครราชสีมา,นครราชสีมา,14.96830,102.08603,08-30-2019,22:00:00,23.4,1002.28,97,981.02,24.0,28.78,0.0,58.30,000,6.00,6.70
48432,SURIN,สุรินทร์,สุรินทร์,14.88333,103.50000,08-30-2019,22:00:00,24.6,1003.03,97,986.27,25.0,30.85,0.0,36.90,000,5.00,1.30
48433,SURIN AGROMET.,สุรินทร์ สกษ.,สุรินทร์,14.88333,103.45000,08-30-2019,22:00:00,24.4,1003.24,97,986.76,25.0,30.58,9.3,43.90,180,4.00,0.40
48434,CHOK CHAI,โชคชัย,นครราชสีมา,14.71889,102.16861,08-30-2019,22:00:00,23.8,1002.50,97,980.55,24.4,29.49,0.0,52.40,000,4.00,15.40
48435,PAKCHONG AGROMET.,ปากช่อง สกษ.,นครราชสีมา,14.64389,101.33194,08-30-2019,22:00:00,22.2,1002.09,86,958.74,24.7,26.68,7.4,12.80,240,8.00,3.90
48436,NANG RONG,นางรอง,บุรีรัมย์,14.58333,102.80000,08-30-2019,22:00:00,24.0,1003.01,99,982.34,24.2,29.92,3.7,40.20,210,3.00,7.60
48437,BURIRUM,บุรีรัมย์,บุรีรัมย์,15.22575,103.24808,08-30-2019,22:00:00,24.0,1003.43,100,982.48,24.0,29.82,22.2,85.80,190,5.00,6.20
48438,SAMUTSONGKRAM,สมุทรสงคราม,สมุทรสงคราม,13.40778,100.03222,08-30-2019,22:00:00,23.8,1002.92,74,1002.49,29.0,29.46,13.0,0.01,240,10.00,0.00
48439,KABIN BURI,กบินทร์บุรี,ปราจีนบุรี,13.98333,101.70722,08-30-2019,22:00:00,25.3,1001.87,96,1000.45,26.0,32.20,0.0,12.20,000,6.00,0.50
48440,SA KAEW,สระแก้ว,สระแก้ว,13.78889,102.03472,08-30-2019,22:00:00,25.0,1003.63,97,998.69,25.6,31.71,0.0,17.10,000,5.00,0.30
48450,KANCHANA BURI,กาญจนบุรี,กาญจนบุรี,14.02250,99.53583,08-30-2019,22:00:00,22.9,1002.91,70,999.66,29.0,27.83,0.0,0.00,000,10.00,0.00
48451,NAKHONPATHOM,นครปฐม,นครปฐม,14.01167,99.97000,08-30-2019,22:00:00,24.0,1002.77,83,1001.67,27.2,29.85,0.0,0.60,000,7.00,0.00
48453,BANG NA AGROMET.,กรุงเทพฯ บางนา สกษ.,กรุงเทพมหานคร,13.66639,100.60611,08-30-2019,22:00:00,24.3,1003.01,75,1002.71,29.2,30.40,9.3,1.00,190,8.00,0.01
48455,BANGKOK METROPOLIS,กรุงเทพมหานคร,กรุงเทพมหานคร,13.72639,100.56000,08-30-2019,22:00:00,25.6,1003.29,88,1002.80,27.7,32.76,0.0,1.40,000,10.00,0.20
48456,DON MUANG AIRPORT,สนามบินดอนเมือง,กรุงเทพมหานคร,13.91917,100.60500,08-30-2019,22:00:00,25.5,1003.32,89,1001.92,27.5,32.64,0.0,1.40,000,10.00,0.20
48459,CHON BURI,ชลบุรี,ชลบุรี,13.36667,100.98333,08-30-2019,22:00:00,24.4,1003.02,78,1002.74,28.6,30.62,5.6,0.40,270,10.00,0.00
48460,KO SICHANG,เกาะสีชัง,ชลบุรี,13.16167,100.80194,08-30-2019,22:00:00,24.2,1003.13,78,1000.03,28.5,30.15,7.4,0.01,130,10.00,0.00
48461,PHATTHAYA,พัทยา,ชลบุรี,12.92000,100.86944,08-30-2019,22:00:00,23.5,1003.89,76,997.00,28.2,29.03,13.0,0.00,220,10.00,0.00
48462,ARANYA PRATHET,อรัญประเทศ,สระแก้ว,13.70000,102.58333,08-30-2019,22:00:00,24.6,1003.50,92,997.90,26.0,30.84,9.3,2.10,220,7.00,0.20
48464,RATCHA BURI,ราชบุรี,ราชบุรี,13.48931,99.79239,08-30-2019,22:00:00,23.9,1003.82,81,1002.56,27.4,29.69,7.4,0.00,270,10.00,0.00
48465,PHETCHA BURI,เพชรบุรี,เพชรบุรี,12.99944,100.06056,08-30-2019,22:00:00,22.8,1003.57,73,1003.14,28.1,27.77,7.4,0.00,220,11.00,0.00
48474,NONG PHLUB AGROMET.,หนองพลับ สกษ.,ประจวบคีรีขันธ์,12.58333,99.73333,08-30-2019,22:00:00,22.9,1004.24,82,991.98,26.1,27.83,3.7,0.00,180,10.00,0.00
48475,HUA HIN,หัวหิน,ประจวบคีรีขันธ์,12.58611,99.96250,08-30-2019,22:00:00,23.2,1003.97,78,1003.26,27.3,28.43,13.0,0.00,210,10.00,0.00
48477,SATTAHIP,สัตหีบ,ชลบุรี,12.68333,100.98333,08-30-2019,22:00:00,22.8,1004.05,71,1001.63,28.5,27.71,18.5,0.01,240,10.00,0.00
48478,RAYONG,ระยอง,ระยอง,12.63222,101.34361,08-30-2019,22:00:00,24.7,1004.21,81,1003.69,28.3,31.14,18.5,0.01,270,10.00,0.00
48479,HUAI PONG AGROMET.,ห้วยโป่ง สกษ.,ระยอง,12.73333,101.13333,08-30-2019,22:00:00,23.4,1004.04,77,998.92,27.8,28.82,9.3,0.10,250,8.00,0.10
48480,CHANTHA BURI,จันทบุรี,จันทบุรี,12.61667,102.11333,08-30-2019,22:00:00,25.4,1004.78,85,1004.37,28.2,32.35,7.4,3.60,220,7.00,0.00
48481,PHLIU  AGROMET.,พลิ้ว สกษ.,จันทบุรี,12.50861,102.17305,08-30-2019,22:00:00,25.8,1005.32,90,1002.56,27.5,33.21,5.6,1.10,200,8.00,1.10
48500,PRACHUAP KHIRIKHAN,ประจวบคีรีขันธ์,ประจวบคีรีขันธ์,11.83333,99.83333,08-30-2019,22:00:00,22.9,1005.46,89,1004.67,24.8,27.87,3.7,16.50,200,6.00,8.30
48501,TRAD,ตราด,ตราด,11.76667,102.88333,08-30-2019,22:00:00,25.4,1005.84,88,1005.38,27.5,32.36,9.3,26.30,240,6.00,0.10
48517,CHUMPHON,ชุมพร,ชุมพร,10.49875,99.18847,08-30-2019,22:00:00,23.8,1007.09,97,1006.40,24.4,29.49,0.0,46.70,000,7.00,1.90
48520,SAWI AGROMET.,สวี สกษ.,ชุมพร,10.33333,99.10000,08-30-2019,22:00:00,23.6,1006.62,93,1005.08,24.8,29.16,0.0,36.40,000,7.00,2.40
48532,RANONG,ระนอง,ระนอง,9.98333,98.61667,08-30-2019,22:00:00,24.2,1007.99,95,1007.07,25.1,30.23,7.4,58.30,250,7.00,4.80
48550,KO SAMUI,เกาะสมุย,สุราษฎร์ธานี,9.46667,100.05000,08-30-2019,22:00:00,23.2,1006.42,81,1005.74,26.7,28.39,9.3,1.50,240,10.00,0.00
48551,SURAT THANI,สุราษฎร์ธานี,สุราษฎร์ธานี,9.13556,99.15194,08-30-2019,22:00:00,24.3,1007.79,99,1006.98,24.5,30.46,3.7,12.30,210,8.00,0.20
48552,NAKHONSI THAMMARAT,นครศรีธรรมราช,นครศรีธรรมราช,8.53778,99.96389,08-30-2019,22:00:00,23.6,1006.78,89,1006.14,25.5,29.11,7.4,5.40,080,10.00,0.00
48554,NAKHONSI THAMMARAT AGROMET.,นครศรีธรรมราช สกษ.,นครศรีธรรมราช,8.35931,100.00000,08-30-2019,22:00:00,23.8,1007.84,94,1007.44,24.8,29.42,7.4,4.60,230,8.00,0.00
48555,SURAT THANI AGROMET.,สุราษฎร์ธานี สกษ.,สุราษฎร์ธานี,9.10000,99.63333,08-30-2019,22:00:00,22.2,1009.00,78,1004.77,26.4,26.81,13.0,1.20,260,7.00,0.00
48556,PHRA SANG,พระแสง สอท.,สุราษฎร์ธานี,8.57022,99.25825,08-30-2019,22:00:00,23.6,1007.93,98,1006.31,23.9,29.12,0.0,32.50,000,9.00,14.80
48557,CHAWANG,ฉวาง,นครศรีธรรมราช,8.43194,99.51194,08-30-2019,22:00:00,23.8,1008.50,96,1004.99,24.5,29.41,0.0,14.80,000,10.00,0.00
48560,PHATTHALUNG AGROMET.,พัทลุง สกษ.,พัทลุง,7.58333,100.16667,08-30-2019,22:00:00,23.9,1007.82,98,1006.45,24.2,29.66,0.0,21.30,000,7.00,0.00
48561,TAKUA PA,ตะกั่วป่า,พังงา,8.68417,98.25222,08-30-2019,22:00:00,24.7,1008.38,98,1007.49,25.0,31.12,0.0,84.80,000,10.00,0.20
48563,KRABI,กระบี่,กระบี่,8.10361,98.97528,08-30-2019,22:00:00,23.9,1007.94,99,1004.35,24.1,29.74,0.0,66.10,000,10.00,0.40
48564,PHUKET,ภูเก็ต,ภูเก็ต,7.88333,98.40000,08-30-2019,22:00:00,24.8,1007.88,96,1007.45,25.5,31.25,0.0,41.40,000,10.00,1.00
48565,PHUKET AIRPORT,ภูเก็ต (ศูนย์ฯ),ภูเก็ต,8.14500,98.31444,08-30-2019,22:00:00,23.7,1008.39,95,1007.39,24.6,29.33,0.0,93.00,000,8.00,0.01
48566,KO LANTA,เกาะลันตา,กระบี่,7.53333,99.05000,08-30-2019,22:00:00,25.2,1008.29,86,1007.48,27.8,32.12,13.0,45.40,230,10.00,0.00
48567,TRANG AIRPORT,ตรัง,ตรัง,7.51667,99.61667,08-30-2019,22:00:00,23.5,1008.51,97,1006.68,23.9,28.86,0.0,43.60,000,10.00,0.00
48568,SONGKHLA,สงขลา,สงขลา,7.18211,100.60769,08-30-2019,22:00:00,23.0,1008.31,89,1007.55,24.9,28.04,1.9,16.80,160,10.00,0.00
48569,HAT YAI AIRPORT,หาดใหญ่,สงขลา,6.91667,100.43333,08-30-2019,22:00:00,23.2,1008.60,98,1004.55,23.5,28.42,5.6,11.00,120,10.00,0.00
48570,SATUN,สตูล,สตูล,6.65000,100.08333,08-30-2019,22:00:00,23.6,1009.05,96,1008.36,24.3,29.05,0.0,28.50,000,10.00,0.00
48571,KHO HONG AGROMET.,คอหงษ์ สกษ.,สงขลา,7.00000,100.50000,08-30-2019,22:00:00,24.1,1008.14,97,1007.01,24.5,29.93,0.0,4.00,000,10.00,0.00
48574,SA DAO,สะเดา,สงขลา,6.79806,100.39056,08-30-2019,22:00:00,23.7,1008.63,98,1005.67,24.0,29.30,0.0,27.60,000,10.00,0.20
48580,PATTANI AIRPORT,ปัตตานี,ปัตตานี,6.78333,101.15000,08-30-2019,22:00:00,23.6,1008.37,96,1007.68,24.3,29.05,0.0,0.80,000,8.00,0.00
48581,YALA AGROMET.,ยะลา สกษ.,ยะลา,6.51667,101.28333,08-30-2019,22:00:00,22.4,1008.73,81,1004.58,25.8,27.05,9.3,0.00,230,8.00,0.00
48583,NARATHIWAT,นราธิวาส,นราธิวาส,6.41667,101.81667,08-30-2019,22:00:00,22.1,1008.20,75,1007.62,27.0,26.58,0.0,0.00,000,10.00,0.00
