WmoStationNumber,StationNameEnglish,StationNameThai,Province,Latitude,Longitude,Rainfall,Date,Time,LandVisibility,MeanSeaLevelPressure,WindSpeed,VaporPressure,StationPressure,Rainfall24Hr,AirTemperature,WindDirection,DewPoint,RelativeHumidity
48300,MAE HONG SON,แม่ฮ่องสอน,แม่ฮ่องสอน,19.29897,97.97578,0.00,09-07-2019,04:00:00,8.00,1006.54,0.0,28.90,975.51,0.90,24.8,000,23.5,92
48302,DOI ANG KANG,ดอยอ่างขาง,เชียงใหม่,19.93139,99.04833,0.00,09-07-2019,04:00:00,8.00,1004.13,5.6,20.68,843.28,0.00,18.7,270,18.0,96
48303,CHIANG RAI,เชียงราย,เชียงราย,19.96139,99.88139,0.00,09-07-2019,04:00:00,10.00,1005.06,0.0,29.89,961.46,6.50,25.2,000,24.0,93
48304,CHAING RAI AGROMET.,เชียงราย สกษ.,เชียงราย,19.87083,99.78278,0.00,09-07-2019,04:00:00,12.00,1005.17,0.0,27.33,959.43,25.80,23.6,000,22.6,94
48307,THUNG CHANG,ทุ่งช้าง,น่าน,19.41194,100.88353,0.00,09-07-2019,04:00:00,6.00,1006.24,0.0,31.49,968.57,0.00,25.2,000,24.9,98
48310,PHAYAO,พะเยา,พะเยา,19.13333,99.90000,0.00,09-07-2019,04:00:00,10.00,1004.65,7.4,28.37,959.51,0.00,24.5,140,23.2,92
48315,THA WANGPHA,ท่าวังผา,น่าน,19.11056,100.80250,0.00,09-07-2019,04:00:00,6.00,1006.57,0.0,29.43,979.88,0.00,26.4,000,23.8,86
48324,THOEN,เถิน,ลำปาง,17.63661,99.24475,0.00,09-07-2019,04:00:00,12.00,1006.23,0.0,29.15,984.36,0.00,24.5,000,23.6,95
48325,MAE SARIANG,แม่สะเรียง,แม่ฮ่องสอน,18.16667,97.93333,0.80,09-07-2019,04:00:00,6.00,1007.52,0.0,28.53,983.22,0.80,24.0,000,23.3,96
48327,CHIANG MAI,เชียงใหม่,เชียงใหม่,18.79000,98.97694,0.00,09-07-2019,04:00:00,10.00,1005.78,0.0,28.08,971.29,0.00,25.8,000,23.0,85
48328,LAMPANG,ลำปาง,ลำปาง,18.28333,99.51667,0.00,09-07-2019,04:00:00,10.00,1007.18,0.0,29.00,979.54,0.00,25.0,000,23.5,92
48329,LAMPHUN,ลำพูน,ลำพูน,18.56722,99.03389,0.00,09-07-2019,04:00:00,10.00,1005.90,0.0,27.62,972.27,0.40,25.1,000,22.7,87
48330,PHRAE,แพร่,แพร่,18.16667,100.16667,0.00,09-07-2019,04:00:00,10.00,1005.69,0.0,30.15,987.13,0.00,25.2,000,24.2,94
48331,NAN,น่าน,น่าน,18.77972,100.77778,0.00,09-07-2019,04:00:00,10.00,1006.39,0.0,29.64,983.52,0.00,25.5,000,23.9,91
48333,NAN AGROMET.,น่าน สกษ.,น่าน,18.86667,100.75000,0.00,09-07-2019,04:00:00,7.00,1006.46,0.0,30.05,976.46,0.00,25.0,000,24.1,95
48334,LAMPANG AGROMET.,ลำปาง สกษ.,ลำปาง,18.31667,99.28333,0.00,09-07-2019,04:00:00,7.00,1006.04,0.0,29.41,970.38,0.00,24.5,000,23.8,96
48350,LOEI AGROMET.,เลย สกษ.,เลย,17.40000,101.73333,0.00,09-07-2019,04:00:00,12.00,1004.94,0.0,28.09,975.02,3.20,23.6,000,23.0,96
48351,UTTARADIT,อุตรดิตถ์,อุตรดิตถ์,17.61667,100.10000,0.00,09-07-2019,04:00:00,8.00,1005.98,0.0,30.76,998.66,0.00,26.1,000,24.5,91
48352,NONG KHAI,หนองคาย,หนองคาย,17.86717,102.73303,0.00,09-07-2019,04:00:00,10.00,1005.14,0.0,33.10,985.26,0.40,26.6,000,25.7,95
48353,LOEI,เลย,เลย,17.45000,101.73333,0.00,09-07-2019,04:00:00,12.00,1005.56,3.7,28.59,976.84,0.40,25.5,340,23.3,88
48354,UDON THANI,อุดรธานี,อุดรธานี,17.38333,102.80000,0.00,09-07-2019,04:00:00,10.00,1005.18,0.0,31.08,984.97,7.10,25.7,000,24.7,94
48355,SAKON NAKHON AGROMET.,สกลนคร สกษ.,สกลนคร,17.12503,104.06100,0.00,09-07-2019,04:00:00,12.00,1005.80,3.7,28.90,984.08,0.00,26.4,180,23.5,84
48356,SAKON NAKHON,สกลนคร,สกลนคร,17.15000,104.13333,0.00,09-07-2019,04:00:00,10.00,1004.99,0.0,30.57,985.49,0.00,26.0,000,24.4,91
48357,NAKHON PHANOM,นครพนม,นครพนม,17.41083,104.78250,0.01,09-07-2019,04:00:00,10.00,1005.85,0.0,30.84,989.08,0.01,26.0,000,24.6,92
48358,NAKHON PHANOM AGROMET.,นครพนม สกษ.,นครพนม,17.44306,104.77361,0.00,09-07-2019,04:00:00,10.00,1006.00,0.0,31.17,988.53,0.80,25.6,000,24.7,95
48360,NONG BUA LAM PHU,หนองบัวลำภู,หนองบัวลำภู,17.23250,102.42944,0.20,09-07-2019,04:00:00,9.00,1004.37,0.0,31.00,978.58,9.00,25.8,000,24.6,93
48372,SUKHOTHAI*,สุโขทัย,สุโขทัย,17.10611,99.80000,0.00,09-07-2019,04:00:00,10.00,1005.53,0.0,30.02,999.75,0.00,27.0,000,24.1,84
48373,SI SAMRONG AGROMET.,ศรีสำโรง สกษ.,สุโขทัย,17.16136,99.86167,0.00,09-07-2019,04:00:00,10.00,1004.61,0.0,29.72,998.43,0.00,26.7,000,23.9,85
48374,LOM SAK,หล่มสัก,เพชรบูรณ์,16.77361,101.24944,0.00,09-07-2019,04:00:00,10.00,1006.66,0.0,29.99,990.15,0.00,25.4,000,24.1,92
48375,MAE SOT,แม่สอด,ตาก,16.65917,98.55083,0.20,09-07-2019,04:00:00,10.00,1006.13,0.0,28.01,983.59,16.10,23.7,000,23.0,96
48376,TAK,ตาก,ตาก,16.87833,99.14333,0.00,09-07-2019,04:00:00,7.00,1006.74,5.6,27.19,992.37,0.00,27.2,280,22.5,75
48378,PHITSANULOK,พิษณุโลก,พิษณุโลก,16.79481,100.27930,0.00,09-07-2019,04:00:00,10.00,1006.32,0.0,33.02,1001.10,0.01,26.7,000,25.7,94
48379,PHETCHABUN,เพชรบูรณ์,เพชรบูรณ์,16.43333,101.15000,0.00,09-07-2019,04:00:00,10.00,1005.37,0.0,30.17,992.13,0.00,25.5,000,24.2,93
48380,KAMPHAENG PHET,กำแพงเพชร,กำแพงเพชร,16.48681,99.52697,0.00,09-07-2019,04:00:00,10.00,1006.14,0.0,30.38,996.79,1.40,25.9,000,24.3,91
48381,KHON KAEN,ขอนแก่น,ขอนแก่น,16.46111,102.78972,0.00,09-07-2019,04:00:00,8.00,1005.93,3.7,31.52,984.16,9.00,25.5,190,24.9,97
48382,MAHASARAKHAM,มหาสารคาม,มหาสารคาม,16.24722,103.06805,0.00,09-07-2019,04:00:00,8.00,1004.78,0.0,30.02,987.32,2.20,27.0,000,24.1,84
48383,MUKDAHAN,มุกดาหาร,มุกดาหาร,16.54139,104.72889,0.00,09-07-2019,04:00:00,10.00,1005.27,0.0,31.17,989.39,8.50,25.6,000,24.7,95
48384,THA PHRA AGROMET.,ท่าพระ สกษ.,ขอนแก่น,16.33333,102.81667,0.00,09-07-2019,04:00:00,8.00,1004.92,1.9,30.86,986.04,1.00,26.3,140,24.6,90
48385,UMPHANG,อุ้มผาง,ตาก,16.02472,98.86444,7.80,09-07-2019,04:00:00,5.00,1007.24,0.0,25.93,955.49,25.40,22.6,000,21.7,95
48386,PICHIT AGROMET.,พิจิตร สกษ.,พิจิตร,16.43806,100.29250,0.00,09-07-2019,04:00:00,5.00,1006.23,7.4,33.19,1002.27,3.10,26.5,140,25.8,96
48387,DOI MU SOE AGROMET.,ดอยมูเซอร์ สกษ.,ตาก,16.75000,98.93333,0.20,09-07-2019,04:00:00,.10,1007.38,13.0,23.49,911.92,6.50,20.4,260,20.1,98
48390,KALASIN,กาฬสินธุ์,กาฬสินธุ์,16.33250,103.58833,0.00,09-07-2019,04:00:00,8.00,1005.52,0.0,31.91,989.54,1.40,26.7,000,25.1,91
48400,NAKHON SAWAN,นครสวรรค์ ,นครสวรรค์,15.67183,100.13236,0.00,09-07-2019,04:00:00,10.00,1006.70,1.9,31.30,1002.66,0.00,26.1,130,24.8,93
48401,TAKFA AGROMET.,ตากฟ้า สกษ.,นครสวรรค์,15.34944,100.53028,0.00,09-07-2019,04:00:00,7.00,1008.10,0.0,29.52,997.34,4.00,25.0,000,23.8,93
48402,CHAINAT AGROMET.,ชัยนาท สกษ.,ชัยนาท,15.15000,100.18333,0.00,09-07-2019,04:00:00,7.00,1007.24,0.0,28.85,1005.30,7.90,25.5,000,23.4,88
48403,CHAIYAPHUM,ชัยภูมิ,ชัยภูมิ,15.80000,102.03333,0.00,09-07-2019,04:00:00,10.00,1006.87,0.0,27.62,985.88,0.00,25.1,000,22.7,87
48404,ROI ET AGROMET.,ร้อยเอ็ด สกษ.,ร้อยเอ็ด,16.07322,103.60844,0.10,09-07-2019,04:00:00,10.00,1005.55,5.6,31.79,987.89,0.10,26.5,250,25.1,92
48405,ROI ET,ร้อยเอ็ด,ร้อยเอ็ด,16.02000,103.74389,0.01,09-07-2019,04:00:00,10.00,1005.54,9.3,31.63,989.39,0.01,26.7,240,25.0,90
48407,UBON RATCHATHANI,อุบลราชธานี (ศูนย์ฯ),อุบลราชธานี,15.25000,104.86667,0.00,09-07-2019,04:00:00,10.00,1006.37,11.1,31.19,992.34,0.10,26.9,250,24.7,88
48408,UBON RATCHATHANI AGROMET.,อุบลราชธานี สกษ.,อุบลราชธานี,15.23914,105.02350,0.90,09-07-2019,04:00:00,9.00,1006.71,3.7,31.38,991.84,1.40,26.0,260,24.8,93
48409,SI SAKET AGROMET.,ศรีสะเกษ,ศรีสะเกษ,15.00000,104.05000,0.00,09-07-2019,04:00:00,6.00,1007.41,0.0,31.79,992.71,0.00,26.5,000,25.1,92
48410,UTHAITHANI,อุทัยธานี,อุทัยธานี,15.37417,100.03889,0.00,09-07-2019,04:00:00,10.00,1006.50,0.0,30.59,1003.48,0.00,26.3,"{'0': '   ', '@attributes': {'Unit': 'degree'}}",24.4,89
48413,WICHIAN BURI,วิเชียรบุรี,เพชรบูรณ์,15.65700,101.10800,0.01,09-07-2019,04:00:00,7.00,1006.96,0.0,30.34,998.97,1.00,25.3,000,24.3,94
48415,AYUTTHAYA,พระนครศรีอยุธยา,พระนครศรีอยุธยา,14.53472,100.72500,0.00,09-07-2019,04:00:00,7.00,1007.42,5.6,30.02,1006.31,0.00,27.0,200,24.1,84
48416,THA TUM,ท่าตูม,สุรินทร์,15.31667,103.68333,0.00,09-07-2019,04:00:00,8.00,1004.55,0.0,31.19,989.89,0.00,26.9,000,24.7,88
48418,BUA CHUM,บัวชุม  ,ลพบุรี,15.26667,101.18736,0.00,09-07-2019,04:00:00,10.00,1007.10,0.0,31.41,1001.19,19.40,25.3,000,24.9,97
48419,PATHUMTHANI,ปทุมธานี สกษ.,ปทุมธานี,14.10000,100.61667,0.00,09-07-2019,04:00:00,7.00,1008.55,3.7,31.79,1007.75,4.00,26.5,240,25.1,92
48420,Samut Prakarn,สมุทรปราการ สกษ.,สมุทรปราการ,13.51667,100.76167,0.00,09-07-2019,04:00:00,10.00,1005.96,5.6,30.98,1005.52,6.70,28.5,210,24.6,80
48421,THONG PHAPHUM,ทองผาภูมิ,กาญจนบุรี,14.74222,98.63639,0.00,09-07-2019,04:00:00,3.00,1008.14,0.0,29.41,996.73,8.20,24.5,000,23.8,96
48425,SUPHAN BURI,สุพรรณบุรี,สุพรรณบุรี,14.47444,100.13889,0.00,09-07-2019,04:00:00,10.00,1007.28,0.0,29.75,1006.27,0.00,27.0,000,24.0,83
48426,LOP BURI,ลพบุรี,ลพบุรี,14.79972,100.64500,0.00,09-07-2019,04:00:00,7.00,1007.19,0.0,29.60,1005.36,4.20,26.2,000,23.9,87
48427,U THONG AGROMET.,อู่ทอง สกษ.,สุพรรณบุรี,14.30361,99.86472,0.00,09-07-2019,04:00:00,3.00,1007.29,0.0,29.38,1006.52,3.60,25.5,000,23.7,90
48429,SUVARNABHUMI AIRPORT,สนามบินสุวรรณภูมิ,สมุทรปราการ,13.68639,100.76750,0.00,09-07-2019,04:00:00,10.00,1008.06,3.7,27.60,1007.35,1.20,26.7,250,22.7,79
48430,PRACHIN BURI,ปราจีนบุรี,ปราจีนบุรี,14.05842,101.36930,0.00,09-07-2019,04:00:00,7.00,1007.72,0.0,32.77,1007.02,2.10,27.0,000,25.6,92
48431,NAKHON RATCHASIMA,นครราชสีมา,นครราชสีมา,14.96830,102.08603,0.00,09-07-2019,04:00:00,10.00,1007.20,3.7,28.18,985.97,0.01,26.0,260,23.1,84
48432,SURIN,สุรินทร์,สุรินทร์,14.88333,103.50000,0.00,09-07-2019,04:00:00,6.00,1006.72,0.0,31.05,989.98,0.00,26.4,000,24.7,90
48433,SURIN AGROMET.,สุรินทร์ สกษ.,สุรินทร์,14.88333,103.45000,0.00,09-07-2019,04:00:00,6.00,1007.17,0.0,29.50,990.69,0.00,26.0,000,23.8,88
48434,CHOK CHAI,โชคชัย,นครราชสีมา,14.71889,102.16861,0.00,09-07-2019,04:00:00,10.00,1007.60,0.0,29.58,985.65,0.01,25.9,000,23.9,89
48435,PAKCHONG AGROMET.,ปากช่อง สกษ.,นครราชสีมา,14.64389,101.33194,0.00,09-07-2019,04:00:00,10.00,1007.55,7.4,25.52,964.04,3.90,25.2,220,21.4,80
48436,NANG RONG,นางรอง,บุรีรัมย์,14.58333,102.80000,0.00,09-07-2019,04:00:00,8.00,1006.79,5.6,29.23,986.17,0.00,26.0,220,23.7,87
48437,BURIRUM,บุรีรัมย์,บุรีรัมย์,15.22575,103.24808,0.00,09-07-2019,04:00:00,8.00,1008.27,7.4,31.85,987.30,0.00,25.1,230,25.1,100
48438,SAMUTSONGKRAM,สมุทรสงคราม,สมุทรสงคราม,13.40778,100.03222,0.00,09-07-2019,04:00:00,10.00,1007.63,3.7,30.83,1007.20,1.60,27.0,060,24.5,87
48439,KABIN BURI,กบินทร์บุรี,ปราจีนบุรี,13.98333,101.70722,0.00,09-07-2019,04:00:00,6.00,1007.70,0.0,31.25,1006.27,4.40,25.5,000,24.8,96
48440,SA KAEW,สระแก้ว,สระแก้ว,13.78889,102.03472,0.00,09-07-2019,04:00:00,7.00,1008.26,0.0,31.63,1003.30,1.30,25.7,000,25.0,96
48450,KANCHANA BURI,กาญจนบุรี,กาญจนบุรี,14.02250,99.53583,0.00,09-07-2019,04:00:00,10.00,1007.17,0.0,28.82,1003.87,0.10,26.5,000,23.4,83
48451,NAKHONPATHOM,นครปฐม,นครปฐม,14.01167,99.97000,0.00,09-07-2019,04:00:00,10.00,1007.75,0.0,29.91,1006.64,0.01,25.5,000,24.0,92
48453,BANG NA AGROMET.,กรุงเทพฯ บางนา สกษ.,กรุงเทพมหานคร,13.66639,100.60611,0.00,09-07-2019,04:00:00,10.00,1007.78,0.0,28.88,1007.48,0.20,27.4,000,23.5,79
48455,BANGKOK METROPOLIS,กรุงเทพมหานคร,กรุงเทพมหานคร,13.72639,100.56000,0.00,09-07-2019,04:00:00,10.00,1007.27,0.0,29.27,1006.78,2.90,26.6,000,23.7,84
48456,DON MUANG AIRPORT,สนามบินดอนเมือง,กรุงเทพมหานคร,13.91917,100.60500,0.00,09-07-2019,04:00:00,10.00,1007.95,0.0,30.34,1006.54,12.00,26.6,000,24.3,87
48458,CHACHOENGSAO,ฉะเชิงเทรา,ฉะเชิงเทรา,13.51556,101.45833,0.00,09-07-2019,04:00:00,10.00,1009.34,0.0,30.63,1001.28,0.50,25.6,000,24.4,93
48459,CHON BURI,ชลบุรี,ชลบุรี,13.36667,100.98333,0.00,09-07-2019,04:00:00,10.00,1007.56,0.0,31.56,1007.27,0.00,27.8,000,24.9,84
48460,KO SICHANG,เกาะสีชัง,ชลบุรี,13.16167,100.80194,0.00,09-07-2019,04:00:00,10.00,1007.56,0.0,30.48,1004.44,0.00,28.1,000,24.4,80
48461,PHATTHAYA,พัทยา,ชลบุรี,12.92000,100.86944,0.00,09-07-2019,04:00:00,10.00,1007.74,0.0,29.19,1000.82,0.00,28.0,000,23.6,77
48462,ARANYA PRATHET,อรัญประเทศ,สระแก้ว,13.70000,102.58333,0.00,09-07-2019,04:00:00,7.00,1008.12,0.0,30.84,1002.49,2.60,26.0,000,24.6,92
48464,RATCHA BURI,ราชบุรี,ราชบุรี,13.48931,99.79239,0.00,09-07-2019,04:00:00,10.00,1008.52,0.0,29.08,1007.24,1.60,24.9,000,23.6,92
48465,PHETCHA BURI,เพชรบุรี,เพชรบุรี,12.99944,100.06056,0.00,09-07-2019,04:00:00,11.00,1007.37,0.0,30.56,1006.94,0.00,28.0,000,24.4,81
48474,NONG PHLUB AGROMET.,หนองพลับ สกษ.,ประจวบคีรีขันธ์,12.58333,99.73333,0.00,09-07-2019,04:00:00,8.00,1007.79,0.0,27.95,995.43,0.01,24.7,000,22.9,90
48475,HUA HIN,หัวหิน,ประจวบคีรีขันธ์,12.58611,99.96250,0.00,09-07-2019,04:00:00,10.00,1007.69,3.7,28.08,1006.97,0.00,27.4,180,23.0,77
48477,SATTAHIP,สัตหีบ,ชลบุรี,12.68333,100.98333,0.00,09-07-2019,04:00:00,9.00,1008.47,7.4,29.87,1006.04,0.00,28.5,230,24.0,77
48478,RAYONG,ระยอง,ระยอง,12.63222,101.34361,0.00,09-07-2019,04:00:00,10.00,1008.34,13.0,30.70,1007.83,0.01,28.5,260,24.5,79
48479,HUAI PONG AGROMET.,ห้วยโป่ง สกษ.,ระยอง,12.73333,101.13333,0.00,09-07-2019,04:00:00,7.00,1007.99,0.0,28.67,1002.83,0.10,27.0,000,23.3,80
48480,CHANTHA BURI,จันทบุรี,จันทบุรี,12.61667,102.11333,0.01,09-07-2019,04:00:00,7.00,1008.29,0.0,32.86,1007.87,0.20,26.9,000,25.6,93
48481,PHLIU  AGROMET.,พลิ้ว สกษ.,จันทบุรี,12.50861,102.17305,0.00,09-07-2019,04:00:00,8.00,1008.30,0.0,31.38,1005.52,0.30,26.0,000,24.8,93
48500,PRACHUAP KHIRIKHAN,ประจวบคีรีขันธ์,ประจวบคีรีขันธ์,11.83333,99.83333,0.00,09-07-2019,04:00:00,10.00,1007.12,0.0,29.05,1006.33,0.50,25.9,000,23.6,87
48501,TRAD,ตราด,ตราด,11.76667,102.88333,0.00,09-07-2019,04:00:00,6.00,1008.89,3.7,31.25,1008.43,0.50,25.5,090,24.8,96
48517,CHUMPHON,ชุมพร,ชุมพร,10.49875,99.18847,0.00,09-07-2019,04:00:00,8.00,1008.87,0.0,31.55,1008.18,0.00,25.8,000,24.9,95
48520,SAWI AGROMET.,สวี สกษ.,ชุมพร,10.33333,99.10000,0.00,09-07-2019,04:00:00,6.00,1007.81,0.0,31.33,1006.27,0.00,25.4,000,24.8,97
48532,RANONG,ระนอง,ระนอง,9.98333,98.61667,0.00,09-07-2019,04:00:00,10.00,1009.61,0.0,31.65,1008.69,0.00,26.0,000,25.0,94
48550,KO SAMUI,เกาะสมุย,สุราษฎร์ธานี,9.46667,100.05000,0.00,09-07-2019,04:00:00,10.00,1009.33,0.0,31.63,1008.64,0.00,26.7,000,25.0,90
48551,SURAT THANI,สุราษฎร์ธานี,สุราษฎร์ธานี,9.13556,99.15194,0.00,09-07-2019,04:00:00,7.00,1009.32,0.0,29.41,1008.52,0.00,24.5,000,23.8,96
48552,NAKHONSI THAMMARAT,นครศรีธรรมราช,นครศรีธรรมราช,8.53778,99.96389,0.00,09-07-2019,04:00:00,10.00,1008.82,0.0,28.97,1008.18,0.00,24.4,000,23.5,95
48554,NAKHONSI THAMMARAT AGROMET.,นครศรีธรรมราช สกษ.,นครศรีธรรมราช,8.35931,100.00000,0.00,09-07-2019,04:00:00,10.00,1009.17,0.0,28.29,1008.76,0.00,24.6,000,23.1,92
48555,SURAT THANI AGROMET.,สุราษฎร์ธานี สกษ.,สุราษฎร์ธานี,9.10000,99.63333,0.00,09-07-2019,04:00:00,5.00,1011.16,0.0,28.53,1006.89,0.00,24.0,000,23.3,96
48556,PHRA SANG,พระแสง สอท.,สุราษฎร์ธานี,8.57022,99.25825,0.00,09-07-2019,04:00:00,6.00,1009.31,0.0,28.77,1007.68,0.00,23.7,000,23.4,98
48557,CHAWANG,ฉวาง,นครศรีธรรมราช,8.43194,99.51194,0.00,09-07-2019,04:00:00,6.00,1009.54,0.0,28.69,1006.02,0.00,23.8,000,23.4,97
48560,PHATTHALUNG AGROMET.,พัทลุง สกษ.,พัทลุง,7.58333,100.16667,0.00,09-07-2019,04:00:00,8.00,1008.95,0.0,29.33,1007.58,0.00,24.6,000,23.7,95
48561,TAKUA PA,ตะกั่วป่า,พังงา,8.68417,98.25222,0.00,09-07-2019,04:00:00,10.00,1009.21,0.0,31.25,1008.32,0.00,25.5,000,24.8,96
48563,KRABI,กระบี่,กระบี่,8.10361,98.97528,0.00,09-07-2019,04:00:00,10.00,1009.33,0.0,28.88,1005.73,0.00,24.2,000,23.5,96
48564,PHUKET,ภูเก็ต,ภูเก็ต,7.88333,98.40000,0.00,09-07-2019,04:00:00,10.00,1009.47,0.0,28.70,1009.04,0.00,26.0,000,23.4,85
48565,PHUKET AIRPORT,ภูเก็ต (ศูนย์ฯ),ภูเก็ต,8.14500,98.31444,0.00,09-07-2019,04:00:00,10.00,1008.80,0.0,30.85,1007.80,0.00,25.0,000,24.6,97
48566,KO LANTA,เกาะลันตา,กระบี่,7.53333,99.05000,0.00,09-07-2019,04:00:00,10.00,1009.32,9.3,30.42,1008.50,0.00,25.2,090,24.3,95
48567,TRANG AIRPORT,ตรัง,ตรัง,7.51667,99.61667,0.00,09-07-2019,04:00:00,10.00,1009.41,0.0,29.52,1007.58,0.00,25.0,000,23.8,93
48568,SONGKHLA,สงขลา,สงขลา,7.18211,100.60769,0.00,09-07-2019,04:00:00,8.00,1009.50,3.7,29.74,1008.74,0.00,25.7,250,23.9,90
48569,HAT YAI AIRPORT,หาดใหญ่,สงขลา,6.91667,100.43333,0.00,09-07-2019,04:00:00,4.00,1009.83,0.0,28.16,1005.77,0.00,23.2,000,23.0,99
48570,SATUN,สตูล,สตูล,6.65000,100.08333,0.00,09-07-2019,04:00:00,10.00,1009.71,0.0,30.87,1009.02,0.00,25.3,000,24.6,96
48571,KHO HONG AGROMET.,คอหงษ์ สกษ.,สงขลา,7.00000,100.50000,0.00,09-07-2019,04:00:00,10.00,1008.95,0.0,30.38,1007.82,0.00,24.6,000,24.3,98
48574,SA DAO,สะเดา,สงขลา,6.79806,100.39056,0.00,09-07-2019,04:00:00,10.00,1009.68,0.0,30.79,1006.74,0.00,25.4,000,24.5,95
