WmoStationNumber,StationNameEnglish,StationNameThai,Province,Latitude,Longitude,Rainfall24Hr,Date,Time,AirTemperature,LandVisibility,WindDirection,MaximumTemperature,StationPressure,Rainfall,RelativeHumidity,WindSpeed,VaporPressure,DewPoint,MeanSeaLevelPressure
48300,MAE HONG SON,แม่ฮ่องสอน,แม่ฮ่องสอน,19.29897,97.97578,7.00,09-07-2019,19:00:00,26.4,12.00,000,32.7,975.61,4.50,89,0.0,30.78,24.5,1006.47
48302,DOI ANG KANG,ดอยอ่างขาง,เชียงใหม่,19.93139,99.04833,6.50,09-07-2019,19:00:00,21.0,8.00,280,25.5,844.00,6.50,91,14.8,22.54,19.4,1003.65
48303,CHIANG RAI,เชียงราย,เชียงราย,19.96139,99.88139,6.50,09-07-2019,19:00:00,29.8,12.00,000,33.3,960.88,0.00,73,0.0,30.75,24.5,1003.77
48304,CHAING RAI AGROMET.,เชียงราย สกษ.,เชียงราย,19.87083,99.78278,25.80,09-07-2019,19:00:00,28.2,15.00,000,33.9,958.93,0.00,78,0.0,29.85,24.0,1003.94
48307,THUNG CHANG,ทุ่งช้าง,น่าน,19.41194,100.88353,0.00,09-07-2019,19:00:00,28.5,8.00,000,33.3,967.69,0.00,85,0.0,32.96,25.7,1004.91
48310,PHAYAO,พะเยา,พะเยา,19.13333,99.90000,0.00,09-07-2019,19:00:00,28.0,12.00,000,33.0,959.91,0.00,80,0.0,30.28,24.3,1004.53
48315,THA WANGPHA,ท่าวังผา,น่าน,19.11056,100.80250,0.00,09-07-2019,19:00:00,29.7,10.00,180,33.0,978.92,0.00,82,3.7,34.29,26.3,1005.29
48324,THOEN,เถิน,ลำปาง,17.63661,99.24475,1.70,09-07-2019,19:00:00,25.7,13.00,000,33.5,985.07,0.50,89,0.0,29.48,23.8,1006.87
48325,MAE SARIANG,แม่สะเรียง,แม่ฮ่องสอน,18.16667,97.93333,3.80,09-07-2019,19:00:00,26.5,8.00,000,29.8,983.94,0.00,88,0.0,30.43,24.3,1008.05
48327,CHIANG MAI,เชียงใหม่,เชียงใหม่,18.79000,98.97694,0.20,09-07-2019,19:00:00,28.0,10.00,000,33.5,971.93,0.20,82,0.0,30.84,24.6,1006.19
48328,LAMPANG,ลำปาง,ลำปาง,18.28333,99.51667,2.00,09-07-2019,19:00:00,26.7,10.00,000,33.7,979.51,0.00,83,0.0,28.92,23.5,1007.00
48329,LAMPHUN,ลำพูน,ลำพูน,18.56722,99.03389,0.00,09-07-2019,19:00:00,29.3,12.00,000,34.5,972.16,0.00,68,0.0,27.59,22.7,1005.31
48330,PHRAE,แพร่,แพร่,18.16667,100.16667,0.20,09-07-2019,19:00:00,29.0,10.00,300,34.0,987.19,0.00,82,3.7,32.83,25.6,1005.52
48331,NAN,น่าน,น่าน,18.77972,100.77778,0.10,09-07-2019,19:00:00,29.5,10.00,000,34.6,982.65,0.10,79,0.0,32.71,25.5,1005.20
48333,NAN AGROMET.,น่าน สกษ.,น่าน,18.86667,100.75000,0.00,09-07-2019,19:00:00,28.6,10.00,000,32.5,975.78,0.00,85,0.0,33.16,25.8,1005.40
48334,LAMPANG AGROMET.,ลำปาง สกษ.,ลำปาง,18.31667,99.28333,5.20,09-07-2019,19:00:00,24.7,6.00,000,31.5,971.09,2.20,94,0.0,29.25,23.7,1006.76
48350,LOEI AGROMET.,เลย สกษ.,เลย,17.40000,101.73333,0.00,09-07-2019,19:00:00,28.3,14.00,250,35.1,975.33,0.00,84,5.6,32.27,25.3,1004.78
48351,UTTARADIT,อุตรดิตถ์,อุตรดิตถ์,17.61667,100.10000,0.00,09-07-2019,19:00:00,31.4,10.00,000,35.3,998.64,0.00,67,0.0,30.57,24.4,1005.82
48352,NONG KHAI,หนองคาย,หนองคาย,17.86717,102.73303,0.40,09-07-2019,19:00:00,32.0,15.00,200,35.1,984.86,0.00,75,3.7,35.70,27.0,1004.37
48353,LOEI,เลย,เลย,17.45000,101.73333,0.00,09-07-2019,19:00:00,29.7,15.00,000,34.6,977.01,0.00,75,0.0,31.40,24.9,1005.33
48354,UDON THANI,อุดรธานี,อุดรธานี,17.38333,102.80000,4.60,09-07-2019,19:00:00,28.7,12.00,000,34.6,985.53,1.80,84,0.0,33.08,25.7,1005.55
48355,SAKON NAKHON AGROMET.,สกลนคร สกษ.,สกลนคร,17.12503,104.06100,0.00,09-07-2019,19:00:00,29.2,12.00,000,33.7,984.05,0.00,80,0.0,32.38,25.4,1005.57
48356,SAKON NAKHON,สกลนคร,สกลนคร,17.15000,104.13333,0.00,09-07-2019,19:00:00,30.4,13.00,180,33.5,985.88,0.00,72,3.7,31.39,24.9,1005.10
48357,NAKHON PHANOM,นครพนม,นครพนม,17.41083,104.78250,1.30,09-07-2019,19:00:00,29.5,10.00,000,33.5,989.37,0.00,81,0.0,33.58,26.0,1005.95
48358,NAKHON PHANOM AGROMET.,นครพนม สกษ.,นครพนม,17.44306,104.77361,0.10,09-07-2019,19:00:00,28.0,10.00,000,33.0,988.41,0.00,92,0.0,34.81,26.6,1005.73
48360,NONG BUA LAM PHU,หนองบัวลำภู,หนองบัวลำภู,17.23250,102.42944,0.20,09-07-2019,19:00:00,29.0,10.00,000,34.5,978.88,0.00,78,0.0,31.13,24.7,1004.41
48372,SUKHOTHAI*,สุโขทัย,สุโขทัย,17.10611,99.80000,0.00,09-07-2019,19:00:00,29.6,10.00,260,35.7,999.92,0.00,74,3.7,30.63,24.4,1005.65
48373,SI SAMRONG AGROMET.,ศรีสำโรง สกษ.,สุโขทัย,17.16136,99.86167,0.00,09-07-2019,19:00:00,29.5,10.00,230,34.5,1000.33,0.00,72,9.3,29.88,24.0,1006.47
48374,LOM SAK,หล่มสัก,เพชรบูรณ์,16.77361,101.24944,0.00,09-07-2019,19:00:00,28.2,10.00,000,33.2,990.76,0.00,76,0.0,29.03,23.5,1007.13
48375,MAE SOT,แม่สอด,ตาก,16.65917,98.55083,11.30,09-07-2019,19:00:00,25.4,10.00,000,28.8,984.78,0.30,88,0.0,28.67,23.3,1007.22
48376,TAK,ตาก,ตาก,16.87833,99.14333,0.00,09-07-2019,19:00:00,28.5,10.00,260,32.5,993.39,0.00,67,13.0,26.13,21.8,1007.71
48377,BHUMIBOL DAM,เขื่อนภูมิพล,ตาก,17.24389,99.00250,0.00,09-07-2019,19:00:00,28.8,10.00,000,34.0,990.12,0.00,72,0.0,28.54,23.3,1006.39
48378,PHITSANULOK,พิษณุโลก,พิษณุโลก,16.79481,100.27930,38.60,09-07-2019,19:00:00,24.9,6.00,110,32.9,1002.09,38.60,92,5.6,29.08,23.6,1007.35
48379,PHETCHABUN,เพชรบูรณ์,เพชรบูรณ์,16.43333,101.15000,1.30,09-07-2019,19:00:00,28.4,12.00,000,33.4,992.02,0.00,85,0.0,32.75,25.6,1005.13
48380,KAMPHAENG PHET,กำแพงเพชร,กำแพงเพชร,16.48681,99.52697,57.00,09-07-2019,19:00:00,26.4,11.00,000,33.0,997.52,57.00,94,0.0,32.43,25.4,1006.86
48381,KHON KAEN,ขอนแก่น,ขอนแก่น,16.46111,102.78972,11.60,09-07-2019,19:00:00,27.2,10.00,000,34.3,984.30,0.00,73,0.0,26.16,21.8,1005.94
48382,MAHASARAKHAM,มหาสารคาม,มหาสารคาม,16.24722,103.06805,3.80,09-07-2019,19:00:00,27.5,10.00,000,32.7,988.01,2.80,84,0.0,30.97,24.6,1005.46
48383,MUKDAHAN,มุกดาหาร,มุกดาหาร,16.54139,104.72889,1.40,09-07-2019,19:00:00,27.5,10.00,000,32.8,989.39,0.00,88,0.0,32.36,25.4,1005.17
48384,THA PHRA AGROMET.,ท่าพระ สกษ.,ขอนแก่น,16.33333,102.81667,2.00,09-07-2019,19:00:00,27.2,10.00,000,33.1,986.12,0.01,94,0.0,34.03,26.2,1004.95
48385,UMPHANG,อุ้มผาง,ตาก,16.02472,98.86444,16.60,09-07-2019,19:00:00,24.5,8.00,000,28.5,958.15,0.00,85,0.0,26.09,21.8,1009.70
48386,PICHIT AGROMET.,พิจิตร สกษ.,พิจิตร,16.43806,100.29250,0.01,09-07-2019,19:00:00,27.2,5.00,300,33.5,1002.62,0.01,88,22.2,31.77,25.1,1006.58
48387,DOI MU SOE AGROMET.,ดอยมูเซอร์ สกษ.,ตาก,16.75000,98.93333,6.50,09-07-2019,19:00:00,20.8,1.50,220,23.6,913.25,0.10,97,14.8,23.85,20.3,1008.71
48390,KALASIN,กาฬสินธุ์,กาฬสินธุ์,16.33250,103.58833,8.40,09-07-2019,19:00:00,28.1,7.00,000,33.3,989.89,8.40,91,0.0,34.44,26.4,1005.79
48400,NAKHON SAWAN,นครสวรรค์ ,นครสวรรค์,15.67183,100.13236,0.01,09-07-2019,19:00:00,30.8,12.00,000,34.4,1002.46,0.00,71,0.0,31.64,25.0,1006.44
48401,TAKFA AGROMET.,ตากฟ้า สกษ.,นครสวรรค์,15.34944,100.53028,0.50,09-07-2019,19:00:00,29.8,7.00,000,33.3,996.42,0.00,79,0.0,33.33,25.9,1006.99
48402,CHAINAT AGROMET.,ชัยนาท สกษ.,ชัยนาท,15.15000,100.18333,0.01,09-07-2019,19:00:00,30.6,10.00,270,33.1,1004.77,0.00,72,3.7,31.51,24.9,1006.68
48403,CHAIYAPHUM,ชัยภูมิ,ชัยภูมิ,15.80000,102.03333,0.00,09-07-2019,19:00:00,29.3,10.00,220,33.4,985.46,0.00,73,13.0,29.77,24.0,1006.14
48404,ROI ET AGROMET.,ร้อยเอ็ด สกษ.,ร้อยเอ็ด,16.07322,103.60844,5.50,09-07-2019,19:00:00,26.9,10.00,230,32.0,988.60,5.30,89,7.4,31.46,24.9,1006.25
48405,ROI ET,ร้อยเอ็ด,ร้อยเอ็ด,16.02000,103.74389,8.80,09-07-2019,19:00:00,28.0,5.00,200,33.6,990.16,8.80,91,9.3,34.23,26.3,1006.26
48407,UBON RATCHATHANI,อุบลราชธานี (ศูนย์ฯ),อุบลราชธานี,15.25000,104.86667,0.00,09-07-2019,19:00:00,28.7,10.00,000,32.6,992.57,0.00,76,0.0,29.98,24.1,1006.52
48408,UBON RATCHATHANI AGROMET.,อุบลราชธานี สกษ.,อุบลราชธานี,15.23914,105.02350,0.90,09-07-2019,19:00:00,28.8,10.00,000,33.5,992.27,0.00,81,0.0,32.14,25.2,1007.01
48409,SI SAKET AGROMET.,ศรีสะเกษ,ศรีสะเกษ,15.00000,104.05000,0.01,09-07-2019,19:00:00,29.0,10.00,000,33.0,992.13,0.01,88,0.0,35.16,26.8,1006.69
48410,UTHAITHANI,อุทัยธานี,อุทัยธานี,15.37417,100.03889,0.00,09-07-2019,19:00:00,30.6,10.00,"{'@attributes': {'Unit': 'degree'}, '0': '   '}",34.4,1003.03,0.00,72,0.0,31.51,24.9,1006.01
48413,WICHIAN BURI,วิเชียรบุรี,เพชรบูรณ์,15.65700,101.10800,6.10,09-07-2019,19:00:00,29.6,10.00,000,32.5,998.39,0.00,79,0.0,32.91,25.6,1006.27
48415,AYUTTHAYA,พระนครศรีอยุธยา,พระนครศรีอยุธยา,14.53472,100.72500,0.00,09-07-2019,19:00:00,29.8,8.00,230,33.2,1006.63,0.00,76,5.6,31.89,25.1,1007.73
48416,THA TUM,ท่าตูม,สุรินทร์,15.31667,103.68333,0.00,09-07-2019,19:00:00,31.5,8.00,000,34.0,992.29,0.00,76,0.0,34.90,26.6,1006.75
48417,NAKORNNAYOK,นครนายก,นครนายก,14.36222,101.39278,8.00,09-07-2019,19:00:00,20.4,8.00,300,23.9,874.05,0.00,100,7.4,23.95,20.4,1008.92
48418,BUA CHUM,บัวชุม  ,ลพบุรี,15.26667,101.18736,6.00,09-07-2019,19:00:00,29.7,10.00,000,34.0,1000.60,0.00,78,0.0,32.54,25.5,1006.42
48419,PATHUMTHANI,ปทุมธานี สกษ.,ปทุมธานี,14.10000,100.61667,0.00,09-07-2019,19:00:00,30.5,9.00,230,33.9,1006.36,0.00,61,9.3,26.60,22.1,1007.16
48420,Samut Prakarn,สมุทรปราการ สกษ.,สมุทรปราการ,13.51667,100.76167,0.00,09-07-2019,19:00:00,29.3,10.00,230,32.5,1006.86,0.00,76,18.5,30.88,24.6,1007.30
48421,THONG PHAPHUM,ทองผาภูมิ,กาญจนบุรี,14.74222,98.63639,6.00,09-07-2019,19:00:00,26.3,5.00,000,29.7,997.86,0.00,86,0.0,29.25,23.7,1009.21
48425,SUPHAN BURI,สุพรรณบุรี,สุพรรณบุรี,14.47444,100.13889,0.00,09-07-2019,19:00:00,30.5,10.00,240,35.5,1006.38,0.00,61,7.4,26.60,22.1,1007.38
48426,LOP BURI,ลพบุรี,ลพบุรี,14.79972,100.64500,1.20,09-07-2019,19:00:00,30.0,8.00,180,34.5,1005.13,0.00,66,5.6,28.09,23.0,1006.94
48427,U THONG AGROMET.,อู่ทอง สกษ.,สุพรรณบุรี,14.30361,99.86472,0.00,09-07-2019,19:00:00,29.6,8.00,000,33.7,1006.81,0.00,60,0.0,24.96,21.1,1007.57
48429,SUVARNABHUMI AIRPORT,สนามบินสุวรรณภูมิ,สมุทรปราการ,13.68639,100.76750,0.00,09-07-2019,19:00:00,29.0,10.00,200,31.8,1006.84,0.00,75,13.0,30.01,24.1,1007.54
48430,PRACHIN BURI,ปราจีนบุรี,ปราจีนบุรี,14.05842,101.36930,0.00,09-07-2019,19:00:00,30.6,7.00,000,34.2,1006.24,0.00,77,0.0,33.85,26.1,1006.93
48431,NAKHON RATCHASIMA,นครราชสีมา,นครราชสีมา,14.96830,102.08603,0.00,09-07-2019,19:00:00,30.3,10.00,270,33.5,985.62,0.00,68,5.6,29.22,23.7,1006.53
48432,SURIN,สุรินทร์,สุรินทร์,14.88333,103.50000,1.20,09-07-2019,19:00:00,28.0,9.00,000,33.8,990.12,1.20,86,0.0,32.52,25.4,1006.77
48433,SURIN AGROMET.,สุรินทร์ สกษ.,สุรินทร์,14.88333,103.45000,3.30,09-07-2019,19:00:00,32.8,8.00,000,33.8,990.71,3.30,56,0.0,28.00,23.0,1006.83
48434,CHOK CHAI,โชคชัย,นครราชสีมา,14.71889,102.16861,0.00,09-07-2019,19:00:00,30.3,10.00,000,33.7,984.57,0.00,70,0.0,30.06,24.1,1006.17
48435,PAKCHONG AGROMET.,ปากช่อง สกษ.,นครราชสีมา,14.64389,101.33194,3.90,09-07-2019,19:00:00,27.2,8.00,250,29.9,964.27,0.00,72,11.1,25.90,21.7,1007.50
48436,NANG RONG,นางรอง,บุรีรัมย์,14.58333,102.80000,0.00,09-07-2019,19:00:00,30.5,10.00,000,34.4,986.24,0.00,68,0.0,29.89,24.0,1006.55
48437,BURIRUM,บุรีรัมย์,บุรีรัมย์,15.22575,103.24808,0.00,09-07-2019,19:00:00,27.5,10.00,240,32.5,987.26,0.00,88,5.6,32.36,25.4,1008.06
48438,SAMUTSONGKRAM,สมุทรสงคราม,สมุทรสงคราม,13.40778,100.03222,0.00,09-07-2019,19:00:00,30.4,10.00,290,32.8,1007.16,0.00,61,14.8,26.41,22.0,1007.59
48439,KABIN BURI,กบินทร์บุรี,ปราจีนบุรี,13.98333,101.70722,1.00,09-07-2019,19:00:00,28.8,6.00,000,32.9,1005.31,0.00,81,0.0,32.14,25.2,1006.72
48440,SA KAEW,สระแก้ว,สระแก้ว,13.78889,102.03472,0.00,09-07-2019,19:00:00,27.4,7.00,000,32.1,1003.06,0.00,96,0.0,35.02,26.7,1007.99
48450,KANCHANA BURI,กาญจนบุรี,กาญจนบุรี,14.02250,99.53583,0.10,09-07-2019,19:00:00,29.5,12.00,000,33.5,1004.75,0.00,65,0.0,26.62,22.1,1008.02
48451,NAKHONPATHOM,นครปฐม,นครปฐม,14.01167,99.97000,0.00,09-07-2019,19:00:00,29.1,11.00,280,33.5,1006.63,0.00,68,3.7,27.48,22.6,1007.73
48453,BANG NA AGROMET.,กรุงเทพฯ บางนา สกษ.,กรุงเทพมหานคร,13.66639,100.60611,0.00,09-07-2019,19:00:00,30.6,10.00,190,32.7,1007.28,0.00,64,7.4,28.15,23.0,1007.58
48454,BANGKOK PORT (KLONG TOEI),กรุงเทพฯ ท่าเรือคลองเตย,กรุงเทพมหานคร,13.70694,100.56805,0.00,09-07-2019,19:00:00,30.4,10.00,200,33.2,1006.94,0.00,65,7.4,28.04,23.0,1007.62
48455,BANGKOK METROPOLIS,กรุงเทพมหานคร,กรุงเทพมหานคร,13.72639,100.56000,0.00,09-07-2019,19:00:00,31.0,10.00,000,33.5,1007.31,0.00,69,0.0,30.90,24.6,1007.80
48456,DON MUANG AIRPORT,สนามบินดอนเมือง,กรุงเทพมหานคร,13.91917,100.60500,0.20,09-07-2019,19:00:00,30.6,10.00,250,32.3,1006.14,0.00,63,16.7,27.60,22.7,1007.53
48457,PILOT STATION,นำร่อง,สมุทรปราการ,13.39389,100.59944,0.00,09-07-2019,19:00:00,29.6,10.00,210,31.5,1005.96,0.00,77,22.2,32.05,25.2,1007.63
48458,CHACHOENGSAO,ฉะเชิงเทรา,ฉะเชิงเทรา,13.51556,101.45833,0.00,09-07-2019,19:00:00,28.8,10.00,000,33.0,1000.98,0.00,79,0.0,31.29,24.8,1008.96
48459,CHON BURI,ชลบุรี,ชลบุรี,13.36667,100.98333,0.00,09-07-2019,19:00:00,30.0,10.00,000,34.0,1007.32,0.00,69,0.0,29.19,23.6,1007.60
48460,KO SICHANG,เกาะสีชัง,ชลบุรี,13.16167,100.80194,0.00,09-07-2019,19:00:00,29.3,10.00,270,32.5,1004.28,0.00,74,9.3,30.04,24.1,1007.39
48461,PHATTHAYA,พัทยา,ชลบุรี,12.92000,100.86944,0.00,09-07-2019,19:00:00,29.4,10.00,210,31.7,1000.81,0.00,79,9.3,32.22,25.3,1007.70
48462,ARANYA PRATHET,อรัญประเทศ,สระแก้ว,13.70000,102.58333,0.00,09-07-2019,19:00:00,30.0,10.00,000,33.3,1001.98,0.00,75,0.0,31.72,25.0,1007.53
48463,LAEM CHABANG,แหลมฉบัง,ชลบุรี,13.07694,100.87583,0.01,09-07-2019,19:00:00,28.8,10.00,230,32.7,999.34,0.00,77,14.8,30.46,24.3,1008.61
48464,RATCHA BURI,ราชบุรี,ราชบุรี,13.48931,99.79239,0.00,09-07-2019,19:00:00,28.9,10.00,270,34.4,1007.53,0.00,71,7.4,28.45,23.2,1008.79
48465,PHETCHA BURI,เพชรบุรี,เพชรบุรี,12.99944,100.06056,4.20,09-07-2019,19:00:00,29.1,11.00,240,33.5,1007.32,0.00,78,13.0,31.33,24.8,1007.75
48474,NONG PHLUB AGROMET.,หนองพลับ สกษ.,ประจวบคีรีขันธ์,12.58333,99.73333,0.00,09-07-2019,19:00:00,28.0,10.00,000,33.7,996.49,0.00,74,0.0,27.85,22.9,1008.72
48475,HUA HIN,หัวหิน,ประจวบคีรีขันธ์,12.58611,99.96250,0.30,09-07-2019,19:00:00,30.0,10.00,270,34.0,1007.48,0.00,68,5.6,28.91,23.5,1008.19
48477,SATTAHIP,สัตหีบ,ชลบุรี,12.68333,100.98333,0.00,09-07-2019,19:00:00,29.8,10.00,200,34.0,1005.71,0.00,75,7.4,31.32,24.8,1008.12
48478,RAYONG,ระยอง,ระยอง,12.63222,101.34361,0.00,09-07-2019,19:00:00,28.8,10.00,250,31.5,1007.39,0.00,82,14.8,32.42,25.4,1007.90
48479,HUAI PONG AGROMET.,ห้วยโป่ง สกษ.,ระยอง,12.73333,101.13333,0.00,09-07-2019,19:00:00,29.2,12.00,210,33.3,1002.73,0.00,76,1.9,30.96,24.6,1007.85
48480,CHANTHA BURI,จันทบุรี,จันทบุรี,12.61667,102.11333,0.20,09-07-2019,19:00:00,28.9,8.00,200,32.0,1007.89,0.00,82,7.4,32.63,25.5,1008.30
48481,PHLIU  AGROMET.,พลิ้ว สกษ.,จันทบุรี,12.50861,102.17305,0.00,09-07-2019,19:00:00,27.5,8.00,000,31.0,1005.68,0.00,88,0.0,32.36,25.4,1008.45
48500,PRACHUAP KHIRIKHAN,ประจวบคีรีขันธ์,ประจวบคีรีขันธ์,11.83333,99.83333,0.00,09-07-2019,19:00:00,28.9,10.00,000,29.4,1007.77,0.00,73,0.0,29.00,23.5,1008.55
48501,TRAD,ตราด,ตราด,11.76667,102.88333,4.90,09-07-2019,19:00:00,28.4,8.00,280,31.2,1008.37,0.00,85,5.6,32.75,25.6,1008.83
48517,CHUMPHON,ชุมพร,ชุมพร,10.49875,99.18847,0.00,09-07-2019,19:00:00,29.6,8.00,310,34.3,1007.84,0.00,71,5.6,29.52,23.8,1008.52
48520,SAWI AGROMET.,สวี สกษ.,ชุมพร,10.33333,99.10000,0.00,09-07-2019,19:00:00,29.5,9.00,000,34.0,1007.34,0.00,69,0.0,28.50,23.2,1008.86
48532,RANONG,ระนอง,ระนอง,9.98333,98.61667,0.00,09-07-2019,19:00:00,29.0,10.00,000,32.8,1008.79,0.00,78,0.0,31.13,24.7,1009.71
48550,KO SAMUI,เกาะสมุย,สุราษฎร์ธานี,9.46667,100.05000,0.00,09-07-2019,19:00:00,29.5,10.00,080,31.4,1008.36,0.00,81,9.3,33.58,26.0,1009.05
48551,SURAT THANI,สุราษฎร์ธานี,สุราษฎร์ธานี,9.13556,99.15194,0.00,09-07-2019,19:00:00,29.6,10.00,000,36.3,1008.17,0.00,73,0.0,30.08,24.1,1008.96
48552,NAKHONSI THAMMARAT,นครศรีธรรมราช,นครศรีธรรมราช,8.53778,99.96389,0.00,09-07-2019,19:00:00,29.3,10.00,030,35.0,1008.22,0.00,72,1.9,29.49,23.8,1008.85
48554,NAKHONSI THAMMARAT AGROMET.,นครศรีธรรมราช สกษ.,นครศรีธรรมราช,8.35931,100.00000,0.00,09-07-2019,19:00:00,28.7,10.00,220,35.6,1009.15,0.00,78,11.1,30.82,24.5,1009.56
48555,SURAT THANI AGROMET.,สุราษฎร์ธานี สกษ.,สุราษฎร์ธานี,9.10000,99.63333,0.00,09-07-2019,19:00:00,27.7,5.00,000,35.3,1007.15,0.00,84,0.0,31.36,24.8,1011.36
48556,PHRA SANG,พระแสง สอท.,สุราษฎร์ธานี,8.57022,99.25825,0.00,09-07-2019,19:00:00,29.1,10.00,000,34.0,1007.05,0.00,70,0.0,28.29,23.1,1008.65
48557,CHAWANG,ฉวาง,นครศรีธรรมราช,8.43194,99.51194,0.00,09-07-2019,19:00:00,29.7,10.00,000,35.2,1005.48,0.00,78,0.0,32.54,25.5,1008.93
48560,PHATTHALUNG AGROMET.,พัทลุง สกษ.,พัทลุง,7.58333,100.16667,0.00,09-07-2019,19:00:00,28.8,10.00,120,34.6,1007.37,0.00,77,3.7,30.46,24.3,1008.72
48561,TAKUA PA,ตะกั่วป่า,พังงา,8.68417,98.25222,0.00,09-07-2019,19:00:00,29.5,10.00,000,32.5,1007.68,0.00,78,0.0,32.13,25.2,1008.55
48563,KRABI,กระบี่,กระบี่,8.10361,98.97528,0.00,09-07-2019,19:00:00,29.0,10.00,000,33.8,1004.98,0.00,72,0.0,28.91,23.5,1008.52
48564,PHUKET,ภูเก็ต,ภูเก็ต,7.88333,98.40000,0.00,09-07-2019,19:00:00,30.1,10.00,290,33.1,1008.63,0.00,70,5.6,29.94,24.1,1009.06
48565,PHUKET AIRPORT,ภูเก็ต (ศูนย์ฯ),ภูเก็ต,8.14500,98.31444,0.00,09-07-2019,19:00:00,30.0,10.00,280,32.9,1007.65,0.00,72,5.6,30.59,24.4,1008.64
48566,KO LANTA,เกาะลันตา,กระบี่,7.53333,99.05000,0.00,09-07-2019,19:00:00,28.9,10.00,000,32.9,1008.28,0.00,82,0.0,32.63,25.5,1009.09
48567,TRANG AIRPORT,ตรัง,ตรัง,7.51667,99.61667,1.30,09-07-2019,19:00:00,30.0,10.00,000,35.4,1007.09,0.00,73,0.0,30.87,24.6,1008.89
48568,SONGKHLA,สงขลา,สงขลา,7.18211,100.60769,0.00,09-07-2019,19:00:00,29.6,10.00,160,32.7,1008.34,0.00,68,5.6,28.15,23.0,1009.09
48569,HAT YAI AIRPORT,หาดใหญ่,สงขลา,6.91667,100.43333,12.80,09-07-2019,19:00:00,26.9,10.00,130,35.0,1005.37,0.01,92,3.7,32.58,25.5,1009.37
48570,SATUN,สตูล,สตูล,6.65000,100.08333,0.00,09-07-2019,19:00:00,30.2,10.00,000,35.0,1009.30,0.00,74,0.0,31.56,24.9,1009.98
48571,KHO HONG AGROMET.,คอหงษ์ สกษ.,สงขลา,7.00000,100.50000,23.40,09-07-2019,19:00:00,26.2,10.00,000,34.6,1007.49,19.00,93,0.0,31.49,24.9,1008.61
48574,SA DAO,สะเดา,สงขลา,6.79806,100.39056,0.00,09-07-2019,19:00:00,29.5,10.00,060,35.5,1006.21,0.00,83,9.3,34.16,26.3,1009.11
48580,PATTANI AIRPORT,ปัตตานี,ปัตตานี,6.78333,101.15000,0.00,09-07-2019,19:00:00,29.7,8.00,000,34.6,1008.57,0.00,85,0.0,35.48,26.9,1009.25
48581,YALA AGROMET.,ยะลา สกษ.,ยะลา,6.51667,101.28333,2.60,09-07-2019,19:00:00,26.4,5.00,240,35.5,1005.95,2.60,81,24.1,27.85,22.9,1010.09
48583,NARATHIWAT,นราธิวาส,นราธิวาส,6.41667,101.81667,0.00,09-07-2019,19:00:00,29.6,10.00,100,32.8,1008.28,0.00,77,5.6,31.77,25.0,1008.86
