WmoStationNumber,StationNameEnglish,StationNameThai,Province,Latitude,Longitude,WindSpeed,Date,Time,Rainfall24Hr,DewPoint,StationPressure,MeanSeaLevelPressure,RelativeHumidity,WindDirection,AirTemperature,VaporPressure,Rainfall,LandVisibility
48300,MAE HONG SON,แม่ฮ่องสอน,แม่ฮ่องสอน,19.29897,97.97578,0.0,09-01-2019,22:00:00,12.00,24.3,976.21,1007.18,93,000,25.5,30.44,3.80,10.00
48302,DOI ANG KANG,ดอยอ่างขาง,เชียงใหม่,19.93139,99.04833,20.4,09-01-2019,22:00:00,17.90,18.2,844.78,1006.10,99,160,18.4,20.93,14.90,3.00
48303,CHIANG RAI,เชียงราย,เชียงราย,19.96139,99.88139,0.0,09-01-2019,22:00:00,5.30,23.3,963.06,1006.51,82,000,26.7,28.65,0.00,12.00
48304,CHAING RAI AGROMET.,เชียงราย สกษ.,เชียงราย,19.87083,99.78278,0.0,09-01-2019,22:00:00,6.80,23.3,961.36,1006.89,88,000,25.5,28.59,2.20,10.00
48307,THUNG CHANG,ทุ่งช้าง,น่าน,19.41194,100.88353,0.0,09-01-2019,22:00:00,0.60,23.8,969.55,1007.28,93,000,25.0,29.52,0.00,6.00
48310,PHAYAO,พะเยา,พะเยา,19.13333,99.90000,7.4,09-01-2019,22:00:00,3.70,23.8,961.85,1007.09,96,120,24.5,29.41,1.00,8.00
48315,THA WANGPHA,ท่าวังผา,น่าน,19.11056,100.80250,0.0,09-01-2019,22:00:00,0.30,25.4,980.91,1007.60,93,000,26.7,32.46,0.00,8.00
48324,THOEN,เถิน,ลำปาง,17.63661,99.24475,0.0,09-01-2019,22:00:00,4.80,24.6,985.29,1007.08,93,000,25.8,31.00,0.60,14.00
48325,MAE SARIANG,แม่สะเรียง,แม่ฮ่องสอน,18.16667,97.93333,0.0,09-01-2019,22:00:00,5.60,23.2,984.17,1008.47,94,000,24.2,28.36,0.50,6.00
48327,CHIANG MAI,เชียงใหม่,เชียงใหม่,18.79000,98.97694,9.3,09-01-2019,22:00:00,0.01,23.1,973.16,1007.81,89,200,25.0,28.22,0.01,10.00
48328,LAMPANG,ลำปาง,ลำปาง,18.28333,99.51667,0.0,09-01-2019,22:00:00,30.80,23.8,981.02,1008.77,97,000,24.4,29.49,30.80,5.00
48329,LAMPHUN,ลำพูน,ลำพูน,18.56722,99.03389,0.0,09-01-2019,22:00:00,55.50,23.9,973.96,1007.72,97,000,24.5,29.67,52.30,8.00
48330,PHRAE,แพร่,แพร่,18.16667,100.16667,1.9,09-01-2019,22:00:00,41.50,23.5,989.28,1007.90,92,270,25.0,29.00,0.01,8.00
48331,NAN,น่าน,น่าน,18.77972,100.77778,0.0,09-01-2019,22:00:00,3.00,25.6,984.65,1007.44,92,000,27.0,32.77,0.00,10.00
48333,NAN AGROMET.,น่าน สกษ.,น่าน,18.86667,100.75000,0.0,09-01-2019,22:00:00,1.30,23.4,977.64,1007.62,88,000,25.5,28.85,0.00,7.00
48334,LAMPANG AGROMET.,ลำปาง สกษ.,ลำปาง,18.31667,99.28333,0.0,09-01-2019,22:00:00,65.00,23.3,972.05,1007.83,96,000,24.0,28.53,61.00,2.00
48350,LOEI AGROMET.,เลย สกษ.,เลย,17.40000,101.73333,0.0,09-01-2019,22:00:00,1.10,24.9,976.88,1006.69,98,000,25.2,31.49,0.40,12.00
48351,UTTARADIT,อุตรดิตถ์,อุตรดิตถ์,17.61667,100.10000,0.0,09-01-2019,22:00:00,55.40,24.8,1001.29,1008.65,96,000,25.5,31.25,28.10,6.00
48352,NONG KHAI,หนองคาย,หนองคาย,17.86717,102.73303,0.0,09-01-2019,22:00:00,0.00,26.6,986.53,1006.34,92,000,28.0,34.81,0.00,12.00
48353,LOEI,เลย,เลย,17.45000,101.73333,0.0,09-01-2019,22:00:00,1.40,24.6,978.14,1006.86,93,000,25.8,31.00,1.00,12.00
48354,UDON THANI,อุดรธานี,อุดรธานี,17.38333,102.80000,0.0,09-01-2019,22:00:00,15.10,25.5,986.08,1006.24,93,000,26.8,32.66,0.00,12.00
48355,SAKON NAKHON AGROMET.,สกลนคร สกษ.,สกลนคร,17.12503,104.06100,0.0,09-01-2019,22:00:00,0.01,24.7,984.67,1006.43,92,000,26.1,31.03,0.00,12.00
48356,SAKON NAKHON,สกลนคร,สกลนคร,17.15000,104.13333,3.7,09-01-2019,22:00:00,0.01,25.4,986.51,1006.00,93,040,26.5,32.35,0.01,10.00
48357,NAKHON PHANOM,นครพนม,นครพนม,17.41083,104.78250,0.0,09-01-2019,22:00:00,0.00,25.7,989.82,1006.54,92,000,27.1,32.97,0.00,10.00
48358,NAKHON PHANOM AGROMET.,นครพนม สกษ.,นครพนม,17.44306,104.77361,0.0,09-01-2019,22:00:00,0.00,24.8,989.62,1007.04,90,000,26.5,31.24,0.00,10.00
48360,NONG BUA LAM PHU,หนองบัวลำภู,หนองบัวลำภู,17.23250,102.42944,3.7,09-01-2019,22:00:00,20.50,26.0,980.84,1006.62,97,070,26.6,33.67,0.00,9.00
48372,SUKHOTHAI*,สุโขทัย,สุโขทัย,17.10611,99.80000,3.7,09-01-2019,22:00:00,11.90,25.4,1001.68,1007.50,100,170,25.4,32.42,0.10,10.00
48373,SI SAMRONG AGROMET.,ศรีสำโรง สกษ.,สุโขทัย,17.16136,99.86167,7.4,09-01-2019,22:00:00,5.70,25.0,1001.29,1007.50,94,130,26.0,31.65,0.20,8.00
48374,LOM SAK,หล่มสัก,เพชรบูรณ์,16.77361,101.24944,0.0,09-01-2019,22:00:00,2.10,22.3,991.50,1007.93,73,000,27.5,26.95,0.00,8.00
48375,MAE SOT,แม่สอด,ตาก,16.65917,98.55083,3.7,09-01-2019,22:00:00,17.60,23.2,984.24,1006.69,90,280,25.0,28.48,0.00,8.00
48376,TAK,ตาก,ตาก,16.87833,99.14333,0.0,09-01-2019,22:00:00,3.10,24.4,994.27,1008.75,93,000,25.6,30.63,0.00,10.00
48377,BHUMIBOL DAM,เขื่อนภูมิพล,ตาก,17.24389,99.00250,7.4,09-01-2019,22:00:00,12.90,23.6,991.40,1007.79,82,120,27.0,29.21,0.00,7.00
48378,PHITSANULOK,พิษณุโลก,พิษณุโลก,16.79481,100.27930,0.0,09-01-2019,22:00:00,13.40,24.6,1003.08,1008.35,97,000,25.2,30.96,8.20,8.00
48379,PHETCHABUN,เพชรบูรณ์,เพชรบูรณ์,16.43333,101.15000,5.6,09-01-2019,22:00:00,1.00,22.8,993.03,1006.23,80,200,26.5,27.77,0.00,10.00
48380,KAMPHAENG PHET,กำแพงเพชร,กำแพงเพชร,16.48681,99.52697,0.0,09-01-2019,22:00:00,22.90,25.0,998.73,1008.11,97,000,25.6,31.71,5.80,6.00
48381,KHON KAEN,ขอนแก่น,ขอนแก่น,16.46111,102.78972,5.6,09-01-2019,22:00:00,31.80,23.4,985.22,1007.11,96,290,24.1,28.70,26.60,5.00
48382,MAHASARAKHAM,มหาสารคาม,มหาสารคาม,16.24722,103.06805,11.1,09-01-2019,22:00:00,10.70,24.1,988.43,1005.91,84,220,27.0,30.02,2.20,8.00
48383,MUKDAHAN,มุกดาหาร,มุกดาหาร,16.54139,104.72889,0.0,09-01-2019,22:00:00,1.20,25.2,989.61,1005.44,93,000,26.5,32.07,0.80,10.00
48384,THA PHRA AGROMET.,ท่าพระ สกษ.,ขอนแก่น,16.33333,102.81667,5.6,09-01-2019,22:00:00,23.60,24.1,987.51,1006.51,95,270,25.0,30.05,23.20,5.00
48385,UMPHANG,อุ้มผาง,ตาก,16.02472,98.86444,0.0,09-01-2019,22:00:00,20.10,22.0,958.50,1010.30,93,000,23.2,26.41,1.40,6.00
48386,PICHIT AGROMET.,พิจิตร สกษ.,พิจิตร,16.43806,100.29250,3.7,09-01-2019,22:00:00,40.70,24.8,1004.10,1008.08,96,170,25.5,31.25,13.70,4.00
48387,DOI MU SOE AGROMET.,ดอยมูเซอร์ สกษ.,ตาก,16.75000,98.93333,5.6,09-01-2019,22:00:00,17.90,19.8,913.12,1008.60,94,210,20.7,23.02,0.30,1.20
48390,KALASIN,กาฬสินธุ์,กาฬสินธุ์,16.33250,103.58833,5.6,09-01-2019,22:00:00,41.80,24.8,990.48,1006.55,97,300,25.4,31.33,41.60,2.00
48400,NAKHON SAWAN,นครสวรรค์ ,นครสวรรค์,15.67183,100.13236,0.0,09-01-2019,22:00:00,19.00,25.4,1004.32,1008.37,97,000,26.0,32.48,3.00,9.00
48401,TAKFA AGROMET.,ตากฟ้า สกษ.,นครสวรรค์,15.34944,100.53028,0.0,09-01-2019,22:00:00,8.20,24.8,998.07,1008.82,96,000,25.5,31.25,2.60,4.00
48402,CHAINAT AGROMET.,ชัยนาท สกษ.,ชัยนาท,15.15000,100.18333,0.0,09-01-2019,22:00:00,15.20,25.3,1006.44,1008.38,96,000,26.0,32.20,2.00,7.00
48403,CHAIYAPHUM,ชัยภูมิ,ชัยภูมิ,15.80000,102.03333,7.4,09-01-2019,22:00:00,2.20,23.3,986.51,1007.49,88,270,25.4,28.67,2.20,10.00
48404,ROI ET AGROMET.,ร้อยเอ็ด สกษ.,ร้อยเอ็ด,16.07322,103.60844,13.0,09-01-2019,22:00:00,3.80,26.1,988.10,1005.69,91,040,27.8,33.82,3.20,7.00
48405,ROI ET,ร้อยเอ็ด,ร้อยเอ็ด,16.02000,103.74389,7.4,09-01-2019,22:00:00,7.40,26.6,989.28,1005.36,92,350,28.0,34.81,6.00,6.00
48407,UBON RATCHATHANI,อุบลราชธานี (ศูนย์ฯ),อุบลราชธานี,15.25000,104.86667,0.0,09-01-2019,22:00:00,1.40,24.9,992.00,1005.95,82,000,28.3,31.42,0.00,10.00
48408,UBON RATCHATHANI AGROMET.,อุบลราชธานี สกษ.,อุบลราชธานี,15.23914,105.02350,0.0,09-01-2019,22:00:00,0.20,24.8,991.87,1006.69,88,000,27.0,31.38,0.00,8.00
48409,SI SAKET AGROMET.,ศรีสะเกษ,ศรีสะเกษ,15.00000,104.05000,13.0,09-01-2019,22:00:00,0.10,25.7,992.13,1006.77,90,230,27.5,32.93,0.01,7.00
48410,UTHAITHANI,อุทัยธานี,อุทัยธานี,15.37417,100.03889,0.0,09-01-2019,22:00:00,6.40,26.1,1004.54,1007.56,96,"{'@attributes': {'Unit': 'degree'}, '0': '   '}",26.8,33.79,1.40,10.00
48413,WICHIAN BURI,วิเชียรบุรี,เพชรบูรณ์,15.65700,101.10800,0.0,09-01-2019,22:00:00,5.50,24.4,1000.35,1008.35,94,000,25.4,30.52,5.50,7.00
48415,AYUTTHAYA,พระนครศรีอยุธยา,พระนครศรีอยุธยา,14.53472,100.72500,3.7,09-01-2019,22:00:00,0.00,25.5,1007.00,1008.11,88,130,27.6,32.56,0.00,8.00
48416,THA TUM,ท่าตูม,สุรินทร์,15.31667,103.68333,0.0,09-01-2019,22:00:00,3.80,25.1,991.95,1006.58,85,000,28.0,31.95,0.00,8.00
48417,NAKORNNAYOK,นครนายก,นครนายก,14.36222,101.39278,14.8,09-01-2019,22:00:00,38.80,19.5,874.38,1009.73,100,280,19.5,22.65,0.20,.05
48418,BUA CHUM,บัวชุม  ,ลพบุรี,15.26667,101.18736,0.0,09-01-2019,22:00:00,0.80,24.3,1002.58,1008.50,93,000,25.5,30.44,0.01,10.00
48419,PATHUMTHANI,ปทุมธานี สกษ.,ปทุมธานี,14.10000,100.61667,5.6,09-01-2019,22:00:00,0.10,24.4,1007.74,1008.54,81,230,28.0,30.56,0.00,8.00
48420,Samut Prakarn,สมุทรปราการ สกษ.,สมุทรปราการ,13.51667,100.76167,9.3,09-01-2019,22:00:00,1.00,24.1,1007.54,1007.99,76,240,28.9,30.10,0.01,10.00
48421,THONG PHAPHUM,ทองผาภูมิ,กาญจนบุรี,14.74222,98.63639,0.0,09-01-2019,22:00:00,28.00,24.3,998.11,1009.52,96,000,25.0,30.32,2.10,4.00
48425,SUPHAN BURI,สุพรรณบุรี,สุพรรณบุรี,14.47444,100.13889,0.0,09-01-2019,22:00:00,4.00,24.6,1007.42,1008.43,84,000,27.5,30.97,0.00,10.00
48426,LOP BURI,ลพบุรี,ลพบุรี,14.79972,100.64500,0.0,09-01-2019,22:00:00,2.20,25.6,1006.44,1008.27,93,000,26.9,32.86,1.80,7.00
48427,U THONG AGROMET.,อู่ทอง สกษ.,สุพรรณบุรี,14.30361,99.86472,0.0,09-01-2019,22:00:00,0.01,23.1,1007.74,1008.50,76,000,27.8,28.28,0.00,5.00
48429,SUVARNABHUMI AIRPORT,สนามบินสุวรรณภูมิ,สมุทรปราการ,13.68639,100.76750,7.4,09-01-2019,22:00:00,11.00,24.0,1007.85,1008.56,84,240,26.9,29.83,0.01,10.00
48430,PRACHIN BURI,ปราจีนบุรี,ปราจีนบุรี,14.05842,101.36930,0.0,09-01-2019,22:00:00,1.80,25.4,1007.68,1008.38,95,000,26.3,32.51,0.30,7.00
48431,NAKHON RATCHASIMA,นครราชสีมา,นครราชสีมา,14.96830,102.08603,5.6,09-01-2019,22:00:00,0.20,24.1,986.45,1007.71,91,280,25.7,30.01,0.20,10.00
48432,SURIN,สุรินทร์,สุรินทร์,14.88333,103.50000,16.7,09-01-2019,22:00:00,3.00,25.8,990.72,1007.42,91,260,27.4,33.29,3.00,5.00
48433,SURIN AGROMET.,สุรินทร์ สกษ.,สุรินทร์,14.88333,103.45000,3.7,09-01-2019,22:00:00,8.10,22.3,991.17,1007.72,85,210,25.0,26.94,8.10,7.00
48434,CHOK CHAI,โชคชัย,นครราชสีมา,14.71889,102.16861,0.0,09-01-2019,22:00:00,0.80,23.2,985.76,1007.62,80,000,27.0,28.41,0.00,10.00
48435,PAKCHONG AGROMET.,ปากช่อง สกษ.,นครราชสีมา,14.64389,101.33194,11.1,09-01-2019,22:00:00,10.30,23.1,965.00,1008.69,93,230,24.3,28.28,2.70,8.00
48436,NANG RONG,นางรอง,บุรีรัมย์,14.58333,102.80000,5.6,09-01-2019,22:00:00,2.00,23.1,986.88,1007.41,77,210,27.5,28.26,0.00,10.00
48437,BURIRUM,บุรีรัมย์,บุรีรัมย์,15.22575,103.24808,20.4,09-01-2019,22:00:00,0.80,24.8,987.56,1008.56,100,240,24.8,31.28,0.80,8.00
48438,SAMUTSONGKRAM,สมุทรสงคราม,สมุทรสงคราม,13.40778,100.03222,3.7,09-01-2019,22:00:00,0.20,24.3,1008.23,1008.67,79,300,28.3,30.31,0.01,10.00
48439,KABIN BURI,กบินทร์บุรี,ปราจีนบุรี,13.98333,101.70722,0.0,09-01-2019,22:00:00,3.00,24.1,1006.60,1008.02,92,000,25.4,29.99,0.00,6.00
48440,SA KAEW,สระแก้ว,สระแก้ว,13.78889,102.03472,0.0,09-01-2019,22:00:00,5.40,24.9,1003.63,1008.59,94,000,25.9,31.46,2.90,7.00
48450,KANCHANA BURI,กาญจนบุรี,กาญจนบุรี,14.02250,99.53583,0.0,09-01-2019,22:00:00,0.10,23.1,1005.20,1008.50,77,000,27.5,28.26,0.01,10.00
48451,NAKHONPATHOM,นครปฐม,นครปฐม,14.01167,99.97000,0.0,09-01-2019,22:00:00,2.30,25.7,1007.49,1008.60,94,000,26.7,33.02,0.01,5.00
48453,BANG NA AGROMET.,กรุงเทพฯ บางนา สกษ.,กรุงเทพมหานคร,13.66639,100.60611,0.0,09-01-2019,22:00:00,2.20,24.3,1008.42,1008.72,80,000,28.0,30.28,0.01,10.00
48455,BANGKOK METROPOLIS,กรุงเทพมหานคร,กรุงเทพมหานคร,13.72639,100.56000,0.0,09-01-2019,22:00:00,11.50,24.8,1006.08,1006.57,83,000,28.0,31.39,0.01,10.00
48456,DON MUANG AIRPORT,สนามบินดอนเมือง,กรุงเทพมหานคร,13.91917,100.60500,13.0,09-01-2019,22:00:00,7.40,23.7,1007.81,1009.22,78,250,27.9,29.28,0.00,10.00
48458,CHACHOENGSAO,ฉะเชิงเทรา,ฉะเชิงเทรา,13.51556,101.45833,0.0,09-01-2019,22:00:00,4.60,24.9,1002.10,1010.18,98,000,25.2,31.49,2.20,10.00
48459,CHON BURI,ชลบุรี,ชลบุรี,13.36667,100.98333,0.0,09-01-2019,22:00:00,5.10,24.7,1007.90,1008.18,78,000,29.0,31.13,0.00,10.00
48460,KO SICHANG,เกาะสีชัง,ชลบุรี,13.16167,100.80194,5.6,09-01-2019,22:00:00,0.00,24.9,1005.46,1008.58,81,270,28.5,31.54,0.00,10.00
48461,PHATTHAYA,พัทยา,ชลบุรี,12.92000,100.86944,7.4,09-01-2019,22:00:00,2.00,24.5,1001.45,1008.37,80,240,28.2,30.67,0.00,10.00
48462,ARANYA PRATHET,อรัญประเทศ,สระแก้ว,13.70000,102.58333,5.6,09-01-2019,22:00:00,1.50,25.9,1003.08,1008.69,94,260,27.0,33.34,1.00,10.00
48464,RATCHA BURI,ราชบุรี,ราชบุรี,13.48931,99.79239,0.0,09-01-2019,22:00:00,1.90,24.5,1007.92,1009.19,89,000,26.5,30.70,0.01,8.00
48465,PHETCHA BURI,เพชรบุรี,เพชรบุรี,12.99944,100.06056,9.3,09-01-2019,22:00:00,4.60,21.9,1008.16,1008.59,71,330,27.6,26.34,0.00,11.00
48474,NONG PHLUB AGROMET.,หนองพลับ สกษ.,ประจวบคีรีขันธ์,12.58333,99.73333,0.0,09-01-2019,22:00:00,2.10,23.5,996.44,1008.80,92,000,25.0,29.00,0.10,8.00
48475,HUA HIN,หัวหิน,ประจวบคีรีขันธ์,12.58611,99.96250,0.0,09-01-2019,22:00:00,6.20,23.7,1007.91,1008.63,84,000,26.6,29.27,0.00,10.00
48477,SATTAHIP,สัตหีบ,ชลบุรี,12.68333,100.98333,3.7,09-01-2019,22:00:00,9.20,23.0,1006.23,1008.66,73,240,28.4,28.06,0.00,10.00
48478,RAYONG,ระยอง,ระยอง,12.63222,101.34361,13.0,09-01-2019,22:00:00,0.01,24.2,1008.32,1008.84,78,260,28.5,30.15,0.00,10.00
48479,HUAI PONG AGROMET.,ห้วยโป่ง สกษ.,ระยอง,12.73333,101.13333,0.0,09-01-2019,22:00:00,8.40,23.9,1003.38,1008.54,82,000,27.2,29.58,0.00,8.00
48480,CHANTHA BURI,จันทบุรี,จันทบุรี,12.61667,102.11333,0.0,09-01-2019,22:00:00,12.00,25.0,1008.46,1008.87,87,000,27.4,31.61,0.00,7.00
48481,PHLIU  AGROMET.,พลิ้ว สกษ.,จันทบุรี,12.50861,102.17305,7.4,09-01-2019,22:00:00,17.40,25.3,1006.13,1008.92,96,040,26.0,32.20,0.00,8.00
48500,PRACHUAP KHIRIKHAN,ประจวบคีรีขันธ์,ประจวบคีรีขันธ์,11.83333,99.83333,0.0,09-01-2019,22:00:00,2.30,24.3,1007.68,1008.47,92,000,25.8,30.46,0.00,10.00
48501,TRAD,ตราด,ตราด,11.76667,102.88333,11.1,09-01-2019,22:00:00,42.10,25.2,1008.69,1009.15,88,300,27.3,31.97,0.10,7.00
48517,CHUMPHON,ชุมพร,ชุมพร,10.49875,99.18847,0.0,09-01-2019,22:00:00,7.70,22.7,1008.85,1009.54,89,000,24.6,27.52,0.00,7.00
48520,SAWI AGROMET.,สวี สกษ.,ชุมพร,10.33333,99.10000,0.0,09-01-2019,22:00:00,12.20,23.1,1007.60,1009.14,92,000,24.6,28.29,0.00,8.00
48532,RANONG,ระนอง,ระนอง,9.98333,98.61667,0.0,09-01-2019,22:00:00,94.10,23.5,1008.93,1009.85,94,000,24.5,28.89,0.00,10.00
48550,KO SAMUI,เกาะสมุย,สุราษฎร์ธานี,9.46667,100.05000,0.0,09-01-2019,22:00:00,0.30,22.3,1008.81,1009.50,79,000,26.3,26.89,0.00,10.00
48551,SURAT THANI,สุราษฎร์ธานี,สุราษฎร์ธานี,9.13556,99.15194,0.0,09-01-2019,22:00:00,4.30,24.0,1008.66,1009.46,92,000,25.5,29.91,0.00,8.00
48552,NAKHONSI THAMMARAT,นครศรีธรรมราช,นครศรีธรรมราช,8.53778,99.96389,0.0,09-01-2019,22:00:00,9.90,23.4,1008.65,1009.28,85,000,26.2,28.80,0.00,10.00
48554,NAKHONSI THAMMARAT AGROMET.,นครศรีธรรมราช สกษ.,นครศรีธรรมราช,8.35931,100.00000,0.0,09-01-2019,22:00:00,9.30,23.8,1009.24,1009.65,89,000,25.7,29.48,0.00,10.00
48555,SURAT THANI AGROMET.,สุราษฎร์ธานี สกษ.,สุราษฎร์ธานี,9.10000,99.63333,0.0,09-01-2019,22:00:00,0.20,23.8,1007.48,1011.74,93,000,25.0,29.52,0.00,5.00
48556,PHRA SANG,พระแสง สอท.,สุราษฎร์ธานี,8.57022,99.25825,0.0,09-01-2019,22:00:00,12.60,24.3,1007.52,1009.14,96,000,25.0,30.32,0.00,8.00
48557,CHAWANG,ฉวาง,นครศรีธรรมราช,8.43194,99.51194,0.0,09-01-2019,22:00:00,15.70,24.4,1006.30,1009.80,95,000,25.3,30.60,0.00,8.00
48560,PHATTHALUNG AGROMET.,พัทลุง สกษ.,พัทลุง,7.58333,100.16667,0.0,09-01-2019,22:00:00,0.00,24.4,1008.18,1009.54,93,000,25.6,30.63,0.00,8.00
48561,TAKUA PA,ตะกั่วป่า,พังงา,8.68417,98.25222,0.0,09-01-2019,22:00:00,65.90,23.6,1008.26,1009.15,93,000,24.8,29.16,0.00,10.00
48563,KRABI,กระบี่,กระบี่,8.10361,98.97528,0.0,09-01-2019,22:00:00,27.00,23.5,1006.43,1010.03,95,000,24.4,28.97,0.00,10.00
48564,PHUKET,ภูเก็ต,ภูเก็ต,7.88333,98.40000,0.0,09-01-2019,22:00:00,59.20,23.9,1009.32,1009.76,91,000,25.5,29.64,0.00,10.00
48565,PHUKET AIRPORT,ภูเก็ต (ศูนย์ฯ),ภูเก็ต,8.14500,98.31444,0.0,09-01-2019,22:00:00,74.10,24.0,1008.18,1009.18,97,000,24.6,29.85,0.00,10.00
48566,KO LANTA,เกาะลันตา,กระบี่,7.53333,99.05000,0.0,09-01-2019,22:00:00,39.20,22.2,1009.29,1010.12,91,000,23.9,26.83,0.00,10.00
48567,TRANG AIRPORT,ตรัง,ตรัง,7.51667,99.61667,0.0,09-01-2019,22:00:00,25.20,23.0,1008.34,1010.17,91,000,24.6,28.03,0.00,10.00
48568,SONGKHLA,สงขลา,สงขลา,7.18211,100.60769,5.6,09-01-2019,22:00:00,2.00,23.2,1009.34,1010.10,88,220,25.4,28.41,0.00,10.00
48569,HAT YAI AIRPORT,หาดใหญ่,สงขลา,6.91667,100.43333,0.0,09-01-2019,22:00:00,4.20,24.2,1006.16,1010.20,97,000,24.8,30.22,0.00,10.00
48570,SATUN,สตูล,สตูล,6.65000,100.08333,0.0,09-01-2019,22:00:00,74.00,23.6,1010.23,1010.92,93,000,24.8,29.16,0.00,10.00
48571,KHO HONG AGROMET.,คอหงษ์ สกษ.,สงขลา,7.00000,100.50000,0.0,09-01-2019,22:00:00,14.40,23.3,1008.57,1009.69,94,000,24.3,28.54,0.00,10.00
48574,SA DAO,สะเดา,สงขลา,6.79806,100.39056,0.0,09-01-2019,22:00:00,7.50,24.8,1007.04,1009.98,95,000,25.7,31.36,0.00,10.00
48580,PATTANI AIRPORT,ปัตตานี,ปัตตานี,6.78333,101.15000,0.0,09-01-2019,22:00:00,0.30,23.7,1008.98,1009.68,92,000,25.2,29.36,0.00,6.00
48581,YALA AGROMET.,ยะลา สกษ.,ยะลา,6.51667,101.28333,0.0,09-01-2019,22:00:00,0.00,23.6,1006.34,1010.50,92,000,24.9,29.08,0.00,7.00
48583,NARATHIWAT,นราธิวาส,นราธิวาส,6.41667,101.81667,0.0,09-01-2019,22:00:00,0.00,23.8,1010.32,1010.91,88,000,26.0,29.50,0.00,10.00
