WmoStationNumber,StationNameEnglish,StationNameThai,Province,Latitude,Longitude,Date,Time,WindDirection,Rainfall24Hr,MeanSeaLevelPressure,Rainfall,WindSpeed,VaporPressure,LandVisibility,AirTemperature,DewPoint,RelativeHumidity,StationPressure
48300,MAE HONG SON,แม่ฮ่องสอน,แม่ฮ่องสอน,19.29897,97.97578,09-07-2019,01:00:00,000,0.90,1007.11,0.00,0.0,29.00,8.00,25.0,23.5,92,976.09
48302,DOI ANG KANG,ดอยอ่างขาง,เชียงใหม่,19.93139,99.04833,09-07-2019,01:00:00,270,0.00,1004.61,0.00,3.7,20.87,8.00,19.0,18.2,95,843.83
48303,CHIANG RAI,เชียงราย,เชียงราย,19.96139,99.88139,09-07-2019,01:00:00,000,6.50,1005.19,0.00,0.0,29.91,10.00,25.5,24.0,92,961.63
48304,CHAING RAI AGROMET.,เชียงราย สกษ.,เชียงราย,19.87083,99.78278,09-07-2019,01:00:00,000,25.80,1005.26,0.00,0.0,29.07,12.00,24.6,23.6,94,959.66
48307,THUNG CHANG,ทุ่งช้าง,น่าน,19.41194,100.88353,09-07-2019,01:00:00,000,0.00,1006.58,0.00,0.0,31.93,7.00,26.0,25.1,95,969.00
48310,PHAYAO,พะเยา,พะเยา,19.13333,99.90000,09-07-2019,01:00:00,000,0.00,1004.98,0.00,0.0,27.70,10.00,25.0,22.8,88,959.91
48315,THA WANGPHA,ท่าวังผา,น่าน,19.11056,100.80250,09-07-2019,01:00:00,000,0.00,1006.89,0.00,0.0,29.21,7.00,27.0,23.6,82,980.25
48324,THOEN,เถิน,ลำปาง,17.63661,99.24475,09-07-2019,01:00:00,000,0.00,1007.04,0.00,0.0,29.52,12.00,25.0,23.8,93,985.19
48325,MAE SARIANG,แม่สะเรียง,แม่ฮ่องสอน,18.16667,97.93333,09-07-2019,01:00:00,000,0.00,1008.48,0.00,0.0,28.89,6.00,24.5,23.5,94,984.20
48327,CHIANG MAI,เชียงใหม่,เชียงใหม่,18.79000,98.97694,09-07-2019,01:00:00,000,0.00,1006.32,0.00,0.0,27.15,10.00,26.3,22.4,79,971.87
48328,LAMPANG,ลำปาง,ลำปาง,18.28333,99.51667,09-07-2019,01:00:00,000,0.00,1007.79,0.00,0.0,29.93,10.00,25.8,24.1,90,980.20
48329,LAMPHUN,ลำพูน,ลำพูน,18.56722,99.03389,09-07-2019,01:00:00,000,0.40,1006.35,0.00,0.0,27.52,10.00,26.8,22.7,78,972.88
48330,PHRAE,แพร่,แพร่,18.16667,100.16667,09-07-2019,01:00:00,200,0.00,1006.32,0.00,1.9,30.46,10.00,25.8,24.3,92,987.79
48331,NAN,น่าน,น่าน,18.77972,100.77778,09-07-2019,01:00:00,000,0.00,1006.73,0.00,0.0,29.43,10.00,26.4,23.8,86,983.91
48333,NAN AGROMET.,น่าน สกษ.,น่าน,18.86667,100.75000,09-07-2019,01:00:00,000,0.00,1006.67,0.00,0.0,30.76,8.00,26.1,24.5,91,976.78
48334,LAMPANG AGROMET.,ลำปาง สกษ.,ลำปาง,18.31667,99.28333,09-07-2019,01:00:00,000,0.00,1006.60,0.00,0.0,30.15,7.00,25.2,24.2,94,971.01
48350,LOEI AGROMET.,เลย สกษ.,เลย,17.40000,101.73333,09-07-2019,01:00:00,000,3.60,1005.26,0.00,0.0,30.02,12.00,24.4,24.1,98,975.41
48351,UTTARADIT,อุตรดิตถ์,อุตรดิตถ์,17.61667,100.10000,09-07-2019,01:00:00,000,0.00,1006.60,0.00,0.0,29.00,8.00,26.6,23.5,83,999.29
48352,NONG KHAI,หนองคาย,หนองคาย,17.86717,102.73303,09-07-2019,01:00:00,180,0.40,1004.99,0.00,5.6,33.02,10.00,26.7,25.7,94,985.13
48353,LOEI,เลย,เลย,17.45000,101.73333,09-07-2019,01:00:00,000,0.40,1005.94,0.00,0.0,30.63,12.00,25.6,24.4,93,977.22
48354,UDON THANI,อุดรธานี,อุดรธานี,17.38333,102.80000,09-07-2019,01:00:00,000,7.10,1005.13,0.00,0.0,31.00,10.00,25.8,24.6,93,984.94
48355,SAKON NAKHON AGROMET.,สกลนคร สกษ.,สกลนคร,17.12503,104.06100,09-07-2019,01:00:00,240,0.20,1006.46,0.00,3.7,30.29,10.00,27.0,24.3,85,984.76
48356,SAKON NAKHON,สกลนคร,สกลนคร,17.15000,104.13333,09-07-2019,01:00:00,000,0.20,1005.25,0.00,0.0,31.71,10.00,26.6,25.0,91,985.79
48357,NAKHON PHANOM,นครพนม,นครพนม,17.41083,104.78250,09-07-2019,01:00:00,100,0.10,1006.32,0.00,3.7,31.79,10.00,26.5,25.1,92,989.57
48358,NAKHON PHANOM AGROMET.,นครพนม สกษ.,นครพนม,17.44306,104.77361,09-07-2019,01:00:00,000,0.80,1006.31,0.00,0.0,32.32,10.00,26.2,25.3,95,988.88
48360,NONG BUA LAM PHU,หนองบัวลำภู,หนองบัวลำภู,17.23250,102.42944,09-07-2019,01:00:00,000,8.80,1004.81,0.00,0.0,31.08,11.00,25.7,24.7,94,979.00
48373,SI SAMRONG AGROMET.,ศรีสำโรง สกษ.,สุโขทัย,17.16136,99.86167,09-07-2019,01:00:00,000,0.00,1006.52,0.00,0.0,30.02,10.00,27.0,24.1,84,1000.33
48374,LOM SAK,หล่มสัก,เพชรบูรณ์,16.77361,101.24944,09-07-2019,01:00:00,000,0.00,1006.92,0.00,0.0,28.59,10.00,25.5,23.3,88,990.41
48375,MAE SOT,แม่สอด,ตาก,16.65917,98.55083,09-07-2019,01:00:00,000,16.40,1007.39,3.70,0.0,28.01,10.00,23.7,23.0,96,984.82
48376,TAK,ตาก,ตาก,16.87833,99.14333,09-07-2019,01:00:00,270,0.00,1007.73,0.00,9.3,25.91,7.00,27.5,21.7,71,993.36
48377,BHUMIBOL DAM,เขื่อนภูมิพล,ตาก,17.24389,99.00250,09-07-2019,01:00:00,000,0.00,1006.49,0.00,0.0,26.37,7.00,28.2,22.0,69,990.18
48378,PHITSANULOK,พิษณุโลก,พิษณุโลก,16.79481,100.27930,09-07-2019,01:00:00,000,0.01,1006.89,0.00,0.0,32.77,10.00,27.0,25.6,92,1001.66
48379,PHETCHABUN,เพชรบูรณ์,เพชรบูรณ์,16.43333,101.15000,09-07-2019,01:00:00,000,0.00,1005.46,0.00,0.0,29.93,10.00,25.8,24.1,90,992.23
48380,KAMPHAENG PHET,กำแพงเพชร,กำแพงเพชร,16.48681,99.52697,09-07-2019,01:00:00,000,1.40,1006.73,0.00,0.0,31.05,10.00,26.4,24.7,90,997.39
48381,KHON KAEN,ขอนแก่น,ขอนแก่น,16.46111,102.78972,09-07-2019,01:00:00,130,9.00,1005.58,0.70,1.9,31.49,7.00,25.2,24.9,98,983.80
48383,MUKDAHAN,มุกดาหาร,มุกดาหาร,16.54139,104.72889,09-07-2019,01:00:00,000,13.00,1005.53,0.00,0.0,32.45,10.00,25.7,25.4,98,989.65
48384,THA PHRA AGROMET.,ท่าพระ สกษ.,ขอนแก่น,16.33333,102.81667,09-07-2019,01:00:00,170,1.40,1004.92,0.20,1.9,32.20,8.00,26.0,25.3,96,986.02
48385,UMPHANG,อุ้มผาง,ตาก,16.02472,98.86444,09-07-2019,01:00:00,000,19.20,1010.02,2.10,0.0,25.76,5.00,22.8,21.6,93,958.16
48386,PICHIT AGROMET.,พิจิตร สกษ.,พิจิตร,16.43806,100.29250,09-07-2019,01:00:00,000,3.10,1006.73,0.00,0.0,33.02,6.00,26.7,25.7,94,1002.77
48387,DOI MU SOE AGROMET.,ดอยมูเซอร์ สกษ.,ตาก,16.75000,98.93333,09-07-2019,01:00:00,240,6.50,1008.44,2.20,11.1,23.05,.10,20.1,19.8,98,912.79
48390,KALASIN,กาฬสินธุ์,กาฬสินธุ์,16.33250,103.58833,09-07-2019,01:00:00,000,1.40,1005.63,0.00,0.0,33.82,8.00,27.1,26.1,94,989.67
48400,NAKHON SAWAN,นครสวรรค์ ,นครสวรรค์,15.67183,100.13236,09-07-2019,01:00:00,000,0.00,1006.80,0.00,0.0,32.18,10.00,26.7,25.3,92,1002.76
48401,TAKFA AGROMET.,ตากฟ้า สกษ.,นครสวรรค์,15.34944,100.53028,09-07-2019,01:00:00,000,4.00,1008.11,0.00,0.0,29.52,7.00,25.0,23.8,93,997.36
48402,CHAINAT AGROMET.,ชัยนาท สกษ.,ชัยนาท,15.15000,100.18333,09-07-2019,01:00:00,240,7.90,1007.15,0.00,3.7,28.97,7.00,26.0,23.5,86,1005.21
48403,CHAIYAPHUM,ชัยภูมิ,ชัยภูมิ,15.80000,102.03333,09-07-2019,01:00:00,000,0.00,1006.80,0.00,0.0,29.76,10.00,26.0,24.0,89,985.88
48404,ROI ET AGROMET.,ร้อยเอ็ด สกษ.,ร้อยเอ็ด,16.07322,103.60844,09-07-2019,01:00:00,240,0.00,1005.43,0.00,9.3,31.52,10.00,27.5,24.9,86,987.82
48405,ROI ET,ร้อยเอ็ด,ร้อยเอ็ด,16.02000,103.74389,09-07-2019,01:00:00,210,0.00,1005.31,0.00,7.4,32.03,10.00,27.9,25.2,85,989.22
48407,UBON RATCHATHANI,อุบลราชธานี (ศูนย์ฯ),อุบลราชธานี,15.25000,104.86667,09-07-2019,01:00:00,210,5.20,1006.63,0.00,9.3,31.41,10.00,27.3,24.9,87,992.62
48408,UBON RATCHATHANI AGROMET.,อุบลราชธานี สกษ.,อุบลราชธานี,15.23914,105.02350,09-07-2019,01:00:00,260,14.40,1007.01,0.00,3.7,32.74,9.00,26.7,25.6,94,992.17
48409,SI SAKET AGROMET.,ศรีสะเกษ,ศรีสะเกษ,15.00000,104.05000,09-07-2019,01:00:00,000,0.20,1007.80,0.00,0.0,32.94,6.00,26.8,25.7,94,993.11
48410,UTHAITHANI,อุทัยธานี,อุทัยธานี,15.37417,100.03889,09-07-2019,01:00:00,"{'@attributes': {'Unit': 'degree'}, '0': '   '}",0.00,1007.01,0.00,0.0,29.15,10.00,27.4,23.6,80,1003.99
48413,WICHIAN BURI,วิเชียรบุรี,เพชรบูรณ์,15.65700,101.10800,09-07-2019,01:00:00,000,1.00,1006.95,0.01,0.0,31.19,7.00,25.9,24.7,93,998.97
48415,AYUTTHAYA,พระนครศรีอยุธยา,พระนครศรีอยุธยา,14.53472,100.72500,09-07-2019,01:00:00,200,0.00,1008.11,0.00,9.3,29.23,7.00,27.3,23.7,81,1007.00
48416,THA TUM,ท่าตูม,สุรินทร์,15.31667,103.68333,09-07-2019,01:00:00,000,0.00,1004.80,0.00,0.0,31.94,9.00,27.0,25.1,90,990.15
48417,NAKORNNAYOK,นครนายก,นครนายก,14.36222,101.39278,09-07-2019,01:00:00,270,10.00,1009.52,0.00,7.4,22.15,.10,19.3,19.1,99,874.11
48418,BUA CHUM,บัวชุม  ,ลพบุรี,15.26667,101.18736,09-07-2019,01:00:00,000,19.40,1007.12,0.00,0.0,30.32,10.00,25.0,24.3,96,1001.20
48419,PATHUMTHANI,ปทุมธานี สกษ.,ปทุมธานี,14.10000,100.61667,09-07-2019,01:00:00,240,4.00,1008.88,0.00,3.7,31.77,7.00,27.2,25.1,88,1008.07
48420,Samut Prakarn,สมุทรปราการ สกษ.,สมุทรปราการ,13.51667,100.76167,09-07-2019,01:00:00,210,6.70,1007.06,0.00,11.1,30.18,10.00,28.8,24.2,76,1006.61
48421,THONG PHAPHUM,ทองผาภูมิ,กาญจนบุรี,14.74222,98.63639,09-07-2019,01:00:00,000,9.00,1009.00,0.20,0.0,29.41,3.00,24.5,23.8,96,997.58
48425,SUPHAN BURI,สุพรรณบุรี,สุพรรณบุรี,14.47444,100.13889,09-07-2019,01:00:00,210,0.00,1007.80,0.00,5.6,29.93,10.00,27.1,24.1,84,1006.79
48426,LOP BURI,ลพบุรี,ลพบุรี,14.79972,100.64500,09-07-2019,01:00:00,000,4.20,1007.52,1.00,0.0,30.67,7.00,26.2,24.5,90,1005.69
48427,U THONG AGROMET.,อู่ทอง สกษ.,สุพรรณบุรี,14.30361,99.86472,09-07-2019,01:00:00,000,3.60,1007.74,0.00,0.0,28.80,4.00,26.2,23.4,85,1006.97
48429,SUVARNABHUMI AIRPORT,สนามบินสุวรรณภูมิ,สมุทรปราการ,13.68639,100.76750,09-07-2019,01:00:00,290,1.20,1008.14,0.00,9.3,26.95,10.00,27.5,22.3,73,1007.44
48430,PRACHIN BURI,ปราจีนบุรี,ปราจีนบุรี,14.05842,101.36930,09-07-2019,01:00:00,300,2.60,1007.74,0.00,3.7,32.61,7.00,27.2,25.5,90,1007.04
48431,NAKHON RATCHASIMA,นครราชสีมา,นครราชสีมา,14.96830,102.08603,09-07-2019,01:00:00,270,0.01,1007.22,0.00,5.6,29.60,10.00,26.2,23.9,87,986.01
48432,SURIN,สุรินทร์,สุรินทร์,14.88333,103.50000,09-07-2019,01:00:00,000,0.30,1007.05,0.00,0.0,31.58,7.00,27.1,24.9,88,990.34
48433,SURIN AGROMET.,สุรินทร์ สกษ.,สุรินทร์,14.88333,103.45000,09-07-2019,01:00:00,230,0.00,1007.77,0.00,5.6,30.97,6.00,26.5,24.6,89,991.30
48434,CHOK CHAI,โชคชัย,นครราชสีมา,14.71889,102.16861,09-07-2019,01:00:00,000,0.01,1007.41,0.00,0.0,28.80,10.00,26.2,23.4,85,985.49
48435,PAKCHONG AGROMET.,ปากช่อง สกษ.,นครราชสีมา,14.64389,101.33194,09-07-2019,01:00:00,220,5.50,1007.97,0.00,7.4,25.43,10.00,24.7,21.4,82,964.37
48436,NANG RONG,นางรอง,บุรีรัมย์,14.58333,102.80000,09-07-2019,01:00:00,200,0.00,1007.09,0.00,3.7,30.59,8.00,26.3,24.4,89,986.49
48437,BURIRUM,บุรีรัมย์,บุรีรัมย์,15.22575,103.24808,09-07-2019,01:00:00,230,0.00,1008.32,0.00,13.0,33.23,9.00,26.1,25.8,98,987.42
48438,SAMUTSONGKRAM,สมุทรสงคราม,สมุทรสงคราม,13.40778,100.03222,09-07-2019,01:00:00,000,1.60,1008.22,0.00,0.0,29.48,10.00,27.0,23.8,83,1007.78
48439,KABIN BURI,กบินทร์บุรี,ปราจีนบุรี,13.98333,101.70722,09-07-2019,01:00:00,000,4.40,1007.75,0.00,0.0,31.55,6.00,25.8,24.9,95,1006.33
48440,SA KAEW,สระแก้ว,สระแก้ว,13.78889,102.03472,09-07-2019,01:00:00,000,2.40,1007.95,0.00,0.0,32.12,7.00,26.1,25.2,95,1003.00
48450,KANCHANA BURI,กาญจนบุรี,กาญจนบุรี,14.02250,99.53583,09-07-2019,01:00:00,240,0.10,1007.95,0.00,3.7,27.88,10.00,27.0,22.9,78,1004.65
48451,NAKHONPATHOM,นครปฐม,นครปฐม,14.01167,99.97000,09-07-2019,01:00:00,000,0.01,1007.94,0.00,0.0,29.50,10.00,26.0,23.8,88,1006.83
48453,BANG NA AGROMET.,กรุงเทพฯ บางนา สกษ.,กรุงเทพมหานคร,13.66639,100.60611,09-07-2019,01:00:00,320,0.20,1008.20,0.00,7.4,26.90,10.00,28.2,22.3,70,1007.90
48455,BANGKOK METROPOLIS,กรุงเทพมหานคร,กรุงเทพมหานคร,13.72639,100.56000,09-07-2019,01:00:00,000,2.90,1007.84,0.00,0.0,29.64,10.00,26.8,23.9,84,1007.34
48456,DON MUANG AIRPORT,สนามบินดอนเมือง,กรุงเทพมหานคร,13.91917,100.60500,09-07-2019,01:00:00,230,12.00,1008.22,0.00,5.6,28.06,10.00,27.1,23.0,78,1006.81
48458,CHACHOENGSAO,ฉะเชิงเทรา,ฉะเชิงเทรา,13.51556,101.45833,09-07-2019,01:00:00,000,2.60,1010.03,0.00,0.0,30.40,10.00,26.2,24.3,89,1001.98
48459,CHON BURI,ชลบุรี,ชลบุรี,13.36667,100.98333,09-07-2019,01:00:00,000,0.00,1008.19,0.00,0.0,30.15,10.00,28.5,24.2,78,1007.90
48460,KO SICHANG,เกาะสีชัง,ชลบุรี,13.16167,100.80194,09-07-2019,01:00:00,000,0.00,1008.05,0.00,0.0,28.78,10.00,28.5,23.4,74,1004.93
48461,PHATTHAYA,พัทยา,ชลบุรี,12.92000,100.86944,09-07-2019,01:00:00,250,0.40,1008.49,0.00,5.6,29.74,10.00,28.0,23.9,79,1001.56
48462,ARANYA PRATHET,อรัญประเทศ,สระแก้ว,13.70000,102.58333,09-07-2019,01:00:00,000,3.80,1008.20,0.00,0.0,31.79,7.00,26.5,25.1,92,1002.58
48464,RATCHA BURI,ราชบุรี,ราชบุรี,13.48931,99.79239,09-07-2019,01:00:00,000,1.60,1009.15,0.00,0.0,29.52,10.00,25.0,23.8,93,1007.88
48465,PHETCHA BURI,เพชรบุรี,เพชรบุรี,12.99944,100.06056,09-07-2019,01:00:00,200,0.01,1008.34,0.00,7.4,27.39,11.00,27.6,22.6,74,1007.91
48474,NONG PHLUB AGROMET.,หนองพลับ สกษ.,ประจวบคีรีขันธ์,12.58333,99.73333,09-07-2019,01:00:00,000,0.01,1008.87,0.00,0.0,28.67,8.00,25.4,23.3,88,996.52
48475,HUA HIN,หัวหิน,ประจวบคีรีขันธ์,12.58611,99.96250,09-07-2019,01:00:00,000,0.00,1008.61,0.00,0.0,28.51,10.00,27.2,23.2,79,1007.90
48477,SATTAHIP,สัตหีบ,ชลบุรี,12.68333,100.98333,09-07-2019,01:00:00,220,0.00,1008.93,0.00,14.8,29.43,9.00,28.7,23.8,75,1006.50
48478,RAYONG,ระยอง,ระยอง,12.63222,101.34361,09-07-2019,01:00:00,280,0.10,1009.58,0.00,9.3,30.18,10.00,28.8,24.2,76,1009.06
48479,HUAI PONG AGROMET.,ห้วยโป่ง สกษ.,ระยอง,12.73333,101.13333,09-07-2019,01:00:00,000,0.20,1008.57,0.00,0.0,28.98,8.00,27.6,23.5,79,1003.42
48480,CHANTHA BURI,จันทบุรี,จันทบุรี,12.61667,102.11333,09-07-2019,01:00:00,000,0.60,1008.84,0.01,0.0,32.53,7.00,27.3,25.4,90,1008.43
48481,PHLIU  AGROMET.,พลิ้ว สกษ.,จันทบุรี,12.50861,102.17305,09-07-2019,01:00:00,000,2.50,1009.23,0.00,0.0,31.88,8.00,26.4,25.1,93,1006.44
48500,PRACHUAP KHIRIKHAN,ประจวบคีรีขันธ์,ประจวบคีรีขันธ์,11.83333,99.83333,09-07-2019,01:00:00,270,0.50,1008.85,0.00,5.6,29.72,10.00,26.7,23.9,85,1008.07
48501,TRAD,ตราด,ตราด,11.76667,102.88333,09-07-2019,01:00:00,070,0.50,1009.10,0.00,1.9,31.00,6.00,25.8,24.6,93,1008.64
48517,CHUMPHON,ชุมพร,ชุมพร,10.49875,99.18847,09-07-2019,01:00:00,000,0.00,1010.04,0.00,0.0,31.88,8.00,26.4,25.1,93,1009.36
48520,SAWI AGROMET.,สวี สกษ.,ชุมพร,10.33333,99.10000,09-07-2019,01:00:00,170,0.00,1009.59,0.00,1.9,30.84,6.00,26.0,24.6,92,1008.05
48532,RANONG,ระนอง,ระนอง,9.98333,98.61667,09-07-2019,01:00:00,000,0.00,1009.91,0.00,0.0,32.23,10.00,26.3,25.3,94,1008.99
48550,KO SAMUI,เกาะสมุย,สุราษฎร์ธานี,9.46667,100.05000,09-07-2019,01:00:00,280,0.00,1009.87,0.00,5.6,32.76,10.00,27.7,25.6,88,1009.18
48551,SURAT THANI,สุราษฎร์ธานี,สุราษฎร์ธานี,9.13556,99.15194,09-07-2019,01:00:00,000,0.00,1010.04,0.00,0.0,29.16,7.00,24.8,23.6,93,1009.23
48552,NAKHONSI THAMMARAT,นครศรีธรรมราช,นครศรีธรรมราช,8.53778,99.96389,09-07-2019,01:00:00,000,0.00,1009.00,0.00,0.0,30.71,10.00,25.5,24.5,94,1008.36
48554,NAKHONSI THAMMARAT AGROMET.,นครศรีธรรมราช สกษ.,นครศรีธรรมราช,8.35931,100.00000,09-07-2019,01:00:00,000,0.00,1009.48,0.00,0.0,30.92,10.00,25.9,24.6,93,1009.08
48555,SURAT THANI AGROMET.,สุราษฎร์ธานี สกษ.,สุราษฎร์ธานี,9.10000,99.63333,09-07-2019,01:00:00,000,0.00,1012.00,0.00,0.0,29.33,5.00,24.6,23.7,95,1007.73
48556,PHRA SANG,พระแสง สอท.,สุราษฎร์ธานี,8.57022,99.25825,09-07-2019,01:00:00,000,0.00,1010.31,0.00,0.0,30.20,7.00,24.5,24.2,98,1008.68
48557,CHAWANG,ฉวาง,นครศรีธรรมราช,8.43194,99.51194,09-07-2019,01:00:00,000,0.00,1009.79,0.00,0.0,30.02,7.00,24.4,24.1,98,1006.28
48560,PHATTHALUNG AGROMET.,พัทลุง สกษ.,พัทลุง,7.58333,100.16667,09-07-2019,01:00:00,000,0.00,1009.56,0.00,0.0,29.91,8.00,25.5,24.0,92,1008.20
48561,TAKUA PA,ตะกั่วป่า,พังงา,8.68417,98.25222,09-07-2019,01:00:00,000,0.00,1009.84,0.00,0.0,32.20,10.00,26.0,25.3,96,1008.95
48564,PHUKET,ภูเก็ต,ภูเก็ต,7.88333,98.40000,09-07-2019,01:00:00,000,0.00,1009.49,0.00,0.0,29.08,10.00,26.5,23.6,84,1009.05
48565,PHUKET AIRPORT,ภูเก็ต (ศูนย์ฯ),ภูเก็ต,8.14500,98.31444,09-07-2019,01:00:00,000,0.00,1009.18,0.00,0.0,30.85,10.00,25.0,24.6,97,1008.18
48566,KO LANTA,เกาะลันตา,กระบี่,7.53333,99.05000,09-07-2019,01:00:00,000,0.00,1009.59,0.00,0.0,29.89,10.00,25.2,24.0,93,1008.77
48567,TRANG AIRPORT,ตรัง,ตรัง,7.51667,99.61667,09-07-2019,01:00:00,000,0.00,1009.64,0.00,0.0,30.84,10.00,26.0,24.6,92,1007.82
48568,SONGKHLA,สงขลา,สงขลา,7.18211,100.60769,09-07-2019,01:00:00,150,0.00,1009.62,0.00,3.7,30.10,8.00,26.9,24.1,85,1008.87
48569,HAT YAI AIRPORT,หาดใหญ่,สงขลา,6.91667,100.43333,09-07-2019,01:00:00,270,0.00,1009.74,0.00,3.7,28.97,10.00,24.4,23.5,95,1005.70
48570,SATUN,สตูล,สตูล,6.65000,100.08333,09-07-2019,01:00:00,000,0.00,1010.19,0.00,0.0,31.55,10.00,25.8,24.9,95,1009.50
48571,KHO HONG AGROMET.,คอหงษ์ สกษ.,สงขลา,7.00000,100.50000,09-07-2019,01:00:00,000,0.00,1009.54,0.00,0.0,30.73,10.00,25.8,24.5,93,1008.42
48574,SA DAO,สะเดา,สงขลา,6.79806,100.39056,09-07-2019,01:00:00,000,0.00,1009.91,0.00,0.0,31.38,10.00,26.0,24.8,93,1006.97
