WmoStationNumber,StationNameEnglish,StationNameThai,Province,Latitude,Longitude,RelativeHumidity,Date,Time,Rainfall,WindDirection,LandVisibility,AirTemperature,VaporPressure,StationPressure,WindSpeed,MeanSeaLevelPressure,DewPoint,Rainfall24Hr
48300,MAE HONG SON,แม่ฮ่องสอน,แม่ฮ่องสอน,19.29897,97.97578,94,09-02-2019,04:00:00,0.00,000,7.00,25.3,30.34,975.30,0.0,1006.26,24.3,12.00
48302,DOI ANG KANG,ดอยอ่างขาง,เชียงใหม่,19.93139,99.04833,100,09-02-2019,04:00:00,20.00,240,.10,18.0,20.62,843.45,7.4,1004.74,18.0,77.90
48303,CHIANG RAI,เชียงราย,เชียงราย,19.96139,99.88139,91,09-02-2019,04:00:00,1.60,000,8.00,24.7,28.21,962.02,0.0,1005.72,23.1,2.40
48304,CHAING RAI AGROMET.,เชียงราย สกษ.,เชียงราย,19.87083,99.78278,96,09-02-2019,04:00:00,1.50,000,8.00,24.5,29.41,960.05,0.0,1005.67,23.8,3.80
48307,THUNG CHANG,ทุ่งช้าง,น่าน,19.41194,100.88353,98,09-02-2019,04:00:00,47.50,000,4.00,24.0,29.30,968.03,0.0,1005.83,23.7,52.70
48310,PHAYAO,พะเยา,พะเยา,19.13333,99.90000,93,09-02-2019,04:00:00,0.00,000,7.00,23.0,26.09,960.07,0.0,1005.47,21.8,4.40
48315,THA WANGPHA,ท่าวังผา,น่าน,19.11056,100.80250,93,09-02-2019,04:00:00,0.10,000,5.00,24.8,29.16,979.51,0.0,1006.32,23.6,0.40
48324,THOEN,เถิน,ลำปาง,17.63661,99.24475,97,09-02-2019,04:00:00,0.00,000,14.00,24.6,29.85,984.22,0.0,1006.09,24.0,4.80
48325,MAE SARIANG,แม่สะเรียง,แม่ฮ่องสอน,18.16667,97.93333,96,09-02-2019,04:00:00,0.00,000,5.00,23.5,27.66,982.48,0.0,1006.80,22.8,5.60
48327,CHIANG MAI,เชียงใหม่,เชียงใหม่,18.79000,98.97694,89,09-02-2019,04:00:00,0.00,000,10.00,24.7,27.69,971.31,0.0,1005.93,22.8,0.20
48328,LAMPANG,ลำปาง,ลำปาง,18.28333,99.51667,97,09-02-2019,04:00:00,0.00,000,10.00,24.1,29.22,978.59,0.0,1006.30,23.7,41.60
48329,LAMPHUN,ลำพูน,ลำพูน,18.56722,99.03389,97,09-02-2019,04:00:00,0.00,000,10.00,24.3,29.57,972.30,0.0,1006.03,23.9,56.10
48330,PHRAE,แพร่,แพร่,18.16667,100.16667,96,09-02-2019,04:00:00,0.20,000,10.00,25.0,30.32,987.27,0.0,1005.84,24.3,43.10
48331,NAN,น่าน,น่าน,18.77972,100.77778,95,09-02-2019,04:00:00,2.70,000,5.00,24.4,28.97,983.18,0.0,1006.14,23.5,8.50
48333,NAN AGROMET.,น่าน สกษ.,น่าน,18.86667,100.75000,93,09-02-2019,04:00:00,14.10,000,5.00,23.9,27.59,976.28,0.0,1006.38,22.7,15.40
48334,LAMPANG AGROMET.,ลำปาง สกษ.,ลำปาง,18.31667,99.28333,96,09-02-2019,04:00:00,0.00,000,6.00,23.8,28.18,970.39,0.0,1006.13,23.1,71.40
48350,LOEI AGROMET.,เลย สกษ.,เลย,17.40000,101.73333,99,09-02-2019,04:00:00,2.00,000,6.00,24.0,29.56,974.92,0.0,1004.79,23.8,2.40
48351,UTTARADIT,อุตรดิตถ์,อุตรดิตถ์,17.61667,100.10000,96,09-02-2019,04:00:00,0.00,000,7.00,25.2,30.69,998.60,0.0,1005.94,24.5,48.90
48352,NONG KHAI,หนองคาย,หนองคาย,17.86717,102.73303,94,09-02-2019,04:00:00,0.00,320,10.00,26.5,32.63,984.78,5.6,1004.65,25.5,0.00
48353,LOEI,เลย,เลย,17.45000,101.73333,94,09-02-2019,04:00:00,2.30,000,6.00,24.4,28.71,976.38,0.0,1005.19,23.4,3.50
48354,UDON THANI,อุดรธานี,อุดรธานี,17.38333,102.80000,95,09-02-2019,04:00:00,7.10,250,5.00,24.3,28.79,984.91,18.5,1005.21,23.4,22.60
48355,SAKON NAKHON AGROMET.,สกลนคร สกษ.,สกลนคร,17.12503,104.06100,93,09-02-2019,04:00:00,0.20,000,10.00,25.2,29.89,982.82,0.0,1004.61,24.0,5.10
48356,SAKON NAKHON,สกลนคร,สกลนคร,17.15000,104.13333,96,09-02-2019,04:00:00,0.00,250,10.00,25.5,31.25,984.50,5.6,1004.01,24.8,0.01
48357,NAKHON PHANOM,นครพนม,นครพนม,17.41083,104.78250,93,09-02-2019,04:00:00,0.01,320,10.00,25.3,30.07,987.23,1.9,1004.01,24.1,0.10
48358,NAKHON PHANOM AGROMET.,นครพนม สกษ.,นครพนม,17.44306,104.77361,96,09-02-2019,04:00:00,0.00,000,10.00,25.0,30.32,986.79,0.0,1004.25,24.3,0.01
48360,NONG BUA LAM PHU,หนองบัวลำภู,หนองบัวลำภู,17.23250,102.42944,99,09-02-2019,04:00:00,0.00,000,8.00,25.0,31.39,979.11,0.0,1004.99,24.8,32.70
48372,SUKHOTHAI*,สุโขทัย,สุโขทัย,17.10611,99.80000,100,09-02-2019,04:00:00,0.00,000,10.00,25.2,32.04,999.64,0.0,1005.45,25.2,12.00
48373,SI SAMRONG AGROMET.,ศรีสำโรง สกษ.,สุโขทัย,17.16136,99.86167,97,09-02-2019,04:00:00,0.00,000,7.00,25.5,31.79,999.20,0.0,1005.41,25.1,5.90
48374,LOM SAK,หล่มสัก,เพชรบูรณ์,16.77361,101.24944,96,09-02-2019,04:00:00,0.00,000,8.00,24.5,29.41,989.88,0.0,1006.44,23.8,2.00
48375,MAE SOT,แม่สอด,ตาก,16.65917,98.55083,93,09-02-2019,04:00:00,0.20,000,8.00,24.4,28.45,982.28,0.0,1004.74,23.2,8.60
48376,TAK,ตาก,ตาก,16.87833,99.14333,96,09-02-2019,04:00:00,1.10,000,6.00,25.0,30.32,992.02,0.0,1006.49,24.3,3.00
48377,BHUMIBOL DAM,เขื่อนภูมิพล,ตาก,17.24389,99.00250,96,09-02-2019,04:00:00,0.00,000,7.00,24.0,28.53,989.37,0.0,1005.89,23.3,7.20
48378,PHITSANULOK,พิษณุโลก,พิษณุโลก,16.79481,100.27930,96,09-02-2019,04:00:00,0.00,000,10.00,25.0,30.32,1001.13,0.0,1006.38,24.3,14.60
48379,PHETCHABUN,เพชรบูรณ์,เพชรบูรณ์,16.43333,101.15000,94,09-02-2019,04:00:00,0.00,000,10.00,24.9,29.61,991.54,0.0,1004.80,23.9,0.00
48380,KAMPHAENG PHET,กำแพงเพชร,กำแพงเพชร,16.48681,99.52697,97,09-02-2019,04:00:00,0.00,000,11.00,25.4,31.33,996.65,0.0,1006.02,24.8,21.80
48381,KHON KAEN,ขอนแก่น,ขอนแก่น,16.46111,102.78972,100,09-02-2019,04:00:00,28.60,200,5.00,23.8,29.46,983.93,5.6,1005.81,23.8,126.80
48382,MAHASARAKHAM,มหาสารคาม,มหาสารคาม,16.24722,103.06805,96,09-02-2019,04:00:00,10.40,000,5.00,25.0,30.32,984.79,0.0,1002.32,24.3,24.40
48383,MUKDAHAN,มุกดาหาร,มุกดาหาร,16.54139,104.72889,92,09-02-2019,04:00:00,8.80,000,10.00,25.0,29.00,986.74,0.0,1002.61,23.5,10.00
48384,THA PHRA AGROMET.,ท่าพระ สกษ.,ขอนแก่น,16.33333,102.81667,97,09-02-2019,04:00:00,35.00,200,6.00,24.8,30.48,985.03,3.7,1003.99,24.4,82.20
48385,UMPHANG,อุ้มผาง,ตาก,16.02472,98.86444,93,09-02-2019,04:00:00,1.10,000,6.00,22.8,25.76,956.11,0.0,1007.86,21.6,21.20
48386,PICHIT AGROMET.,พิจิตร สกษ.,พิจิตร,16.43806,100.29250,97,09-02-2019,04:00:00,0.00,150,4.00,25.3,31.41,1002.17,3.7,1006.15,24.9,41.90
48387,DOI MU SOE AGROMET.,ดอยมูเซอร์ สกษ.,ตาก,16.75000,98.93333,97,09-02-2019,04:00:00,0.50,200,2.00,20.6,23.55,911.38,7.4,1006.72,20.1,15.50
48390,KALASIN,กาฬสินธุ์,กาฬสินธุ์,16.33250,103.58833,97,09-02-2019,04:00:00,5.20,000,3.00,24.5,29.93,988.70,0.0,1004.78,24.1,66.50
48400,NAKHON SAWAN,นครสวรรค์ ,นครสวรรค์,15.67183,100.13236,98,09-02-2019,04:00:00,0.01,160,9.00,25.7,32.45,1002.27,3.7,1006.31,25.4,19.40
48401,TAKFA AGROMET.,ตากฟ้า สกษ.,นครสวรรค์,15.34944,100.53028,97,09-02-2019,04:00:00,0.20,000,4.00,25.3,31.41,996.22,0.0,1006.96,24.9,10.60
48402,CHAINAT AGROMET.,ชัยนาท สกษ.,ชัยนาท,15.15000,100.18333,96,09-02-2019,04:00:00,0.00,000,6.00,25.6,31.44,1004.59,0.0,1006.53,24.9,15.20
48403,CHAIYAPHUM,ชัยภูมิ,ชัยภูมิ,15.80000,102.03333,90,09-02-2019,04:00:00,0.20,000,7.00,24.9,28.30,984.56,0.0,1005.53,23.1,2.60
48404,ROI ET AGROMET.,ร้อยเอ็ด สกษ.,ร้อยเอ็ด,16.07322,103.60844,94,09-02-2019,04:00:00,5.20,290,7.00,24.8,29.42,987.10,7.4,1004.85,23.8,68.10
48405,ROI ET,ร้อยเอ็ด,ร้อยเอ็ด,16.02000,103.74389,97,09-02-2019,04:00:00,6.20,280,5.00,24.8,30.48,988.46,7.4,1004.70,24.4,107.60
48407,UBON RATCHATHANI,อุบลราชธานี (ศูนย์ฯ),อุบลราชธานี,15.25000,104.86667,94,09-02-2019,04:00:00,14.70,280,9.00,25.0,29.79,990.17,11.1,1004.25,24.0,21.80
48408,UBON RATCHATHANI AGROMET.,อุบลราชธานี สกษ.,อุบลราชธานี,15.23914,105.02350,96,09-02-2019,04:00:00,23.20,000,6.00,24.5,29.41,990.22,0.0,1005.15,23.8,40.00
48409,SI SAKET AGROMET.,ศรีสะเกษ,ศรีสะเกษ,15.00000,104.05000,98,09-02-2019,04:00:00,10.70,290,4.00,25.0,31.12,990.55,5.6,1005.29,24.7,13.80
48410,UTHAITHANI,อุทัยธานี,อุทัยธานี,15.37417,100.03889,97,09-02-2019,04:00:00,0.10,"{'@attributes': {'Unit': 'degree'}, '0': '   '}",10.00,26.4,33.27,1002.97,0.0,1005.99,25.8,6.50
48413,WICHIAN BURI,วิเชียรบุรี,เพชรบูรณ์,15.65700,101.10800,95,09-02-2019,04:00:00,0.01,000,7.00,25.2,30.42,998.40,0.0,1006.39,24.3,5.60
48415,AYUTTHAYA,พระนครศรีอยุธยา,พระนครศรีอยุธยา,14.53472,100.72500,92,09-02-2019,04:00:00,0.00,000,7.00,26.3,31.41,1005.41,0.0,1006.52,24.9,0.00
48416,THA TUM,ท่าตูม,สุรินทร์,15.31667,103.68333,97,09-02-2019,04:00:00,26.50,000,2.00,25.0,30.58,990.75,0.0,1005.51,24.4,32.50
48417,NAKORNNAYOK,นครนายก,นครนายก,14.36222,101.39278,100,09-02-2019,04:00:00,0.00,280,.05,18.6,21.41,875.80,13.0,1011.81,18.6,26.00
48418,BUA CHUM,บัวชุม  ,ลพบุรี,15.26667,101.18736,95,09-02-2019,04:00:00,0.40,000,10.00,24.8,29.69,1000.69,0.0,1006.61,23.9,1.20
48419,PATHUMTHANI,ปทุมธานี สกษ.,ปทุมธานี,14.10000,100.61667,83,09-02-2019,04:00:00,0.00,000,8.00,27.0,29.48,1006.05,0.0,1006.85,23.8,0.10
48421,THONG PHAPHUM,ทองผาภูมิ,กาญจนบุรี,14.74222,98.63639,96,09-02-2019,04:00:00,3.10,000,3.00,24.3,29.05,996.33,0.0,1007.74,23.6,22.80
48425,SUPHAN BURI,สุพรรณบุรี,สุพรรณบุรี,14.47444,100.13889,88,09-02-2019,04:00:00,0.00,000,10.00,26.5,30.43,1005.51,0.0,1006.52,24.3,4.00
48426,LOP BURI,ลพบุรี,ลพบุรี,14.79972,100.64500,92,09-02-2019,04:00:00,0.00,000,7.00,26.0,30.84,1004.75,0.0,1006.58,24.6,2.20
48427,U THONG AGROMET.,อู่ทอง สกษ.,สุพรรณบุรี,14.30361,99.86472,84,09-02-2019,04:00:00,0.00,000,3.00,26.5,29.08,1005.44,0.0,1006.21,23.6,0.01
48429,SUVARNABHUMI AIRPORT,สนามบินสุวรรณภูมิ,สมุทรปราการ,13.68639,100.76750,84,09-02-2019,04:00:00,0.20,230,10.00,26.1,28.36,1006.18,1.9,1006.88,23.2,11.20
48430,PRACHIN BURI,ปราจีนบุรี,ปราจีนบุรี,14.05842,101.36930,93,09-02-2019,04:00:00,0.30,000,7.00,26.5,32.35,1005.85,0.0,1006.55,25.4,1.60
48431,NAKHON RATCHASIMA,นครราชสีมา,นครราชสีมา,14.96830,102.08603,92,09-02-2019,04:00:00,0.50,270,8.00,25.0,29.00,985.35,5.6,1006.64,23.5,0.70
48432,SURIN,สุรินทร์,สุรินทร์,14.88333,103.50000,97,09-02-2019,04:00:00,3.00,000,5.00,25.3,31.14,988.77,0.0,1005.55,24.7,11.60
48433,SURIN AGROMET.,สุรินทร์ สกษ.,สุรินทร์,14.88333,103.45000,94,09-02-2019,04:00:00,3.50,270,5.00,25.2,30.15,989.67,5.6,1006.18,24.2,12.10
48434,CHOK CHAI,โชคชัย,นครราชสีมา,14.71889,102.16861,88,09-02-2019,04:00:00,0.10,000,6.00,25.5,28.85,984.71,0.0,1006.66,23.4,0.10
48435,PAKCHONG AGROMET.,ปากช่อง สกษ.,นครราชสีมา,14.64389,101.33194,91,09-02-2019,04:00:00,0.30,240,8.00,24.2,27.60,963.53,3.7,1007.17,22.7,10.60
48436,NANG RONG,นางรอง,บุรีรัมย์,14.58333,102.80000,89,09-02-2019,04:00:00,0.60,230,5.00,24.8,27.87,985.26,5.6,1005.94,22.9,1.00
48437,BURIRUM,บุรีรัมย์,บุรีรัมย์,15.22575,103.24808,100,09-02-2019,04:00:00,3.80,260,5.00,23.9,29.64,986.01,11.1,1007.04,23.9,11.80
48438,SAMUTSONGKRAM,สมุทรสงคราม,สมุทรสงคราม,13.40778,100.03222,84,09-02-2019,04:00:00,0.00,040,10.00,27.2,30.39,1006.22,1.9,1006.65,24.3,0.01
48439,KABIN BURI,กบินทร์บุรี,ปราจีนบุรี,13.98333,101.70722,96,09-02-2019,04:00:00,0.00,000,6.00,25.5,31.25,1004.94,0.0,1006.37,24.8,2.00
48440,SA KAEW,สระแก้ว,สระแก้ว,13.78889,102.03472,98,09-02-2019,04:00:00,0.50,000,7.00,25.4,31.87,1001.61,0.0,1006.57,25.1,5.90
48450,KANCHANA BURI,กาญจนบุรี,กาญจนบุรี,14.02250,99.53583,78,09-02-2019,04:00:00,0.00,320,10.00,26.9,27.70,1003.25,5.6,1006.55,22.8,0.10
48451,NAKHONPATHOM,นครปฐม,นครปฐม,14.01167,99.97000,95,09-02-2019,04:00:00,0.00,000,10.00,25.6,31.17,1005.54,0.0,1006.65,24.7,2.10
48453,BANG NA AGROMET.,กรุงเทพฯ บางนา สกษ.,กรุงเทพมหานคร,13.66639,100.60611,79,09-02-2019,04:00:00,0.00,000,10.00,27.1,28.33,1006.40,0.0,1006.70,23.1,2.20
48455,BANGKOK METROPOLIS,กรุงเทพมหานคร,กรุงเทพมหานคร,13.72639,100.56000,87,09-02-2019,04:00:00,0.00,000,10.00,26.6,30.34,1006.34,0.0,1006.83,24.3,11.50
48456,DON MUANG AIRPORT,สนามบินดอนเมือง,กรุงเทพมหานคร,13.91917,100.60500,79,09-02-2019,04:00:00,0.00,250,10.00,27.2,28.51,1005.57,16.7,1006.98,23.2,7.40
48458,CHACHOENGSAO,ฉะเชิงเทรา,ฉะเชิงเทรา,13.51556,101.45833,98,09-02-2019,04:00:00,0.30,000,10.00,25.2,31.49,1000.05,0.0,1008.11,24.9,5.10
48459,CHON BURI,ชลบุรี,ชลบุรี,13.36667,100.98333,72,09-02-2019,04:00:00,0.00,000,10.00,28.0,27.32,1006.48,0.0,1006.77,22.5,5.10
48460,KO SICHANG,เกาะสีชัง,ชลบุรี,13.16167,100.80194,73,09-02-2019,04:00:00,0.00,000,10.00,28.6,28.70,1003.77,0.0,1006.89,23.4,0.00
48461,PHATTHAYA,พัทยา,ชลบุรี,12.92000,100.86944,84,09-02-2019,04:00:00,0.80,240,10.00,26.5,29.08,999.90,9.3,1006.85,23.6,2.80
48462,ARANYA PRATHET,อรัญประเทศ,สระแก้ว,13.70000,102.58333,94,09-02-2019,04:00:00,0.01,000,8.00,25.7,31.08,1001.01,0.0,1006.63,24.7,1.60
48464,RATCHA BURI,ราชบุรี,ราชบุรี,13.48931,99.79239,92,09-02-2019,04:00:00,0.00,000,8.00,25.5,29.91,1006.62,0.0,1007.89,24.0,1.50
48465,PHETCHA BURI,เพชรบุรี,เพชรบุรี,12.99944,100.06056,82,09-02-2019,04:00:00,0.00,000,11.00,28.0,30.84,1006.30,0.0,1006.73,24.6,4.60
48474,NONG PHLUB AGROMET.,หนองพลับ สกษ.,ประจวบคีรีขันธ์,12.58333,99.73333,94,09-02-2019,04:00:00,0.00,000,10.00,24.0,28.01,994.73,0.0,1007.11,23.0,0.70
48475,HUA HIN,หัวหิน,ประจวบคีรีขันธ์,12.58611,99.96250,84,09-02-2019,04:00:00,0.00,000,10.00,26.0,28.18,1006.19,0.0,1006.91,23.1,5.80
48477,SATTAHIP,สัตหีบ,ชลบุรี,12.68333,100.98333,88,09-02-2019,04:00:00,1.40,000,10.00,26.7,30.81,1005.08,0.0,1007.52,24.5,10.60
48478,RAYONG,ระยอง,ระยอง,12.63222,101.34361,81,09-02-2019,04:00:00,0.10,320,10.00,28.0,30.56,1006.63,5.6,1007.15,24.4,0.10
48479,HUAI PONG AGROMET.,ห้วยโป่ง สกษ.,ระยอง,12.73333,101.13333,91,09-02-2019,04:00:00,0.20,000,9.00,26.2,30.94,1002.03,0.0,1007.20,24.6,8.60
48480,CHANTHA BURI,จันทบุรี,จันทบุรี,12.61667,102.11333,94,09-02-2019,04:00:00,0.00,040,7.00,26.5,32.63,1006.47,5.6,1006.89,25.5,12.00
48481,PHLIU  AGROMET.,พลิ้ว สกษ.,จันทบุรี,12.50861,102.17305,96,09-02-2019,04:00:00,0.00,000,8.00,25.5,31.25,1004.32,0.0,1007.10,24.8,17.40
48500,PRACHUAP KHIRIKHAN,ประจวบคีรีขันธ์,ประจวบคีรีขันธ์,11.83333,99.83333,90,09-02-2019,04:00:00,0.00,000,10.00,26.0,30.30,1006.00,0.0,1006.78,24.3,2.30
48501,TRAD,ตราด,ตราด,11.76667,102.88333,90,09-02-2019,04:00:00,0.00,000,6.00,26.7,31.63,1007.01,0.0,1007.46,25.0,36.60
48517,CHUMPHON,ชุมพร,ชุมพร,10.49875,99.18847,97,09-02-2019,04:00:00,0.00,000,7.00,24.0,29.04,1008.05,0.0,1008.74,23.6,7.70
48520,SAWI AGROMET.,สวี สกษ.,ชุมพร,10.33333,99.10000,93,09-02-2019,04:00:00,0.00,000,8.00,24.8,29.16,1005.22,0.0,1006.75,23.6,12.20
48532,RANONG,ระนอง,ระนอง,9.98333,98.61667,95,09-02-2019,04:00:00,0.00,000,10.00,23.5,27.41,1008.17,0.0,1009.09,22.6,88.90
48550,KO SAMUI,เกาะสมุย,สุราษฎร์ธานี,9.46667,100.05000,84,09-02-2019,04:00:00,0.00,000,10.00,26.0,28.18,1007.94,0.0,1008.63,23.1,0.30
48552,NAKHONSI THAMMARAT,นครศรีธรรมราช,นครศรีธรรมราช,8.53778,99.96389,92,09-02-2019,04:00:00,0.00,000,10.00,24.8,28.64,1007.44,0.0,1008.08,23.3,2.20
48554,NAKHONSI THAMMARAT AGROMET.,นครศรีธรรมราช สกษ.,นครศรีธรรมราช,8.35931,100.00000,95,09-02-2019,04:00:00,0.00,000,10.00,24.4,28.97,1008.36,0.0,1008.77,23.5,2.00
48555,SURAT THANI AGROMET.,สุราษฎร์ธานี สกษ.,สุราษฎร์ธานี,9.10000,99.63333,89,09-02-2019,04:00:00,0.00,000,5.00,24.0,26.50,1006.77,0.0,1011.04,22.0,0.20
48556,PHRA SANG,พระแสง สอท.,สุราษฎร์ธานี,8.57022,99.25825,98,09-02-2019,04:00:00,0.00,000,6.00,24.2,29.66,1007.39,0.0,1009.02,23.9,8.00
48557,CHAWANG,ฉวาง,นครศรีธรรมราช,8.43194,99.51194,97,09-02-2019,04:00:00,0.00,000,6.00,24.2,29.39,1005.99,0.0,1009.50,23.8,4.00
48560,PHATTHALUNG AGROMET.,พัทลุง สกษ.,พัทลุง,7.58333,100.16667,90,09-02-2019,04:00:00,0.00,000,7.00,24.7,27.95,1007.66,0.0,1009.02,22.9,0.00
48561,TAKUA PA,ตะกั่วป่า,พังงา,8.68417,98.25222,97,09-02-2019,04:00:00,0.00,000,10.00,24.4,29.49,1008.16,0.0,1009.06,23.8,62.10
48563,KRABI,กระบี่,กระบี่,8.10361,98.97528,97,09-02-2019,04:00:00,0.00,000,10.00,23.7,28.52,1005.01,0.0,1008.61,23.3,14.60
48564,PHUKET,ภูเก็ต,ภูเก็ต,7.88333,98.40000,96,09-02-2019,04:00:00,0.00,000,10.00,24.3,29.05,1008.59,0.0,1009.03,23.6,23.00
48565,PHUKET AIRPORT,ภูเก็ต (ศูนย์ฯ),ภูเก็ต,8.14500,98.31444,98,09-02-2019,04:00:00,0.00,000,10.00,24.2,29.66,1007.78,0.0,1008.79,23.9,53.40
48566,KO LANTA,เกาะลันตา,กระบี่,7.53333,99.05000,95,09-02-2019,04:00:00,0.00,000,10.00,23.5,27.41,1007.33,0.0,1008.16,22.6,2.80
48567,TRANG AIRPORT,ตรัง,ตรัง,7.51667,99.61667,96,09-02-2019,04:00:00,0.00,000,10.00,23.7,28.26,1007.44,0.0,1009.28,23.1,7.10
48568,SONGKHLA,สงขลา,สงขลา,7.18211,100.60769,91,09-02-2019,04:00:00,0.00,230,10.00,24.7,28.21,1008.49,3.7,1009.25,23.1,2.00
48569,HAT YAI AIRPORT,หาดใหญ่,สงขลา,6.91667,100.43333,98,09-02-2019,04:00:00,0.00,990,10.00,23.4,28.25,1005.17,3.7,1009.22,23.1,4.20
48570,SATUN,สตูล,สตูล,6.65000,100.08333,96,09-02-2019,04:00:00,0.00,000,10.00,24.4,29.23,1009.55,0.0,1010.24,23.7,74.00
48571,KHO HONG AGROMET.,คอหงษ์ สกษ.,สงขลา,7.00000,100.50000,96,09-02-2019,04:00:00,0.00,000,10.00,24.0,28.53,1007.88,0.0,1009.00,23.3,14.40
48574,SA DAO,สะเดา,สงขลา,6.79806,100.39056,97,09-02-2019,04:00:00,0.00,000,10.00,24.4,29.49,1006.39,0.0,1009.34,23.8,7.50
