WmoStationNumber,StationNameEnglish,StationNameThai,Province,Latitude,Longitude,MeanSeaLevelPressure,Date,Time,AirTemperature,WindSpeed,LandVisibility,Rainfall,DewPoint,WindDirection,StationPressure,RelativeHumidity,VaporPressure,Rainfall24Hr
48300,MAE HONG SON,แม่ฮ่องสอน,แม่ฮ่องสอน,19.29897,97.97578,1004.49,09-01-2019,13:00:00,30.1,0.0,12.00,0.00,23.7,000,974.06,69,29.39,11.00
48302,DOI ANG KANG,ดอยอ่างขาง,เชียงใหม่,19.93139,99.04833,1003.96,09-01-2019,13:00:00,20.0,0.0,.10,1.80,20.0,000,843.77,100,23.36,42.20
48303,CHIANG RAI,เชียงราย,เชียงราย,19.96139,99.88139,1004.67,09-01-2019,13:00:00,30.3,5.6,12.00,0.00,22.9,180,961.80,65,27.85,10.00
48304,CHAING RAI AGROMET.,เชียงราย สกษ.,เชียงราย,19.87083,99.78278,1004.57,09-01-2019,13:00:00,30.5,0.0,15.00,0.00,23.2,000,959.87,65,28.50,43.20
48307,THUNG CHANG,ทุ่งช้าง,น่าน,19.41194,100.88353,1004.16,09-01-2019,13:00:00,29.0,0.0,10.00,0.00,24.1,000,967.03,75,30.01,28.80
48310,PHAYAO,พะเยา,พะเยา,19.13333,99.90000,1003.81,09-01-2019,13:00:00,30.0,9.3,10.00,0.00,23.5,100,959.51,68,28.91,25.90
48315,THA WANGPHA,ท่าวังผา,น่าน,19.11056,100.80250,1006.50,09-01-2019,13:00:00,30.0,5.6,12.00,0.01,24.9,190,980.13,74,31.44,7.90
48324,THOEN,เถิน,ลำปาง,17.63661,99.24475,1005.21,09-01-2019,13:00:00,30.7,0.0,15.00,0.00,24.3,000,983.80,69,30.29,4.40
48325,MAE SARIANG,แม่สะเรียง,แม่ฮ่องสอน,18.16667,97.93333,1005.05,09-01-2019,13:00:00,30.0,0.0,10.00,0.00,24.3,000,981.29,71,30.31,0.80
48327,CHIANG MAI,เชียงใหม่,เชียงใหม่,18.79000,98.97694,1005.72,09-01-2019,13:00:00,30.5,0.0,10.00,0.00,22.1,000,971.75,61,26.60,5.60
48328,LAMPANG,ลำปาง,ลำปาง,18.28333,99.51667,998.52,09-01-2019,13:00:00,30.8,0.0,10.00,0.00,23.9,000,971.62,67,29.65,25.60
48329,LAMPHUN,ลำพูน,ลำพูน,18.56722,99.03389,1005.26,09-01-2019,13:00:00,30.1,5.6,12.00,0.00,23.7,250,972.19,69,29.39,99.00
48330,PHRAE,แพร่,แพร่,18.16667,100.16667,1005.44,09-01-2019,13:00:00,29.2,5.6,8.00,1.00,25.1,210,987.13,79,31.81,55.40
48331,NAN,น่าน,น่าน,18.77972,100.77778,1006.13,09-01-2019,13:00:00,27.8,9.3,10.00,3.00,24.5,250,983.43,82,30.72,28.70
48333,NAN AGROMET.,น่าน สกษ.,น่าน,18.86667,100.75000,1006.44,09-01-2019,13:00:00,26.0,1.9,9.00,1.20,24.6,220,976.55,92,30.84,30.00
48334,LAMPANG AGROMET.,ลำปาง สกษ.,ลำปาง,18.31667,99.28333,1005.63,09-01-2019,13:00:00,28.7,0.0,8.00,0.00,24.8,000,970.47,80,31.38,27.70
48350,LOEI AGROMET.,เลย สกษ.,เลย,17.40000,101.73333,1004.16,09-01-2019,13:00:00,31.0,5.6,17.00,0.00,25.8,280,974.98,74,33.22,0.70
48351,UTTARADIT,อุตรดิตถ์,อุตรดิตถ์,17.61667,100.10000,1006.14,09-01-2019,13:00:00,30.7,9.3,8.00,0.20,26.2,190,998.93,77,34.06,29.10
48352,NONG KHAI,หนองคาย,หนองคาย,17.86717,102.73303,1004.86,09-01-2019,13:00:00,31.7,5.6,20.00,0.00,25.8,190,985.32,71,33.24,0.00
48353,LOEI,เลย,เลย,17.45000,101.73333,1004.48,09-01-2019,13:00:00,30.8,3.7,17.00,0.00,23.9,050,976.29,67,29.65,0.40
48354,UDON THANI,อุดรธานี,อุดรธานี,17.38333,102.80000,1005.35,09-01-2019,13:00:00,31.4,9.3,15.00,0.01,23.0,260,985.52,61,28.04,0.20
48355,SAKON NAKHON AGROMET.,สกลนคร สกษ.,สกลนคร,17.12503,104.06100,1005.32,09-01-2019,13:00:00,31.0,7.4,15.00,0.00,24.6,290,983.93,69,30.90,3.90
48356,SAKON NAKHON,สกลนคร,สกลนคร,17.15000,104.13333,1004.91,09-01-2019,13:00:00,30.7,7.4,15.00,0.00,23.8,260,985.71,67,29.45,0.60
48357,NAKHON PHANOM,นครพนม,นครพนม,17.41083,104.78250,1005.85,09-01-2019,13:00:00,30.5,5.6,12.00,0.00,24.0,220,989.32,68,29.89,24.90
48358,NAKHON PHANOM AGROMET.,นครพนม สกษ.,นครพนม,17.44306,104.77361,1006.09,09-01-2019,13:00:00,30.0,5.6,10.00,0.00,24.3,270,988.88,71,30.31,1.80
48360,NONG BUA LAM PHU,หนองบัวลำภู,หนองบัวลำภู,17.23250,102.42944,1004.75,09-01-2019,13:00:00,30.2,0.0,8.00,0.00,25.2,000,979.31,75,32.13,0.00
48372,SUKHOTHAI*,สุโขทัย,สุโขทัย,17.10611,99.80000,1005.22,09-01-2019,13:00:00,30.7,0.0,10.00,0.00,27.0,000,999.52,81,35.56,5.60
48373,SI SAMRONG AGROMET.,ศรีสำโรง สกษ.,สุโขทัย,17.16136,99.86167,1006.02,09-01-2019,13:00:00,31.3,0.0,12.00,0.00,26.0,000,999.92,73,33.57,5.30
48374,LOM SAK,หล่มสัก,เพชรบูรณ์,16.77361,101.24944,1006.04,09-01-2019,13:00:00,31.0,0.0,10.00,0.00,23.8,000,989.83,66,29.48,2.80
48375,MAE SOT,แม่สอด,ตาก,16.65917,98.55083,1003.68,09-01-2019,13:00:00,30.4,3.7,10.00,0.00,23.6,300,981.69,67,29.14,22.30
48376,TAK,ตาก,ตาก,16.87833,99.14333,1005.99,09-01-2019,13:00:00,31.2,5.6,10.00,0.00,26.0,100,991.82,74,33.65,23.60
48377,BHUMIBOL DAM,เขื่อนภูมิพล,ตาก,17.24389,99.00250,1005.12,09-01-2019,13:00:00,30.0,0.0,7.00,3.00,25.0,000,988.93,75,31.72,12.80
48378,PHITSANULOK,พิษณุโลก,พิษณุโลก,16.79481,100.27930,1005.88,09-01-2019,13:00:00,31.3,5.6,10.00,0.00,24.8,190,1000.73,68,31.23,0.20
48379,PHETCHABUN,เพชรบูรณ์,เพชรบูรณ์,16.43333,101.15000,1004.49,09-01-2019,13:00:00,31.4,0.0,12.00,0.00,25.3,000,991.51,70,32.30,22.10
48380,KAMPHAENG PHET,กำแพงเพชร,กำแพงเพชร,16.48681,99.52697,1005.30,09-01-2019,13:00:00,32.0,3.7,13.00,0.00,24.9,040,996.15,66,31.52,10.30
48381,KHON KAEN,ขอนแก่น,ขอนแก่น,16.46111,102.78972,1004.89,09-01-2019,13:00:00,31.8,3.7,10.00,0.00,24.2,280,983.60,64,30.24,0.10
48382,MAHASARAKHAM,มหาสารคาม,มหาสารคาม,16.24722,103.06805,1005.24,09-01-2019,13:00:00,32.0,0.0,12.00,0.00,24.9,000,988.05,66,31.52,11.20
48383,MUKDAHAN,มุกดาหาร,มุกดาหาร,16.54139,104.72889,1004.50,09-01-2019,13:00:00,30.6,3.7,12.00,0.20,24.1,180,988.90,69,30.09,9.20
48384,THA PHRA AGROMET.,ท่าพระ สกษ.,ขอนแก่น,16.33333,102.81667,1004.29,09-01-2019,13:00:00,31.6,3.7,10.00,0.00,24.3,180,985.74,65,30.41,0.40
48385,UMPHANG,อุ้มผาง,ตาก,16.02472,98.86444,1006.32,09-01-2019,13:00:00,29.8,0.0,11.00,0.00,21.5,000,955.81,61,25.58,7.20
48386,PICHIT AGROMET.,พิจิตร สกษ.,พิจิตร,16.43806,100.29250,1005.73,09-01-2019,13:00:00,31.0,9.3,10.00,0.00,25.4,130,1001.83,72,32.34,4.20
48387,DOI MU SOE AGROMET.,ดอยมูเซอร์ สกษ.,ตาก,16.75000,98.93333,1004.26,09-01-2019,13:00:00,26.5,9.3,8.00,0.00,22.0,190,910.92,77,26.47,22.50
48390,KALASIN,กาฬสินธุ์,กาฬสินธุ์,16.33250,103.58833,1005.49,09-01-2019,13:00:00,31.3,5.6,10.00,0.00,25.1,260,989.75,70,31.80,5.60
48400,NAKHON SAWAN,นครสวรรค์ ,นครสวรรค์,15.67183,100.13236,1006.02,09-01-2019,13:00:00,32.0,13.0,12.00,0.00,25.5,180,1002.06,69,32.69,0.01
48401,TAKFA AGROMET.,ตากฟ้า สกษ.,นครสวรรค์,15.34944,100.53028,1006.48,09-01-2019,13:00:00,31.5,3.7,9.00,0.50,24.8,140,995.97,68,31.35,2.30
48402,CHAINAT AGROMET.,ชัยนาท สกษ.,ชัยนาท,15.15000,100.18333,1006.40,09-01-2019,13:00:00,31.5,5.6,11.00,0.00,24.0,150,1004.50,65,29.92,1.60
48403,CHAIYAPHUM,ชัยภูมิ,ชัยภูมิ,15.80000,102.03333,1005.01,09-01-2019,13:00:00,32.0,7.4,12.00,0.00,23.8,260,984.54,62,29.51,1.10
48404,ROI ET AGROMET.,ร้อยเอ็ด สกษ.,ร้อยเอ็ด,16.07322,103.60844,1005.09,09-01-2019,13:00:00,31.2,13.0,11.00,0.00,24.5,220,987.70,68,30.73,7.50
48405,ROI ET,ร้อยเอ็ด,ร้อยเอ็ด,16.02000,103.74389,1005.17,09-01-2019,13:00:00,31.2,9.3,10.00,0.00,24.2,220,989.26,66,30.16,4.30
48407,UBON RATCHATHANI,อุบลราชธานี (ศูนย์ฯ),อุบลราชธานี,15.25000,104.86667,1005.93,09-01-2019,13:00:00,31.4,9.3,10.00,0.00,24.1,240,992.11,65,30.00,10.10
48408,UBON RATCHATHANI AGROMET.,อุบลราชธานี สกษ.,อุบลราชธานี,15.23914,105.02350,1006.31,09-01-2019,13:00:00,31.2,0.0,9.00,0.00,25.0,000,991.70,70,31.60,7.00
48409,SI SAKET AGROMET.,ศรีสะเกษ,ศรีสะเกษ,15.00000,104.05000,1006.20,09-01-2019,13:00:00,31.8,7.4,10.00,0.00,25.0,220,991.77,67,31.68,8.10
48410,UTHAITHANI,อุทัยธานี,อุทัยธานี,15.37417,100.03889,1005.71,09-01-2019,13:00:00,31.9,0.0,10.00,0.00,25.6,"{'0': '   ', '@attributes': {'Unit': 'degree'}}",1002.74,69,32.77,0.20
48413,WICHIAN BURI,วิเชียรบุรี,เพชรบูรณ์,15.65700,101.10800,1005.81,09-01-2019,13:00:00,31.7,0.0,10.00,0.00,25.7,000,998.00,70,32.94,3.40
48415,AYUTTHAYA,พระนครศรีอยุธยา,พระนครศรีอยุธยา,14.53472,100.72500,1006.33,09-01-2019,13:00:00,32.8,14.8,9.00,0.00,24.9,200,1005.24,63,31.44,0.00
48416,THA TUM,ท่าตูม,สุรินทร์,15.31667,103.68333,1006.46,09-01-2019,13:00:00,32.2,3.7,8.00,0.00,25.1,210,992.03,66,31.94,0.00
48417,NAKORNNAYOK,นครนายก,นครนายก,14.36222,101.39278,1007.77,09-01-2019,13:00:00,20.4,5.6,.05,0.40,20.2,190,873.06,99,23.72,45.00
48418,BUA CHUM,บัวชุม  ,ลพบุรี,15.26667,101.18736,1006.03,09-01-2019,13:00:00,32.0,7.4,10.00,0.00,26.0,170,1000.25,71,33.58,0.00
48419,PATHUMTHANI,ปทุมธานี สกษ.,ปทุมธานี,14.10000,100.61667,1006.86,09-01-2019,13:00:00,33.0,18.5,10.00,0.00,25.6,230,1006.07,65,32.76,0.00
48420,Samut Prakarn,สมุทรปราการ สกษ.,สมุทรปราการ,13.51667,100.76167,1006.59,09-01-2019,13:00:00,30.5,18.5,10.00,0.00,25.3,230,1006.15,74,32.17,1.00
48421,THONG PHAPHUM,ทองผาภูมิ,กาญจนบุรี,14.74222,98.63639,1006.86,09-01-2019,13:00:00,28.6,0.0,7.00,3.20,25.9,000,995.62,85,33.45,23.90
48425,SUPHAN BURI,สุพรรณบุรี,สุพรรณบุรี,14.47444,100.13889,1006.61,09-01-2019,13:00:00,33.0,5.6,12.00,0.00,24.6,150,1005.62,62,30.99,0.00
48426,LOP BURI,ลพบุรี,ลพบุรี,14.79972,100.64500,1006.41,09-01-2019,13:00:00,33.0,5.6,9.00,0.00,24.0,180,1004.62,59,29.83,0.00
48427,U THONG AGROMET.,อู่ทอง สกษ.,สุพรรณบุรี,14.30361,99.86472,1005.71,09-01-2019,13:00:00,33.3,0.0,9.00,0.00,23.5,000,1004.96,57,29.01,0.00
48429,SUVARNABHUMI AIRPORT,สนามบินสุวรรณภูมิ,สมุทรปราการ,13.68639,100.76750,1007.04,09-01-2019,13:00:00,31.2,14.8,10.00,0.00,24.3,230,1006.35,67,30.45,1.60
48430,PRACHIN BURI,ปราจีนบุรี,ปราจีนบุรี,14.05842,101.36930,1006.61,09-01-2019,13:00:00,32.0,0.0,7.00,0.00,25.1,000,1005.92,67,31.81,3.70
48431,NAKHON RATCHASIMA,นครราชสีมา,นครราชสีมา,14.96830,102.08603,1006.03,09-01-2019,13:00:00,31.1,9.3,10.00,0.01,25.3,230,985.18,71,32.26,0.10
48432,SURIN,สุรินทร์,สุรินทร์,14.88333,103.50000,1005.90,09-01-2019,13:00:00,32.2,9.3,11.00,0.00,24.4,230,989.49,63,30.48,25.30
48433,SURIN AGROMET.,สุรินทร์ สกษ.,สุรินทร์,14.88333,103.45000,1006.47,09-01-2019,13:00:00,32.0,7.4,10.00,0.00,24.1,270,990.32,63,30.08,11.40
48434,CHOK CHAI,โชคชัย,นครราชสีมา,14.71889,102.16861,1005.85,09-01-2019,13:00:00,32.5,3.7,10.00,0.00,24.4,270,984.41,62,30.53,1.40
48435,PAKCHONG AGROMET.,ปากช่อง สกษ.,นครราชสีมา,14.64389,101.33194,1006.09,09-01-2019,13:00:00,30.5,29.6,15.00,0.00,23.2,260,963.38,65,28.50,0.00
48436,NANG RONG,นางรอง,บุรีรัมย์,14.58333,102.80000,1005.73,09-01-2019,13:00:00,32.5,13.0,10.00,0.00,23.9,230,985.56,61,29.66,2.00
48437,BURIRUM,บุรีรัมย์,บุรีรัมย์,15.22575,103.24808,1007.79,09-01-2019,13:00:00,31.0,14.8,9.00,0.00,25.8,210,987.23,74,33.22,2.20
48438,SAMUTSONGKRAM,สมุทรสงคราม,สมุทรสงคราม,13.40778,100.03222,1006.85,09-01-2019,13:00:00,30.8,14.8,10.00,0.00,24.4,210,1006.42,69,30.49,0.20
48439,KABIN BURI,กบินทร์บุรี,ปราจีนบุรี,13.98333,101.70722,1006.57,09-01-2019,13:00:00,30.6,0.0,10.00,0.01,25.5,000,1005.17,74,32.67,3.30
48440,SA KAEW,สระแก้ว,สระแก้ว,13.78889,102.03472,1006.74,09-01-2019,13:00:00,31.0,0.0,10.00,0.00,26.1,000,1001.87,75,33.81,0.01
48450,KANCHANA BURI,กาญจนบุรี,กาญจนบุรี,14.02250,99.53583,1006.79,09-01-2019,13:00:00,29.1,9.3,12.00,0.01,25.3,210,1003.52,80,32.18,0.01
48451,NAKHONPATHOM,นครปฐม,นครปฐม,14.01167,99.97000,1006.46,09-01-2019,13:00:00,32.9,11.1,11.00,0.00,24.8,200,1005.38,63,31.36,0.20
48453,BANG NA AGROMET.,กรุงเทพฯ บางนา สกษ.,กรุงเทพมหานคร,13.66639,100.60611,1006.52,09-01-2019,13:00:00,31.7,11.1,10.00,0.00,24.9,210,1006.22,67,31.47,0.01
48454,BANGKOK PORT (KLONG TOEI),กรุงเทพฯ ท่าเรือคลองเตย,กรุงเทพมหานคร,13.70694,100.56805,1006.72,09-01-2019,13:00:00,31.5,7.4,10.00,0.00,25.1,230,1006.05,69,31.93,0.00
48455,BANGKOK METROPOLIS,กรุงเทพมหานคร,กรุงเทพมหานคร,13.72639,100.56000,1006.21,09-01-2019,13:00:00,31.8,5.6,10.00,0.00,24.2,120,1005.72,64,30.24,0.00
48456,DON MUANG AIRPORT,สนามบินดอนเมือง,กรุงเทพมหานคร,13.91917,100.60500,1006.45,09-01-2019,13:00:00,31.7,13.0,10.00,0.00,24.1,240,1005.07,64,30.04,0.20
48457,PILOT STATION,นำร่อง,สมุทรปราการ,13.39389,100.59944,1007.16,09-01-2019,13:00:00,28.9,24.1,10.00,0.00,27.6,210,1005.49,93,37.04,0.40
48458,CHACHOENGSAO,ฉะเชิงเทรา,ฉะเชิงเทรา,13.51556,101.45833,1009.13,09-01-2019,13:00:00,32.0,0.0,10.00,0.00,24.3,000,1001.24,64,30.36,2.40
48459,CHON BURI,ชลบุรี,ชลบุรี,13.36667,100.98333,1006.59,09-01-2019,13:00:00,32.0,0.0,10.00,0.00,24.1,000,1006.31,63,30.08,5.10
48460,KO SICHANG,เกาะสีชัง,ชลบุรี,13.16167,100.80194,1006.96,09-01-2019,13:00:00,30.6,9.3,10.00,0.00,25.1,270,1003.87,72,31.80,0.00
48461,PHATTHAYA,พัทยา,ชลบุรี,12.92000,100.86944,1007.21,09-01-2019,13:00:00,30.0,13.0,12.00,0.00,24.9,240,1000.34,74,31.44,2.00
48462,ARANYA PRATHET,อรัญประเทศ,สระแก้ว,13.70000,102.58333,1007.06,09-01-2019,13:00:00,32.6,5.6,10.00,0.00,24.7,280,1001.56,63,31.02,1.20
48463,LAEM CHABANG,แหลมฉบัง,ชลบุรี,13.07694,100.87583,1007.99,09-01-2019,13:00:00,30.8,18.5,10.00,0.00,25.4,230,998.78,73,32.51,0.01
48464,RATCHA BURI,ราชบุรี,ราชบุรี,13.48931,99.79239,1007.53,09-01-2019,13:00:00,32.5,3.7,14.00,0.00,25.2,230,1006.29,65,31.98,1.90
48465,PHETCHA BURI,เพชรบุรี,เพชรบุรี,12.99944,100.06056,1007.19,09-01-2019,13:00:00,31.4,0.0,11.00,0.00,27.3,000,1006.76,79,36.20,4.60
48474,NONG PHLUB AGROMET.,หนองพลับ สกษ.,ประจวบคีรีขันธ์,12.58333,99.73333,1007.31,09-01-2019,13:00:00,30.8,7.4,10.00,0.00,24.5,230,995.20,69,30.78,2.40
48475,HUA HIN,หัวหิน,ประจวบคีรีขันธ์,12.58611,99.96250,1007.25,09-01-2019,13:00:00,29.6,9.3,10.00,0.00,24.7,250,1006.54,75,31.20,6.80
48477,SATTAHIP,สัตหีบ,ชลบุรี,12.68333,100.98333,1007.54,09-01-2019,13:00:00,31.5,11.1,10.00,0.01,24.2,240,1005.14,65,30.20,9.20
48478,RAYONG,ระยอง,ระยอง,12.63222,101.34361,1008.09,09-01-2019,13:00:00,30.5,14.8,12.00,0.00,24.8,260,1007.58,72,31.31,0.50
48479,HUAI PONG AGROMET.,ห้วยโป่ง สกษ.,ระยอง,12.73333,101.13333,1007.00,09-01-2019,13:00:00,30.3,7.4,12.00,2.30,24.3,220,1001.90,70,30.34,8.40
48480,CHANTHA BURI,จันทบุรี,จันทบุรี,12.61667,102.11333,1007.97,09-01-2019,13:00:00,30.1,7.4,8.00,3.30,27.5,220,1007.56,86,36.66,33.40
48481,PHLIU  AGROMET.,พลิ้ว สกษ.,จันทบุรี,12.50861,102.17305,1008.22,09-01-2019,13:00:00,27.5,7.4,8.00,11.20,26.8,040,1005.45,96,35.23,14.20
48500,PRACHUAP KHIRIKHAN,ประจวบคีรีขันธ์,ประจวบคีรีขันธ์,11.83333,99.83333,1008.28,09-01-2019,13:00:00,27.6,0.0,8.00,1.00,26.8,000,1007.50,95,35.14,2.00
48501,TRAD,ตราด,ตราด,11.76667,102.88333,1008.73,09-01-2019,13:00:00,28.0,13.0,3.00,7.50,25.7,230,1008.27,88,33.08,25.80
48517,CHUMPHON,ชุมพร,ชุมพร,10.49875,99.18847,1009.95,09-01-2019,13:00:00,25.4,13.0,7.00,4.80,22.7,280,1009.26,85,27.63,9.60
48520,SAWI AGROMET.,สวี สกษ.,ชุมพร,10.33333,99.10000,1010.03,09-01-2019,13:00:00,25.8,18.5,8.00,11.40,23.2,270,1008.49,85,28.34,12.20
48532,RANONG,ระนอง,ระนอง,9.98333,98.61667,1009.59,09-01-2019,13:00:00,24.0,3.7,7.00,65.20,23.3,070,1008.66,96,28.53,74.00
48550,KO SAMUI,เกาะสมุย,สุราษฎร์ธานี,9.46667,100.05000,1009.50,09-01-2019,13:00:00,30.3,0.0,12.00,0.00,23.0,000,1008.81,65,28.12,0.90
48551,SURAT THANI,สุราษฎร์ธานี,สุราษฎร์ธานี,9.13556,99.15194,1010.33,09-01-2019,13:00:00,27.8,7.4,8.00,0.20,24.5,240,1009.54,82,30.72,4.60
48552,NAKHONSI THAMMARAT,นครศรีธรรมราช,นครศรีธรรมราช,8.53778,99.96389,1009.57,09-01-2019,13:00:00,29.0,5.6,10.00,0.00,23.2,300,1008.94,71,28.37,9.90
48554,NAKHONSI THAMMARAT AGROMET.,นครศรีธรรมราช สกษ.,นครศรีธรรมราช,8.35931,100.00000,1009.99,09-01-2019,13:00:00,29.8,18.5,10.00,0.00,23.6,260,1009.59,69,29.08,9.30
48555,SURAT THANI AGROMET.,สุราษฎร์ธานี สกษ.,สุราษฎร์ธานี,9.10000,99.63333,1012.32,09-01-2019,13:00:00,26.7,5.6,5.00,0.20,23.0,230,1008.09,80,28.13,5.80
48556,PHRA SANG,พระแสง สอท.,สุราษฎร์ธานี,8.57022,99.25825,1010.44,09-01-2019,13:00:00,29.0,0.0,8.00,4.80,23.2,000,1008.84,71,28.37,19.00
48557,CHAWANG,ฉวาง,นครศรีธรรมราช,8.43194,99.51194,1010.30,09-01-2019,13:00:00,27.0,0.0,7.00,2.60,24.4,000,1006.81,86,30.56,15.90
48560,PHATTHALUNG AGROMET.,พัทลุง สกษ.,พัทลุง,7.58333,100.16667,1010.53,09-01-2019,13:00:00,27.0,27.8,10.00,0.00,22.3,280,1009.17,75,26.84,2.10
48561,TAKUA PA,ตะกั่วป่า,พังงา,8.68417,98.25222,1010.36,09-01-2019,13:00:00,29.0,0.0,10.00,7.50,24.7,000,1009.48,78,31.13,70.80
48563,KRABI,กระบี่,กระบี่,8.10361,98.97528,1010.36,09-01-2019,13:00:00,27.7,5.6,10.00,0.60,23.3,260,1006.80,77,28.63,29.80
48564,PHUKET,ภูเก็ต,ภูเก็ต,7.88333,98.40000,1009.71,09-01-2019,13:00:00,27.8,0.0,10.00,1.00,24.2,000,1009.28,81,30.17,70.20
48565,PHUKET AIRPORT,ภูเก็ต (ศูนย์ฯ),ภูเก็ต,8.14500,98.31444,1009.70,09-01-2019,13:00:00,28.7,5.6,8.00,4.40,23.3,290,1008.71,73,28.62,78.00
48566,KO LANTA,เกาะลันตา,กระบี่,7.53333,99.05000,1010.34,09-01-2019,13:00:00,27.7,11.1,10.00,1.40,24.8,300,1009.52,84,31.36,47.80
48567,TRANG AIRPORT,ตรัง,ตรัง,7.51667,99.61667,1011.09,09-01-2019,13:00:00,26.2,5.6,10.00,3.00,23.7,320,1009.27,86,29.33,28.00
48568,SONGKHLA,สงขลา,สงขลา,7.18211,100.60769,1009.81,09-01-2019,13:00:00,31.1,16.7,11.00,0.00,22.5,250,1009.06,60,27.19,0.01
48569,HAT YAI AIRPORT,หาดใหญ่,สงขลา,6.91667,100.43333,1010.59,09-01-2019,13:00:00,26.3,14.8,10.00,0.20,23.7,240,1006.57,86,29.25,0.20
48570,SATUN,สตูล,สตูล,6.65000,100.08333,1012.34,09-01-2019,13:00:00,25.0,0.0,6.00,32.50,24.3,000,1011.65,96,30.32,69.50
48571,KHO HONG AGROMET.,คอหงษ์ สกษ.,สงขลา,7.00000,100.50000,1010.23,09-01-2019,13:00:00,29.2,9.3,10.00,0.00,23.4,240,1009.12,71,28.75,0.00
48574,SA DAO,สะเดา,สงขลา,6.79806,100.39056,1011.03,09-01-2019,13:00:00,26.8,13.0,10.00,0.30,25.4,300,1008.10,92,32.38,0.30
48580,PATTANI AIRPORT,ปัตตานี,ปัตตานี,6.78333,101.15000,1008.70,09-01-2019,13:00:00,32.7,9.3,8.00,0.00,24.8,310,1008.02,63,31.23,0.00
48581,YALA AGROMET.,ยะลา สกษ.,ยะลา,6.51667,101.28333,1009.15,09-01-2019,13:00:00,32.2,18.5,8.00,0.00,21.9,230,1005.09,55,26.28,0.01
48583,NARATHIWAT,นราธิวาส,นราธิวาส,6.41667,101.81667,1008.47,09-01-2019,13:00:00,32.0,0.0,10.00,0.00,24.9,000,1007.89,66,31.52,11.40
