WmoStationNumber,StationNameEnglish,StationNameThai,Province,Latitude,Longitude,Rainfall,Date,Time,MeanSeaLevelPressure,WindDirection,StationPressure,DewPoint,LandVisibility,RelativeHumidity,Rainfall24Hr,VaporPressure,AirTemperature,WindSpeed
48300,MAE HONG SON,แม่ฮ่องสอน,แม่ฮ่องสอน,19.29897,97.97578,18.20,09-02-2019,22:00:00,1008.24,000,977.09,23.2,8.00,95,22.50,28.44,24.1,0.0
48302,DOI ANG KANG,ดอยอ่างขาง,เชียงใหม่,19.93139,99.04833,0.00,09-02-2019,22:00:00,1006.77,120,845.39,17.7,1.00,95,77.70,20.21,18.5,3.7
48303,CHIANG RAI,เชียงราย,เชียงราย,19.96139,99.88139,0.00,09-02-2019,22:00:00,1006.52,000,963.02,24.4,10.00,89,7.60,30.59,26.3,0.0
48304,CHAING RAI AGROMET.,เชียงราย สกษ.,เชียงราย,19.87083,99.78278,0.00,09-02-2019,22:00:00,1006.48,000,960.99,24.1,12.00,91,6.00,30.01,25.7,0.0
48307,THUNG CHANG,ทุ่งช้าง,น่าน,19.41194,100.88353,0.00,09-02-2019,22:00:00,1007.49,000,969.75,24.0,5.00,94,91.30,29.79,25.0,0.0
48310,PHAYAO,พะเยา,พะเยา,19.13333,99.90000,0.00,09-02-2019,22:00:00,1007.16,000,962.06,24.9,8.00,97,13.90,31.52,25.5,0.0
48315,THA WANGPHA,ท่าวังผา,น่าน,19.11056,100.80250,0.00,09-02-2019,22:00:00,1007.12,000,980.43,25.1,8.00,92,10.40,31.79,26.5,0.0
48324,THOEN,เถิน,ลำปาง,17.63661,99.24475,2.80,09-02-2019,22:00:00,1007.70,000,985.85,24.6,10.00,97,12.50,30.96,25.2,0.0
48325,MAE SARIANG,แม่สะเรียง,แม่ฮ่องสอน,18.16667,97.93333,0.90,09-02-2019,22:00:00,1008.53,000,984.27,24.3,6.00,97,1.40,30.30,24.7,0.0
48327,CHIANG MAI,เชียงใหม่,เชียงใหม่,18.79000,98.97694,4.80,09-02-2019,22:00:00,1008.24,000,973.46,23.1,5.00,95,34.20,28.27,24.0,0.0
48328,LAMPANG,ลำปาง,ลำปาง,18.28333,99.51667,3.30,09-02-2019,22:00:00,1008.25,000,980.54,24.3,10.00,97,55.00,30.30,24.7,0.0
48329,LAMPHUN,ลำพูน,ลำพูน,18.56722,99.03389,4.00,09-02-2019,22:00:00,1008.11,000,974.34,23.8,10.00,96,20.60,29.41,24.5,0.0
48330,PHRAE,แพร่,แพร่,18.16667,100.16667,22.60,09-02-2019,22:00:00,1007.69,210,989.02,23.7,3.00,97,39.20,29.22,24.1,7.4
48331,NAN,น่าน,น่าน,18.77972,100.77778,0.00,09-02-2019,22:00:00,1007.03,000,984.21,24.8,10.00,91,9.40,31.33,26.4,0.0
48333,NAN AGROMET.,น่าน สกษ.,น่าน,18.86667,100.75000,0.00,09-02-2019,22:00:00,1007.07,000,977.11,23.4,7.00,88,18.50,28.85,25.5,0.0
48334,LAMPANG AGROMET.,ลำปาง สกษ.,ลำปาง,18.31667,99.28333,4.20,09-02-2019,22:00:00,1007.93,000,972.19,23.8,6.00,97,18.40,29.49,24.4,0.0
48350,LOEI AGROMET.,เลย สกษ.,เลย,17.40000,101.73333,0.00,09-02-2019,22:00:00,1006.01,000,976.12,24.0,10.00,99,18.80,29.92,24.2,0.0
48351,UTTARADIT,อุตรดิตถ์,อุตรดิตถ์,17.61667,100.10000,12.40,09-02-2019,22:00:00,1007.56,000,1000.19,23.8,6.00,96,33.60,29.41,24.5,0.0
48352,NONG KHAI,หนองคาย,หนองคาย,17.86717,102.73303,0.00,09-02-2019,22:00:00,1005.43,250,985.54,25.4,12.00,93,0.60,32.35,26.5,5.6
48353,LOEI,เลย,เลย,17.45000,101.73333,2.10,09-02-2019,22:00:00,1005.89,000,977.07,23.8,12.00,96,29.50,29.41,24.5,0.0
48354,UDON THANI,อุดรธานี,อุดรธานี,17.38333,102.80000,0.00,09-02-2019,22:00:00,1005.75,250,985.50,23.9,15.00,92,61.30,29.62,25.2,3.7
48355,SAKON NAKHON AGROMET.,สกลนคร สกษ.,สกลนคร,17.12503,104.06100,0.00,09-02-2019,22:00:00,1004.95,270,983.15,23.3,10.00,89,52.60,28.57,25.2,7.4
48356,SAKON NAKHON,สกลนคร,สกลนคร,17.15000,104.13333,0.00,09-02-2019,22:00:00,1004.15,260,984.61,23.6,10.00,92,28.50,29.18,25.1,3.7
48357,NAKHON PHANOM,นครพนม,นครพนม,17.41083,104.78250,2.50,09-02-2019,22:00:00,1004.44,000,987.69,24.7,8.00,93,12.00,31.11,26.0,0.0
48358,NAKHON PHANOM AGROMET.,นครพนม สกษ.,นครพนม,17.44306,104.77361,3.50,09-02-2019,22:00:00,1004.83,000,987.35,24.3,5.00,96,21.50,30.32,25.0,0.0
48360,NONG BUA LAM PHU,หนองบัวลำภู,หนองบัวลำภู,17.23250,102.42944,0.00,09-02-2019,22:00:00,1005.41,000,979.51,24.4,10.00,97,21.20,30.48,24.8,0.0
48372,SUKHOTHAI*,สุโขทัย,สุโขทัย,17.10611,99.80000,2.00,09-02-2019,22:00:00,1007.46,070,1001.65,26.0,8.00,100,3.90,33.60,26.0,7.4
48373,SI SAMRONG AGROMET.,ศรีสำโรง สกษ.,สุโขทัย,17.16136,99.86167,3.00,09-02-2019,22:00:00,1007.56,000,1001.33,24.8,7.00,96,5.60,31.25,25.5,0.0
48374,LOM SAK,หล่มสัก,เพชรบูรณ์,16.77361,101.24944,3.50,09-02-2019,22:00:00,1007.74,000,991.20,24.3,8.00,95,15.60,30.42,25.2,0.0
48375,MAE SOT,แม่สอด,ตาก,16.65917,98.55083,6.60,09-02-2019,22:00:00,1007.44,000,984.93,23.8,6.00,96,22.60,29.41,24.5,0.0
48376,TAK,ตาก,ตาก,16.87833,99.14333,0.00,09-02-2019,22:00:00,1008.44,280,994.04,23.1,7.00,79,1.70,28.33,27.1,5.6
48377,BHUMIBOL DAM,เขื่อนภูมิพล,ตาก,17.24389,99.00250,1.50,09-02-2019,22:00:00,1008.42,000,991.88,23.8,7.00,96,2.00,29.41,24.5,0.0
48378,PHITSANULOK,พิษณุโลก,พิษณุโลก,16.79481,100.27930,1.40,09-02-2019,22:00:00,1007.93,000,1002.68,24.6,7.00,92,2.70,30.84,26.0,0.0
48379,PHETCHABUN,เพชรบูรณ์,เพชรบูรณ์,16.43333,101.15000,2.70,09-02-2019,22:00:00,1006.48,000,993.22,24.4,10.00,95,10.80,30.60,25.3,0.0
48380,KAMPHAENG PHET,กำแพงเพชร,กำแพงเพชร,16.48681,99.52697,0.00,09-02-2019,22:00:00,1007.72,000,998.41,24.7,11.00,84,0.10,31.08,27.7,0.0
48381,KHON KAEN,ขอนแก่น,ขอนแก่น,16.46111,102.78972,0.00,09-02-2019,22:00:00,1006.11,240,984.28,24.4,8.00,99,169.20,30.65,24.6,5.6
48382,MAHASARAKHAM,มหาสารคาม,มหาสารคาม,16.24722,103.06805,0.00,09-02-2019,22:00:00,1005.69,200,988.16,23.1,7.00,84,67.00,28.18,26.0,5.6
48383,MUKDAHAN,มุกดาหาร,มุกดาหาร,16.54139,104.72889,0.40,09-02-2019,22:00:00,1003.69,230,987.81,24.3,7.00,96,21.80,30.32,25.0,9.3
48384,THA PHRA AGROMET.,ท่าพระ สกษ.,ขอนแก่น,16.33333,102.81667,0.00,09-02-2019,22:00:00,1005.14,000,986.17,24.7,8.00,98,88.40,31.12,25.0,0.0
48385,UMPHANG,อุ้มผาง,ตาก,16.02472,98.86444,5.30,09-02-2019,22:00:00,1008.22,000,956.52,22.1,6.00,94,12.20,26.66,23.2,0.0
48386,PICHIT AGROMET.,พิจิตร สกษ.,พิจิตร,16.43806,100.29250,4.90,09-02-2019,22:00:00,1007.86,090,1003.87,24.8,3.00,96,23.10,31.25,25.5,7.4
48387,DOI MU SOE AGROMET.,ดอยมูเซอร์ สกษ.,ตาก,16.75000,98.93333,1.00,09-02-2019,22:00:00,1008.79,250,913.23,20.0,.10,97,7.60,23.41,20.5,13.0
48390,KALASIN,กาฬสินธุ์,กาฬสินธุ์,16.33250,103.58833,0.00,09-02-2019,22:00:00,1005.73,000,989.66,24.6,6.00,97,54.10,30.85,25.0,0.0
48400,NAKHON SAWAN,นครสวรรค์ ,นครสวรรค์,15.67183,100.13236,4.20,09-02-2019,22:00:00,1007.88,000,1003.83,25.4,6.00,95,6.10,32.51,26.3,0.0
48401,TAKFA AGROMET.,ตากฟ้า สกษ.,นครสวรรค์,15.34944,100.53028,10.10,09-02-2019,22:00:00,1009.37,000,998.61,24.4,7.00,96,15.00,30.50,25.1,0.0
48402,CHAINAT AGROMET.,ชัยนาท สกษ.,ชัยนาท,15.15000,100.18333,5.20,09-02-2019,22:00:00,1008.96,000,1007.02,24.5,6.00,89,6.10,30.78,26.4,0.0
48403,CHAIYAPHUM,ชัยภูมิ,ชัยภูมิ,15.80000,102.03333,0.20,09-02-2019,22:00:00,1007.14,220,986.08,23.4,10.00,96,14.60,28.70,24.1,11.1
48404,ROI ET AGROMET.,ร้อยเอ็ด สกษ.,ร้อยเอ็ด,16.07322,103.60844,0.00,09-02-2019,22:00:00,1005.44,270,987.69,24.1,10.00,95,119.50,30.05,25.0,11.1
48405,ROI ET,ร้อยเอ็ด,ร้อยเอ็ด,16.02000,103.74389,0.00,09-02-2019,22:00:00,1005.15,230,988.91,24.4,10.00,97,159.00,30.58,25.0,7.4
48407,UBON RATCHATHANI,อุบลราชธานี (ศูนย์ฯ),อุบลราชธานี,15.25000,104.86667,0.20,09-02-2019,22:00:00,1004.84,270,990.73,23.9,10.00,95,110.30,29.69,24.8,11.1
48408,UBON RATCHATHANI AGROMET.,อุบลราชธานี สกษ.,อุบลราชธานี,15.23914,105.02350,0.80,09-02-2019,22:00:00,1005.61,000,990.68,23.9,8.00,97,114.00,29.67,24.5,0.0
48409,SI SAKET AGROMET.,ศรีสะเกษ,ศรีสะเกษ,15.00000,104.05000,0.00,09-02-2019,22:00:00,1005.68,270,990.93,24.1,6.00,95,35.90,30.05,25.0,9.3
48410,UTHAITHANI,อุทัยธานี,อุทัยธานี,15.37417,100.03889,1.50,09-02-2019,22:00:00,1007.52,"{'0': '   ', '@attributes': {'Unit': 'degree'}}",1004.51,25.3,7.00,89,1.80,32.25,27.3,0.0
48413,WICHIAN BURI,วิเชียรบุรี,เพชรบูรณ์,15.65700,101.10800,18.30,09-02-2019,22:00:00,1008.29,000,1000.27,23.7,7.00,94,32.70,29.25,24.7,0.0
48415,AYUTTHAYA,พระนครศรีอยุธยา,พระนครศรีอยุธยา,14.53472,100.72500,3.60,09-02-2019,22:00:00,1008.51,000,1007.40,24.5,5.00,90,3.60,30.67,26.2,0.0
48416,THA TUM,ท่าตูม,สุรินทร์,15.31667,103.68333,0.00,09-02-2019,22:00:00,1007.68,000,992.87,22.5,8.00,88,57.30,27.27,24.6,0.0
48417,NAKORNNAYOK,นครนายก,นครนายก,14.36222,101.39278,12.20,09-02-2019,22:00:00,1009.43,280,873.87,18.7,.10,99,18.40,21.60,18.9,14.8
48418,BUA CHUM,บัวชุม  ,ลพบุรี,15.26667,101.18736,35.80,09-02-2019,22:00:00,1008.63,000,1002.70,24.3,5.00,96,40.20,30.32,25.0,0.0
48419,PATHUMTHANI,ปทุมธานี สกษ.,ปทุมธานี,14.10000,100.61667,1.00,09-02-2019,22:00:00,1009.61,240,1008.81,25.1,7.00,85,1.00,31.95,28.0,5.6
48420,Samut Prakarn,สมุทรปราการ สกษ.,สมุทรปราการ,13.51667,100.76167,0.00,09-02-2019,22:00:00,1008.03,230,1007.59,23.9,10.00,77,0.00,29.68,28.4,14.8
48421,THONG PHAPHUM,ทองผาภูมิ,กาญจนบุรี,14.74222,98.63639,2.80,09-02-2019,22:00:00,1009.22,000,997.80,24.0,3.00,97,20.70,29.85,24.6,0.0
48425,SUPHAN BURI,สุพรรณบุรี,สุพรรณบุรี,14.47444,100.13889,0.80,09-02-2019,22:00:00,1009.06,000,1008.05,25.0,7.00,87,0.80,31.69,27.3,0.0
48426,LOP BURI,ลพบุรี,ลพบุรี,14.79972,100.64500,4.60,09-02-2019,22:00:00,1008.79,180,1006.95,24.6,5.00,92,4.60,30.84,26.0,5.6
48427,U THONG AGROMET.,อู่ทอง สกษ.,สุพรรณบุรี,14.30361,99.86472,0.01,09-02-2019,22:00:00,1008.62,000,1007.85,23.4,7.00,83,0.01,28.82,26.5,0.0
48429,SUVARNABHUMI AIRPORT,สนามบินสุวรรณภูมิ,สมุทรปราการ,13.68639,100.76750,0.01,09-02-2019,22:00:00,1008.97,210,1008.26,24.3,10.00,82,0.20,30.34,27.6,5.6
48430,PRACHIN BURI,ปราจีนบุรี,ปราจีนบุรี,14.05842,101.36930,2.70,09-02-2019,22:00:00,1008.25,240,1007.55,24.8,7.00,90,3.60,31.35,26.7,3.7
48431,NAKHON RATCHASIMA,นครราชสีมา,นครราชสีมา,14.96830,102.08603,23.50,09-02-2019,22:00:00,1008.00,310,986.64,23.7,5.00,97,34.50,29.31,24.3,7.4
48432,SURIN,สุรินทร์,สุรินทร์,14.88333,103.50000,0.10,09-02-2019,22:00:00,1006.95,240,990.09,23.9,6.00,97,27.50,29.57,24.3,9.3
48433,SURIN AGROMET.,สุรินทร์ สกษ.,สุรินทร์,14.88333,103.45000,0.10,09-02-2019,22:00:00,1007.33,270,990.77,24.0,4.00,96,20.90,29.77,24.7,7.4
48434,CHOK CHAI,โชคชัย,นครราชสีมา,14.71889,102.16861,9.80,09-02-2019,22:00:00,1007.97,000,985.93,23.9,4.00,95,22.70,29.69,24.8,0.0
48435,PAKCHONG AGROMET.,ปากช่อง สกษ.,นครราชสีมา,14.64389,101.33194,7.70,09-02-2019,22:00:00,1008.29,250,964.50,22.1,4.00,92,9.80,26.66,23.5,14.8
48436,NANG RONG,นางรอง,บุรีรัมย์,14.58333,102.80000,1.60,09-02-2019,22:00:00,1007.62,270,986.89,23.9,8.00,96,17.40,29.59,24.6,7.4
48437,BURIRUM,บุรีรัมย์,บุรีรัมย์,15.22575,103.24808,0.20,09-02-2019,22:00:00,1007.85,240,986.81,24.0,8.00,100,24.00,29.82,24.0,16.7
48438,SAMUTSONGKRAM,สมุทรสงคราม,สมุทรสงคราม,13.40778,100.03222,0.00,09-02-2019,22:00:00,1008.80,230,1008.37,23.8,10.00,79,0.01,29.55,27.9,5.6
48439,KABIN BURI,กบินทร์บุรี,ปราจีนบุรี,13.98333,101.70722,1.70,09-02-2019,22:00:00,1008.01,000,1006.58,24.8,6.00,96,6.90,31.25,25.5,0.0
48440,SA KAEW,สระแก้ว,สระแก้ว,13.78889,102.03472,0.20,09-02-2019,22:00:00,1008.79,000,1003.82,24.8,7.00,97,5.60,31.22,25.2,0.0
48450,KANCHANA BURI,กาญจนบุรี,กาญจนบุรี,14.02250,99.53583,0.20,09-02-2019,22:00:00,1008.70,000,1005.39,24.5,9.00,90,0.40,30.67,26.2,0.0
48451,NAKHONPATHOM,นครปฐม,นครปฐม,14.01167,99.97000,0.00,09-02-2019,22:00:00,1008.56,000,1007.45,25.0,10.00,89,0.00,31.66,27.0,0.0
48453,BANG NA AGROMET.,กรุงเทพฯ บางนา สกษ.,กรุงเทพมหานคร,13.66639,100.60611,0.01,09-02-2019,22:00:00,1008.68,320,1008.38,24.5,8.00,79,0.01,30.70,28.5,5.6
48455,BANGKOK METROPOLIS,กรุงเทพมหานคร,กรุงเทพมหานคร,13.72639,100.56000,0.00,09-02-2019,22:00:00,1008.16,000,1007.67,24.8,10.00,83,0.00,31.39,28.0,0.0
48456,DON MUANG AIRPORT,สนามบินดอนเมือง,กรุงเทพมหานคร,13.91917,100.60500,0.20,09-02-2019,22:00:00,1008.74,240,1007.33,23.5,9.00,78,0.20,28.90,27.7,13.0
48458,CHACHOENGSAO,ฉะเชิงเทรา,ฉะเชิงเทรา,13.51556,101.45833,1.50,09-02-2019,22:00:00,1010.12,000,1002.04,24.6,3.00,97,7.60,30.96,25.2,0.0
48459,CHON BURI,ชลบุรี,ชลบุรี,13.36667,100.98333,0.00,09-02-2019,22:00:00,1008.27,000,1007.98,23.4,10.00,74,0.00,28.78,28.5,0.0
48460,KO SICHANG,เกาะสีชัง,ชลบุรี,13.16167,100.80194,0.00,09-02-2019,22:00:00,1008.31,000,1005.19,23.5,10.00,75,0.00,28.95,28.3,0.0
48461,PHATTHAYA,พัทยา,ชลบุรี,12.92000,100.86944,0.00,09-02-2019,22:00:00,1008.79,240,1001.85,23.1,10.00,77,0.80,28.26,27.5,7.4
48462,ARANYA PRATHET,อรัญประเทศ,สระแก้ว,13.70000,102.58333,3.80,09-02-2019,22:00:00,1007.90,250,1002.27,24.8,7.00,96,22.00,31.25,25.5,7.4
48464,RATCHA BURI,ราชบุรี,ราชบุรี,13.48931,99.79239,0.00,09-02-2019,22:00:00,1008.91,210,1007.64,24.4,10.00,91,0.10,30.57,26.0,3.7
48465,PHETCHA BURI,เพชรบุรี,เพชรบุรี,12.99944,100.06056,0.01,09-02-2019,22:00:00,1008.45,240,1008.02,24.1,11.00,85,0.01,30.10,26.9,3.7
48474,NONG PHLUB AGROMET.,หนองพลับ สกษ.,ประจวบคีรีขันธ์,12.58333,99.73333,0.20,09-02-2019,22:00:00,1008.98,000,996.58,23.2,10.00,95,0.40,28.44,24.1,0.0
48475,HUA HIN,หัวหิน,ประจวบคีรีขันธ์,12.58611,99.96250,0.01,09-02-2019,22:00:00,1008.65,240,1007.93,23.8,10.00,87,0.01,29.41,26.1,3.7
48477,SATTAHIP,สัตหีบ,ชลบุรี,12.68333,100.98333,0.01,09-02-2019,22:00:00,1008.45,270,1006.02,22.4,10.00,72,2.20,27.06,28.0,7.4
48478,RAYONG,ระยอง,ระยอง,12.63222,101.34361,0.01,09-02-2019,22:00:00,1008.47,280,1007.96,23.6,10.00,77,0.10,29.19,28.0,7.4
48479,HUAI PONG AGROMET.,ห้วยโป่ง สกษ.,ระยอง,12.73333,101.13333,0.10,09-02-2019,22:00:00,1008.48,000,1003.32,24.2,9.00,86,0.30,30.18,26.8,0.0
48480,CHANTHA BURI,จันทบุรี,จันทบุรี,12.61667,102.11333,1.30,09-02-2019,22:00:00,1008.79,000,1008.37,25.2,2.00,94,8.20,32.04,26.2,0.0
48481,PHLIU  AGROMET.,พลิ้ว สกษ.,จันทบุรี,12.50861,102.17305,1.70,09-02-2019,22:00:00,1009.40,000,1006.60,24.9,8.00,97,10.80,31.41,25.3,0.0
48500,PRACHUAP KHIRIKHAN,ประจวบคีรีขันธ์,ประจวบคีรีขันธ์,11.83333,99.83333,0.80,09-02-2019,22:00:00,1009.19,000,1008.40,22.4,6.00,87,3.00,27.10,24.8,0.0
48501,TRAD,ตราด,ตราด,11.76667,102.88333,1.40,09-02-2019,22:00:00,1008.73,270,1008.27,24.9,5.00,92,5.50,31.41,26.3,11.1
48517,CHUMPHON,ชุมพร,ชุมพร,10.49875,99.18847,0.01,09-02-2019,22:00:00,1009.61,000,1008.92,24.6,9.00,89,2.60,30.89,26.6,0.0
48520,SAWI AGROMET.,สวี สกษ.,ชุมพร,10.33333,99.10000,0.00,09-02-2019,22:00:00,1010.09,000,1008.55,24.3,8.00,90,1.00,30.30,26.0,0.0
48532,RANONG,ระนอง,ระนอง,9.98333,98.61667,0.00,09-02-2019,22:00:00,1010.47,000,1009.55,24.6,10.00,89,0.00,30.89,26.6,0.0
48550,KO SAMUI,เกาะสมุย,สุราษฎร์ธานี,9.46667,100.05000,0.00,09-02-2019,22:00:00,1009.72,000,1009.03,23.9,10.00,79,0.01,29.74,28.0,0.0
48551,SURAT THANI,สุราษฎร์ธานี,สุราษฎร์ธานี,9.13556,99.15194,0.00,09-02-2019,22:00:00,1010.08,000,1009.28,24.8,9.00,96,0.00,31.25,25.5,0.0
48552,NAKHONSI THAMMARAT,นครศรีธรรมราช,นครศรีธรรมราช,8.53778,99.96389,0.00,09-02-2019,22:00:00,1009.79,000,1009.16,24.3,10.00,84,0.00,30.39,27.2,0.0
48554,NAKHONSI THAMMARAT AGROMET.,นครศรีธรรมราช สกษ.,นครศรีธรรมราช,8.35931,100.00000,0.00,09-02-2019,22:00:00,1010.09,000,1009.68,24.6,10.00,89,0.00,30.89,26.6,0.0
48555,SURAT THANI AGROMET.,สุราษฎร์ธานี สกษ.,สุราษฎร์ธานี,9.10000,99.63333,0.00,09-02-2019,22:00:00,1011.67,000,1007.43,23.9,6.00,88,0.01,29.68,26.1,0.0
48556,PHRA SANG,พระแสง สอท.,สุราษฎร์ธานี,8.57022,99.25825,0.00,09-02-2019,22:00:00,1009.93,000,1008.31,24.0,10.00,91,8.20,29.82,25.6,0.0
48557,CHAWANG,ฉวาง,นครศรีธรรมราช,8.43194,99.51194,0.00,09-02-2019,22:00:00,1010.34,000,1006.84,24.5,7.00,94,0.50,30.71,25.5,0.0
48560,PHATTHALUNG AGROMET.,พัทลุง สกษ.,พัทลุง,7.58333,100.16667,0.00,09-02-2019,22:00:00,1010.19,000,1008.83,24.6,8.00,83,0.00,31.00,27.8,0.0
48561,TAKUA PA,ตะกั่วป่า,พังงา,8.68417,98.25222,0.00,09-02-2019,22:00:00,1009.64,000,1008.75,25.2,10.00,93,0.00,32.07,26.5,0.0
48563,KRABI,กระบี่,กระบี่,8.10361,98.97528,0.00,09-02-2019,22:00:00,1010.32,000,1006.74,24.8,10.00,93,0.00,31.38,26.0,0.0
48564,PHUKET,ภูเก็ต,ภูเก็ต,7.88333,98.40000,0.00,09-02-2019,22:00:00,1010.45,000,1010.01,25.2,10.00,86,0.00,32.12,27.8,0.0
48565,PHUKET AIRPORT,ภูเก็ต (ศูนย์ฯ),ภูเก็ต,8.14500,98.31444,0.00,09-02-2019,22:00:00,1009.69,000,1008.69,25.2,10.00,95,0.00,32.12,26.1,0.0
48566,KO LANTA,เกาะลันตา,กระบี่,7.53333,99.05000,0.00,09-02-2019,22:00:00,1010.02,000,1009.21,24.5,10.00,90,0.00,30.67,26.2,0.0
48567,TRANG AIRPORT,ตรัง,ตรัง,7.51667,99.61667,0.00,09-02-2019,22:00:00,1010.73,000,1008.91,25.0,10.00,89,0.00,31.66,27.0,0.0
48568,SONGKHLA,สงขลา,สงขลา,7.18211,100.60769,0.00,09-02-2019,22:00:00,1010.54,230,1009.79,23.5,10.00,76,0.00,29.03,28.2,7.4
48569,HAT YAI AIRPORT,หาดใหญ่,สงขลา,6.91667,100.43333,0.00,09-02-2019,22:00:00,1010.70,110,1006.68,23.9,10.00,85,0.01,29.72,26.7,5.6
48570,SATUN,สตูล,สตูล,6.65000,100.08333,0.00,09-02-2019,22:00:00,1010.71,000,1010.02,24.7,10.00,90,0.50,31.05,26.4,0.0
48571,KHO HONG AGROMET.,คอหงษ์ สกษ.,สงขลา,7.00000,100.50000,0.00,09-02-2019,22:00:00,1010.31,000,1009.19,24.3,10.00,85,0.00,30.29,27.0,0.0
48574,SA DAO,สะเดา,สงขลา,6.79806,100.39056,0.00,09-02-2019,22:00:00,1010.89,000,1007.96,25.5,10.00,93,0.00,32.66,26.8,0.0
48580,PATTANI AIRPORT,ปัตตานี,ปัตตานี,6.78333,101.15000,0.00,09-02-2019,22:00:00,1010.44,000,1009.75,26.4,8.00,92,0.00,34.40,27.8,0.0
48581,YALA AGROMET.,ยะลา สกษ.,ยะลา,6.51667,101.28333,0.00,09-02-2019,22:00:00,1011.03,000,1006.87,24.1,6.00,93,0.00,30.07,25.3,0.0
48583,NARATHIWAT,นราธิวาส,นราธิวาส,6.41667,101.81667,0.00,09-02-2019,22:00:00,1010.58,000,1009.99,25.2,10.00,89,0.00,32.05,27.2,0.0
