WmoStationNumber,StationNameEnglish,StationNameThai,Province,Latitude,Longitude,Rainfall24Hr,Date,Time,AirTemperature,RelativeHumidity,Rainfall,WindSpeed,StationPressure,WindDirection,MeanSeaLevelPressure,VaporPressure,DewPoint,LandVisibility
48300,MAE HONG SON,แม่ฮ่องสอน,แม่ฮ่องสอน,19.29897,97.97578,4.00,09-13-2019,13:00:00,31.0,67,0.00,0.0,978.32,000,1008.79,30.05,24.1,12.00
48303,CHIANG RAI,เชียงราย,เชียงราย,19.96139,99.88139,0.20,09-13-2019,13:00:00,32.1,62,0.00,9.3,964.11,100,1006.82,29.42,23.8,15.00
48304,CHAING RAI AGROMET.,เชียงราย สกษ.,เชียงราย,19.87083,99.78278,0.00,09-13-2019,13:00:00,31.5,66,0.00,0.0,962.35,000,1007.02,30.49,24.4,15.00
48307,THUNG CHANG,ทุ่งช้าง,น่าน,19.41194,100.88353,0.00,09-13-2019,13:00:00,34.3,59,0.00,3.7,969.74,290,1006.32,31.69,25.0,12.00
48310,PHAYAO,พะเยา,พะเยา,19.13333,99.90000,0.00,09-13-2019,13:00:00,32.0,61,0.00,0.0,962.61,000,1006.76,29.22,23.7,15.00
48315,THA WANGPHA,ท่าวังผา,น่าน,19.11056,100.80250,0.00,09-13-2019,13:00:00,34.0,60,0.00,5.6,980.90,040,1006.95,31.94,25.1,12.00
48324,THOEN,เถิน,ลำปาง,17.63661,99.24475,0.00,09-13-2019,13:00:00,32.6,57,0.00,18.5,986.54,320,1007.88,28.17,23.0,15.00
48325,MAE SARIANG,แม่สะเรียง,แม่ฮ่องสอน,18.16667,97.93333,4.90,09-13-2019,13:00:00,30.4,70,0.00,0.0,986.06,000,1009.90,30.54,24.4,10.00
48327,CHIANG MAI,เชียงใหม่,เชียงใหม่,18.79000,98.97694,20.80,09-13-2019,13:00:00,32.3,59,0.00,0.0,973.74,000,1007.58,28.41,23.2,10.00
48328,LAMPANG,ลำปาง,ลำปาง,18.28333,99.51667,19.10,09-13-2019,13:00:00,33.0,58,0.00,0.0,980.43,000,1007.37,29.25,23.7,10.00
48329,LAMPHUN,ลำพูน,ลำพูน,18.56722,99.03389,1.00,09-13-2019,13:00:00,33.4,57,0.00,5.6,974.65,240,1007.45,29.21,23.6,12.00
48330,PHRAE,แพร่,แพร่,18.16667,100.16667,1.80,09-13-2019,13:00:00,33.0,65,0.00,3.7,988.87,210,1006.99,32.46,25.4,15.00
48331,NAN,น่าน,น่าน,18.77972,100.77778,0.00,09-13-2019,13:00:00,33.4,60,0.00,7.4,984.61,160,1006.91,30.95,24.6,10.00
48333,NAN AGROMET.,น่าน สกษ.,น่าน,18.86667,100.75000,0.00,09-13-2019,13:00:00,33.0,54,0.00,0.0,977.70,000,1006.94,27.00,22.4,12.00
48334,LAMPANG AGROMET.,ลำปาง สกษ.,ลำปาง,18.31667,99.28333,3.80,09-13-2019,13:00:00,31.8,71,0.00,0.0,972.55,000,1007.42,33.15,25.8,8.00
48350,LOEI AGROMET.,เลย สกษ.,เลย,17.40000,101.73333,0.00,09-13-2019,13:00:00,33.1,66,0.00,3.7,976.89,030,1005.92,33.58,26.0,17.00
48351,UTTARADIT,อุตรดิตถ์,อุตรดิตถ์,17.61667,100.10000,0.00,09-13-2019,13:00:00,34.0,60,0.00,0.0,1000.57,000,1007.71,31.94,25.1,12.00
48352,NONG KHAI,หนองคาย,หนองคาย,17.86717,102.73303,12.80,09-13-2019,13:00:00,33.0,67,0.00,13.0,987.18,140,1006.67,33.66,26.0,18.00
48353,LOEI,เลย,เลย,17.45000,101.73333,0.00,09-13-2019,13:00:00,33.4,59,0.00,5.6,978.23,020,1006.24,30.37,24.3,17.00
48354,UDON THANI,อุดรธานี,อุดรธานี,17.38333,102.80000,3.40,09-13-2019,13:00:00,32.7,63,0.00,7.4,987.12,340,1006.90,30.94,24.6,16.00
48355,SAKON NAKHON AGROMET.,สกลนคร สกษ.,สกลนคร,17.12503,104.06100,0.00,09-13-2019,13:00:00,31.5,66,0.00,3.7,985.57,100,1006.96,30.49,24.4,15.00
48356,SAKON NAKHON,สกลนคร,สกลนคร,17.15000,104.13333,0.00,09-13-2019,13:00:00,31.5,66,0.00,7.4,987.81,200,1007.00,30.49,24.4,15.00
48357,NAKHON PHANOM,นครพนม,นครพนม,17.41083,104.78250,0.01,09-13-2019,13:00:00,32.6,58,0.00,1.9,990.50,060,1006.93,28.73,23.4,12.00
48358,NAKHON PHANOM AGROMET.,นครพนม สกษ.,นครพนม,17.44306,104.77361,24.10,09-13-2019,13:00:00,33.2,62,0.00,3.7,990.44,120,1007.50,31.70,25.0,12.00
48360,NONG BUA LAM PHU,หนองบัวลำภู,หนองบัวลำภู,17.23250,102.42944,0.60,09-13-2019,13:00:00,32.7,63,0.00,0.0,980.89,000,1006.15,30.94,24.6,12.00
48372,SUKHOTHAI*,สุโขทัย,สุโขทัย,17.10611,99.80000,0.00,09-13-2019,13:00:00,34.4,60,0.00,3.7,1001.79,280,1007.44,32.81,25.6,10.00
48373,SI SAMRONG AGROMET.,ศรีสำโรง สกษ.,สุโขทัย,17.16136,99.86167,0.00,09-13-2019,13:00:00,33.5,62,0.00,7.4,1001.48,250,1007.54,32.05,25.2,12.00
48374,LOM SAK,หล่มสัก,เพชรบูรณ์,16.77361,101.24944,0.00,09-13-2019,13:00:00,33.0,60,0.00,0.0,991.34,000,1007.46,30.11,24.2,12.00
48375,MAE SOT,แม่สอด,ตาก,16.65917,98.55083,0.20,09-13-2019,13:00:00,29.0,68,0.00,5.6,986.22,240,1008.42,27.03,22.4,10.00
48376,TAK,ตาก,ตาก,16.87833,99.14333,0.00,09-13-2019,13:00:00,32.7,57,0.00,16.7,994.68,260,1008.82,28.08,23.0,10.00
48377,BHUMIBOL DAM,เขื่อนภูมิพล,ตาก,17.24389,99.00250,0.00,09-13-2019,13:00:00,33.0,58,0.00,0.0,991.32,000,1007.38,29.25,23.7,12.00
48378,PHITSANULOK,พิษณุโลก,พิษณุโลก,16.79481,100.27930,0.00,09-13-2019,13:00:00,32.5,58,0.00,9.3,1002.92,310,1008.06,28.25,23.1,10.00
48379,PHETCHABUN,เพชรบูรณ์,เพชรบูรณ์,16.43333,101.15000,0.00,09-13-2019,13:00:00,32.5,68,0.00,0.0,993.22,000,1006.16,33.17,25.8,12.00
48380,KAMPHAENG PHET,กำแพงเพชร,กำแพงเพชร,16.48681,99.52697,0.00,09-13-2019,13:00:00,34.3,51,0.00,5.6,998.81,300,1007.92,27.33,22.6,15.00
48381,KHON KAEN,ขอนแก่น,ขอนแก่น,16.46111,102.78972,0.20,09-13-2019,13:00:00,32.1,69,0.00,7.4,985.41,320,1006.73,32.91,25.6,12.00
48382,MAHASARAKHAM,มหาสารคาม,มหาสารคาม,16.24722,103.06805,3.70,09-13-2019,13:00:00,33.5,61,0.00,0.0,991.05,000,1008.20,31.75,25.0,12.00
48383,MUKDAHAN,มุกดาหาร,มุกดาหาร,16.54139,104.72889,35.80,09-13-2019,13:00:00,32.0,66,0.00,3.7,990.85,150,1006.42,31.52,24.9,12.00
48384,THA PHRA AGROMET.,ท่าพระ สกษ.,ขอนแก่น,16.33333,102.81667,0.80,09-13-2019,13:00:00,32.0,70,0.00,3.7,987.43,330,1005.98,33.29,25.8,10.00
48385,UMPHANG,อุ้มผาง,ตาก,16.02472,98.86444,0.00,09-13-2019,13:00:00,27.8,71,0.00,0.0,960.30,000,1011.39,26.70,22.2,11.00
48386,PICHIT AGROMET.,พิจิตร สกษ.,พิจิตร,16.43806,100.29250,0.00,09-13-2019,13:00:00,33.0,60,0.00,11.1,1003.71,300,1007.59,29.94,24.1,10.00
48387,DOI MU SOE AGROMET.,ดอยมูเซอร์ สกษ.,ตาก,16.75000,98.93333,1.00,09-13-2019,13:00:00,23.0,88,0.01,7.4,915.16,230,1010.08,24.63,20.9,7.00
48390,KALASIN,กาฬสินธุ์,กาฬสินธุ์,16.33250,103.58833,13.30,09-13-2019,13:00:00,32.3,67,0.00,5.6,990.94,300,1006.65,32.44,25.4,10.00
48400,NAKHON SAWAN,นครสวรรค์ ,นครสวรรค์,15.67183,100.13236,0.00,09-13-2019,13:00:00,34.3,55,0.00,5.6,1004.13,060,1008.07,29.62,23.9,10.00
48401,TAKFA AGROMET.,ตากฟ้า สกษ.,นครสวรรค์,15.34944,100.53028,0.00,09-13-2019,13:00:00,33.5,56,0.00,3.7,997.99,330,1008.45,28.84,23.4,9.00
48402,CHAINAT AGROMET.,ชัยนาท สกษ.,ชัยนาท,15.15000,100.18333,0.00,09-13-2019,13:00:00,33.3,60,0.00,3.7,1006.29,210,1008.18,30.45,24.3,12.00
48403,CHAIYAPHUM,ชัยภูมิ,ชัยภูมิ,15.80000,102.03333,0.01,09-13-2019,13:00:00,32.9,59,0.00,0.0,986.04,000,1006.49,29.33,23.7,10.00
48404,ROI ET AGROMET.,ร้อยเอ็ด สกษ.,ร้อยเอ็ด,16.07322,103.60844,8.90,09-13-2019,13:00:00,31.1,71,0.00,9.3,989.31,290,1006.73,32.26,25.3,11.00
48405,ROI ET,ร้อยเอ็ด,ร้อยเอ็ด,16.02000,103.74389,10.50,09-13-2019,13:00:00,32.0,66,0.00,5.6,990.52,250,1006.40,31.52,24.9,10.00
48407,UBON RATCHATHANI,อุบลราชธานี (ศูนย์ฯ),อุบลราชธานี,15.25000,104.86667,85.00,09-13-2019,13:00:00,28.7,85,5.70,9.3,993.29,180,1007.25,33.37,25.9,10.00
48408,UBON RATCHATHANI AGROMET.,อุบลราชธานี สกษ.,อุบลราชธานี,15.23914,105.02350,26.20,09-13-2019,13:00:00,31.2,71,0.00,0.0,992.85,000,1007.48,32.18,25.3,12.00
48409,SI SAKET AGROMET.,ศรีสะเกษ,ศรีสะเกษ,15.00000,104.05000,17.20,09-13-2019,13:00:00,30.3,76,0.00,9.3,993.61,260,1008.13,32.92,25.6,10.00
48410,UTHAITHANI,อุทัยธานี,อุทัยธานี,15.37417,100.03889,0.00,09-13-2019,13:00:00,34.6,51,0.00,0.0,1005.22,"{'0': '   ', '@attributes': {'Unit': 'degree'}}",1008.17,28.22,23.1,10.00
48413,WICHIAN BURI,วิเชียรบุรี,เพชรบูรณ์,15.65700,101.10800,0.00,09-13-2019,13:00:00,33.1,56,0.00,16.7,999.76,230,1007.56,28.32,23.1,10.00
48415,AYUTTHAYA,พระนครศรีอยุธยา,พระนครศรีอยุธยา,14.53472,100.72500,0.00,09-13-2019,13:00:00,33.2,66,0.00,7.4,1007.28,270,1008.37,33.50,25.9,10.00
48416,THA TUM,ท่าตูม,สุรินทร์,15.31667,103.68333,42.50,09-13-2019,13:00:00,31.5,79,0.00,0.0,992.92,000,1007.40,36.42,27.4,8.00
48417,NAKORNNAYOK,นครนายก,นครนายก,14.36222,101.39278,0.00,09-13-2019,13:00:00,23.3,84,0.00,1.9,874.43,090,1007.96,24.15,20.5,8.00
48418,BUA CHUM,บัวชุม  ,ลพบุรี,15.26667,101.18736,0.00,09-13-2019,13:00:00,33.3,62,0.00,3.7,1002.05,260,1007.81,31.92,25.1,10.00
48419,PATHUMTHANI,ปทุมธานี สกษ.,ปทุมธานี,14.10000,100.61667,0.00,09-13-2019,13:00:00,35.0,54,0.00,3.7,1007.74,280,1008.52,30.22,24.2,9.00
48420,Samut Prakarn,สมุทรปราการ สกษ.,สมุทรปราการ,13.51667,100.76167,0.00,09-13-2019,13:00:00,33.5,57,0.00,14.8,1008.13,230,1008.57,29.70,23.9,10.00
48421,THONG PHAPHUM,ทองผาภูมิ,กาญจนบุรี,14.74222,98.63639,0.30,09-13-2019,13:00:00,31.7,65,0.00,5.6,999.11,010,1010.27,30.32,24.3,10.00
48425,SUPHAN BURI,สุพรรณบุรี,สุพรรณบุรี,14.47444,100.13889,0.00,09-13-2019,13:00:00,35.4,53,0.00,0.0,1006.88,000,1007.86,30.19,24.2,12.00
48426,LOP BURI,ลพบุรี,ลพบุรี,14.79972,100.64500,0.00,09-13-2019,13:00:00,33.5,58,0.00,9.3,1006.30,330,1008.09,29.99,24.1,8.00
48427,U THONG AGROMET.,อู่ทอง สกษ.,สุพรรณบุรี,14.30361,99.86472,0.00,09-13-2019,13:00:00,34.7,45,0.00,3.7,1006.87,230,1007.62,25.05,21.1,12.00
48429,SUVARNABHUMI AIRPORT,สนามบินสุวรรณภูมิ,สมุทรปราการ,13.68639,100.76750,0.00,09-13-2019,13:00:00,33.3,53,0.00,13.0,1007.47,280,1008.16,27.03,22.4,10.00
48430,PRACHIN BURI,ปราจีนบุรี,ปราจีนบุรี,14.05842,101.36930,0.00,09-13-2019,13:00:00,33.1,62,0.00,5.6,1007.62,270,1008.31,31.20,24.7,9.00
48431,NAKHON RATCHASIMA,นครราชสีมา,นครราชสีมา,14.96830,102.08603,0.00,09-13-2019,13:00:00,31.7,64,0.00,7.4,986.75,300,1007.59,30.04,24.1,12.00
48432,SURIN,สุรินทร์,สุรินทร์,14.88333,103.50000,8.10,09-13-2019,13:00:00,30.9,70,0.00,9.3,991.13,240,1007.64,31.27,24.8,12.00
48433,SURIN AGROMET.,สุรินทร์ สกษ.,สุรินทร์,14.88333,103.45000,9.70,09-13-2019,13:00:00,29.8,78,0.00,7.4,991.56,270,1007.85,32.75,25.6,10.00
48434,CHOK CHAI,โชคชัย,นครราชสีมา,14.71889,102.16861,0.00,09-13-2019,13:00:00,33.3,57,0.00,16.7,985.94,270,1007.36,29.01,23.5,10.00
48435,PAKCHONG AGROMET.,ปากช่อง สกษ.,นครราชสีมา,14.64389,101.33194,0.00,09-13-2019,13:00:00,30.4,66,0.00,22.2,965.31,240,1008.13,28.59,23.3,14.00
48436,NANG RONG,นางรอง,บุรีรัมย์,14.58333,102.80000,0.00,09-13-2019,13:00:00,33.4,59,0.00,11.1,987.38,310,1007.52,30.37,24.3,12.00
48437,BURIRUM,บุรีรัมย์,บุรีรัมย์,15.22575,103.24808,1.40,09-13-2019,13:00:00,31.1,77,0.00,3.7,988.69,350,1009.27,34.63,26.5,10.00
48438,SAMUTSONGKRAM,สมุทรสงคราม,สมุทรสงคราม,13.40778,100.03222,2.40,09-13-2019,13:00:00,34.0,52,0.00,25.9,1008.13,360,1008.56,27.58,22.7,10.00
48439,KABIN BURI,กบินทร์บุรี,ปราจีนบุรี,13.98333,101.70722,0.00,09-13-2019,13:00:00,30.8,76,0.00,5.6,1007.15,270,1008.56,33.68,26.0,11.00
48440,SA KAEW,สระแก้ว,สระแก้ว,13.78889,102.03472,0.00,09-13-2019,13:00:00,31.2,70,0.00,0.0,1003.11,000,1007.98,31.89,25.1,8.00
48450,KANCHANA BURI,กาญจนบุรี,กาญจนบุรี,14.02250,99.53583,0.00,09-13-2019,13:00:00,33.5,50,0.00,14.8,1005.49,260,1008.72,26.04,21.8,12.00
48451,NAKHONPATHOM,นครปฐม,นครปฐม,14.01167,99.97000,0.00,09-13-2019,13:00:00,33.3,56,0.00,3.7,1007.38,260,1008.46,28.72,23.4,10.00
48453,BANG NA AGROMET.,กรุงเทพฯ บางนา สกษ.,กรุงเทพมหานคร,13.66639,100.60611,0.00,09-13-2019,13:00:00,33.5,56,0.00,14.8,1008.58,260,1008.88,29.13,23.6,10.00
48454,BANGKOK PORT (KLONG TOEI),กรุงเทพฯ ท่าเรือคลองเตย,กรุงเทพมหานคร,13.70694,100.56805,0.00,09-13-2019,13:00:00,34.4,56,0.00,7.4,1007.47,360,1008.14,30.71,24.5,10.00
48455,BANGKOK METROPOLIS,กรุงเทพมหานคร,กรุงเทพมหานคร,13.72639,100.56000,0.00,09-13-2019,13:00:00,32.8,61,0.00,7.4,1007.73,120,1008.21,30.57,24.4,10.00
48456,DON MUANG AIRPORT,สนามบินดอนเมือง,กรุงเทพมหานคร,13.91917,100.60500,0.00,09-13-2019,13:00:00,32.8,60,0.00,16.7,1007.12,320,1008.51,29.70,23.9,10.00
48457,PILOT STATION,นำร่อง,สมุทรปราการ,13.39389,100.59944,0.00,09-13-2019,13:00:00,30.8,80,0.00,11.1,1007.30,260,1008.96,35.48,26.9,12.00
48458,CHACHOENGSAO,ฉะเชิงเทรา,ฉะเชิงเทรา,13.51556,101.45833,0.00,09-13-2019,13:00:00,32.1,60,0.00,7.4,1002.33,270,1010.23,28.86,23.4,12.00
48459,CHON BURI,ชลบุรี,ชลบุรี,13.36667,100.98333,0.00,09-13-2019,13:00:00,31.3,64,0.00,5.6,1008.39,270,1008.67,29.24,23.7,10.00
48460,KO SICHANG,เกาะสีชัง,ชลบุรี,13.16167,100.80194,0.00,09-13-2019,13:00:00,31.0,67,0.00,5.6,1005.98,250,1009.08,30.05,24.1,10.00
48461,PHATTHAYA,พัทยา,ชลบุรี,12.92000,100.86944,3.50,09-13-2019,13:00:00,30.5,63,0.00,7.4,1002.37,310,1009.25,27.41,22.6,12.00
48462,ARANYA PRATHET,อรัญประเทศ,สระแก้ว,13.70000,102.58333,0.00,09-13-2019,13:00:00,33.4,62,0.00,5.6,1002.34,260,1007.82,32.13,25.2,8.00
48463,LAEM CHABANG,แหลมฉบัง,ชลบุรี,13.07694,100.87583,0.00,09-13-2019,13:00:00,30.8,65,0.00,16.7,1000.93,300,1010.15,28.81,23.4,10.00
48464,RATCHA BURI,ราชบุรี,ราชบุรี,13.48931,99.79239,0.50,09-13-2019,13:00:00,33.0,57,0.00,18.5,1008.32,320,1009.56,28.68,23.3,14.00
48465,PHETCHA BURI,เพชรบุรี,เพชรบุรี,12.99944,100.06056,1.20,09-13-2019,13:00:00,33.4,64,0.00,7.4,1008.40,120,1008.82,32.73,25.6,11.00
48474,NONG PHLUB AGROMET.,หนองพลับ สกษ.,ประจวบคีรีขันธ์,12.58333,99.73333,0.00,09-13-2019,13:00:00,32.4,55,0.00,11.1,997.12,230,1009.18,26.67,22.1,10.00
48475,HUA HIN,หัวหิน,ประจวบคีรีขันธ์,12.58611,99.96250,0.00,09-13-2019,13:00:00,34.7,50,0.00,11.1,1008.03,260,1008.72,27.85,22.9,10.00
48477,SATTAHIP,สัตหีบ,ชลบุรี,12.68333,100.98333,0.00,09-13-2019,13:00:00,31.0,72,0.00,11.1,1007.48,350,1009.89,32.34,25.4,10.00
48478,RAYONG,ระยอง,ระยอง,12.63222,101.34361,0.00,09-13-2019,13:00:00,30.5,68,0.00,11.1,1008.26,260,1008.78,29.89,24.0,10.00
48479,HUAI PONG AGROMET.,ห้วยโป่ง สกษ.,ระยอง,12.73333,101.13333,0.00,09-13-2019,13:00:00,33.1,49,0.00,13.0,1003.50,270,1008.56,25.00,21.1,12.00
48480,CHANTHA BURI,จันทบุรี,จันทบุรี,12.61667,102.11333,0.00,09-13-2019,13:00:00,32.2,63,0.00,9.3,1008.33,220,1008.74,30.20,24.2,10.00
48481,PHLIU  AGROMET.,พลิ้ว สกษ.,จันทบุรี,12.50861,102.17305,0.00,09-13-2019,13:00:00,32.0,76,0.00,11.1,1006.21,240,1008.94,36.01,27.2,8.00
48500,PRACHUAP KHIRIKHAN,ประจวบคีรีขันธ์,ประจวบคีรีขันธ์,11.83333,99.83333,0.00,09-13-2019,13:00:00,30.2,64,0.00,0.0,1009.07,000,1009.85,27.39,22.6,10.00
48501,TRAD,ตราด,ตราด,11.76667,102.88333,17.40,09-13-2019,13:00:00,30.0,75,0.00,5.6,1009.18,340,1009.64,31.72,25.0,8.00
48517,CHUMPHON,ชุมพร,ชุมพร,10.49875,99.18847,0.00,09-13-2019,13:00:00,29.5,65,0.00,3.7,1010.69,290,1011.37,26.62,22.1,9.00
48520,SAWI AGROMET.,สวี สกษ.,ชุมพร,10.33333,99.10000,0.00,09-13-2019,13:00:00,29.0,68,0.00,3.7,1010.05,290,1011.57,27.30,22.5,10.00
48532,RANONG,ระนอง,ระนอง,9.98333,98.61667,1.10,09-13-2019,13:00:00,29.2,73,0.00,9.3,1011.97,300,1012.88,29.57,23.9,10.00
48550,KO SAMUI,เกาะสมุย,สุราษฎร์ธานี,9.46667,100.05000,0.00,09-13-2019,13:00:00,30.0,75,0.00,7.4,1010.96,240,1011.64,31.72,25.0,10.00
48551,SURAT THANI,สุราษฎร์ธานี,สุราษฎร์ธานี,9.13556,99.15194,0.80,09-13-2019,13:00:00,28.8,77,0.20,9.3,1011.13,010,1011.92,30.46,24.3,10.00
48552,NAKHONSI THAMMARAT,นครศรีธรรมราช,นครศรีธรรมราช,8.53778,99.96389,5.10,09-13-2019,13:00:00,33.5,59,0.00,7.4,1009.56,030,1010.19,30.28,24.2,10.00
48554,NAKHONSI THAMMARAT AGROMET.,นครศรีธรรมราช สกษ.,นครศรีธรรมราช,8.35931,100.00000,0.30,09-13-2019,13:00:00,33.8,53,0.00,0.0,1010.08,000,1010.48,27.74,22.8,12.00
48555,SURAT THANI AGROMET.,สุราษฎร์ธานี สกษ.,สุราษฎร์ธานี,9.10000,99.63333,0.00,09-13-2019,13:00:00,30.0,73,0.00,7.4,1010.28,010,1014.47,30.87,24.6,7.00
48556,PHRA SANG,พระแสง สอท.,สุราษฎร์ธานี,8.57022,99.25825,0.00,09-13-2019,13:00:00,29.9,57,0.00,14.8,1009.53,290,1011.13,23.94,20.4,12.00
48557,CHAWANG,ฉวาง,นครศรีธรรมราช,8.43194,99.51194,43.00,09-13-2019,13:00:00,33.0,61,0.00,0.0,1007.72,000,1011.14,30.69,24.5,10.00
48560,PHATTHALUNG AGROMET.,พัทลุง สกษ.,พัทลุง,7.58333,100.16667,3.30,09-13-2019,13:00:00,33.0,50,0.00,9.3,1009.51,300,1010.85,25.08,21.1,10.00
48561,TAKUA PA,ตะกั่วป่า,พังงา,8.68417,98.25222,0.00,09-13-2019,13:00:00,30.2,74,0.00,14.8,1011.50,330,1012.39,31.56,24.9,10.00
48563,KRABI,กระบี่,กระบี่,8.10361,98.97528,0.00,09-13-2019,13:00:00,32.6,57,0.00,16.7,1007.79,260,1011.30,28.17,23.0,10.00
48564,PHUKET,ภูเก็ต,ภูเก็ต,7.88333,98.40000,0.60,09-13-2019,13:00:00,33.0,58,0.00,13.0,1011.06,300,1011.49,29.25,23.7,10.00
48565,PHUKET AIRPORT,ภูเก็ต (ศูนย์ฯ),ภูเก็ต,8.14500,98.31444,0.00,09-13-2019,13:00:00,31.3,66,0.00,14.8,1011.57,300,1012.56,30.37,24.3,10.00
48566,KO LANTA,เกาะลันตา,กระบี่,7.53333,99.05000,0.00,09-13-2019,13:00:00,30.6,74,0.00,13.0,1010.95,290,1011.76,32.67,25.5,10.00
48567,TRANG AIRPORT,ตรัง,ตรัง,7.51667,99.61667,0.00,09-13-2019,13:00:00,33.5,53,0.00,11.1,1009.43,310,1011.21,27.43,22.6,10.00
48568,SONGKHLA,สงขลา,สงขลา,7.18211,100.60769,0.00,09-13-2019,13:00:00,33.8,54,0.00,5.6,1009.65,250,1010.38,28.59,23.3,11.00
48569,HAT YAI AIRPORT,หาดใหญ่,สงขลา,6.91667,100.43333,0.60,09-13-2019,13:00:00,32.1,58,0.00,16.7,1006.66,250,1010.60,27.74,22.8,10.00
48570,SATUN,สตูล,สตูล,6.65000,100.08333,1.40,09-13-2019,13:00:00,32.5,64,0.00,11.1,1010.90,270,1011.58,31.11,24.7,8.00
48571,KHO HONG AGROMET.,คอหงษ์ สกษ.,สงขลา,7.00000,100.50000,30.60,09-13-2019,13:00:00,34.0,56,0.00,0.0,1009.13,000,1010.22,29.58,23.9,10.00
48574,SA DAO,สะเดา,สงขลา,6.79806,100.39056,1.50,09-13-2019,13:00:00,33.0,59,0.00,14.8,1007.38,280,1010.25,29.54,23.8,12.00
48580,PATTANI AIRPORT,ปัตตานี,ปัตตานี,6.78333,101.15000,3.30,09-13-2019,13:00:00,32.5,71,0.00,5.6,1009.37,240,1010.05,34.68,26.5,7.00
48581,YALA AGROMET.,ยะลา สกษ.,ยะลา,6.51667,101.28333,1.30,09-13-2019,13:00:00,33.5,57,0.00,5.6,1006.71,270,1010.76,29.70,23.9,7.00
48583,NARATHIWAT,นราธิวาส,นราธิวาส,6.41667,101.81667,0.00,09-13-2019,13:00:00,33.4,51,0.00,5.6,1009.34,280,1009.92,26.12,21.8,7.00
