WmoStationNumber,StationNameEnglish,StationNameThai,Province,Latitude,Longitude,RelativeHumidity,Date,Time,VaporPressure,Rainfall,AirTemperature,LandVisibility,WindSpeed,WindDirection,DewPoint,MeanSeaLevelPressure,Rainfall24Hr,StationPressure
48300,MAE HONG SON,แม่ฮ่องสอน,แม่ฮ่องสอน,19.29897,97.97578,76,09-19-2019,13:00:00,30.96,0.00,29.2,12.00,7.4,300,24.6,1010.58,9.70,979.88
48302,DOI ANG KANG,ดอยอ่างขาง,เชียงใหม่,19.93139,99.04833,99,09-19-2019,13:00:00,21.46,0.00,18.8,8.00,0.0,000,18.6,1010.53,26.60,848.70
48303,CHIANG RAI,เชียงราย,เชียงราย,19.96139,99.88139,51,09-19-2019,13:00:00,26.01,0.00,33.2,10.00,7.4,310,21.7,1009.26,1.10,966.59
48304,CHAING RAI AGROMET.,เชียงราย สกษ.,เชียงราย,19.87083,99.78278,61,09-19-2019,13:00:00,26.97,0.00,30.7,15.00,0.0,000,22.3,1009.85,3.00,964.95
48307,THUNG CHANG,ทุ่งช้าง,น่าน,19.41194,100.88353,88,09-19-2019,13:00:00,32.36,6.70,27.5,7.00,0.0,000,25.4,1010.88,6.70,973.32
48310,PHAYAO,พะเยา,พะเยา,19.13333,99.90000,61,09-19-2019,13:00:00,29.66,0.00,32.5,10.00,0.0,000,23.9,1009.51,8.40,965.31
48315,THA WANGPHA,ท่าวังผา,น่าน,19.11056,100.80250,87,09-19-2019,13:00:00,32.48,2.10,27.7,10.00,3.7,130,25.4,1011.14,23.70,984.45
48324,THOEN,เถิน,ลำปาง,17.63661,99.24475,67,09-19-2019,13:00:00,29.53,0.00,30.6,12.00,7.4,360,23.8,1010.10,8.90,988.58
48325,MAE SARIANG,แม่สะเรียง,แม่ฮ่องสอน,18.16667,97.93333,65,09-19-2019,13:00:00,29.92,0.00,31.5,10.00,0.0,000,24.0,1009.61,1.80,985.86
48327,CHIANG MAI,เชียงใหม่,เชียงใหม่,18.79000,98.97694,62,09-19-2019,13:00:00,27.14,0.00,30.5,10.00,3.7,360,22.4,1010.30,85.10,976.18
48328,LAMPANG,ลำปาง,ลำปาง,18.28333,99.51667,66,09-19-2019,13:00:00,30.37,0.00,31.3,10.00,0.0,000,24.3,1010.35,56.90,983.18
48329,LAMPHUN,ลำพูน,ลำพูน,18.56722,99.03389,73,09-19-2019,13:00:00,29.19,0.00,29.0,12.00,0.0,000,23.6,1010.84,18.90,977.47
48330,PHRAE,แพร่,แพร่,18.16667,100.16667,73,09-19-2019,13:00:00,35.23,0.00,32.2,8.00,1.9,090,26.8,1009.33,2.30,991.13
48331,NAN,น่าน,น่าน,18.77972,100.77778,84,09-19-2019,13:00:00,30.89,6.50,27.6,10.00,0.0,000,24.6,1010.62,28.50,987.81
48333,NAN AGROMET.,น่าน สกษ.,น่าน,18.86667,100.75000,85,09-19-2019,13:00:00,31.95,1.80,28.0,12.00,0.0,000,25.1,1010.61,10.40,980.78
48334,LAMPANG AGROMET.,ลำปาง สกษ.,ลำปาง,18.31667,99.28333,72,09-19-2019,13:00:00,30.70,0.00,30.2,8.00,0.0,000,24.5,1010.36,19.00,975.21
48350,LOEI AGROMET.,เลย สกษ.,เลย,17.40000,101.73333,74,09-19-2019,13:00:00,32.46,0.00,30.5,15.00,0.0,000,25.4,1009.00,0.00,979.63
48351,UTTARADIT,อุตรดิตถ์,อุตรดิตถ์,17.61667,100.10000,58,09-19-2019,13:00:00,31.04,0.00,34.0,10.00,0.0,000,24.7,1008.95,0.00,1001.80
48352,NONG KHAI,หนองคาย,หนองคาย,17.86717,102.73303,64,09-19-2019,13:00:00,31.11,0.00,32.5,8.00,7.4,070,24.7,1008.69,0.00,989.12
48353,LOEI,เลย,เลย,17.45000,101.73333,68,09-19-2019,13:00:00,29.89,0.20,30.5,14.00,3.7,020,24.0,1009.24,0.20,980.89
48354,UDON THANI,อุดรธานี,อุดรธานี,17.38333,102.80000,64,09-19-2019,13:00:00,29.84,0.00,31.6,10.00,7.4,010,24.0,1009.39,0.10,989.49
48355,SAKON NAKHON AGROMET.,สกลนคร สกษ.,สกลนคร,17.12503,104.06100,66,09-19-2019,13:00:00,29.48,0.40,31.0,10.00,3.7,080,23.8,1009.03,0.40,987.56
48356,SAKON NAKHON,สกลนคร,สกลนคร,17.15000,104.13333,63,09-19-2019,13:00:00,28.37,0.01,31.0,15.00,16.7,050,23.2,1009.05,0.01,989.80
48357,NAKHON PHANOM,นครพนม,นครพนม,17.41083,104.78250,58,09-19-2019,13:00:00,28.33,0.00,32.4,10.00,3.7,060,23.1,1009.07,0.01,992.59
48358,NAKHON PHANOM AGROMET.,นครพนม สกษ.,นครพนม,17.44306,104.77361,77,09-19-2019,13:00:00,30.07,0.10,28.6,9.00,3.7,090,24.1,1009.88,0.20,992.53
48360,NONG BUA LAM PHU,หนองบัวลำภู,หนองบัวลำภู,17.23250,102.42944,67,09-19-2019,13:00:00,29.73,0.00,30.7,12.00,3.7,350,23.9,1008.13,0.00,982.66
48372,SUKHOTHAI*,สุโขทัย,สุโขทัย,17.10611,99.80000,70,09-19-2019,13:00:00,35.19,0.00,33.0,10.00,0.0,000,26.8,1008.50,2.60,1002.82
48373,SI SAMRONG AGROMET.,ศรีสำโรง สกษ.,สุโขทัย,17.16136,99.86167,67,09-19-2019,13:00:00,33.66,0.00,33.0,12.00,0.0,000,26.0,1008.92,10.10,1002.84
48374,LOM SAK,หล่มสัก,เพชรบูรณ์,16.77361,101.24944,52,09-19-2019,13:00:00,25.49,0.00,32.5,12.00,0.0,000,21.4,1009.32,0.50,993.14
48375,MAE SOT,แม่สอด,ตาก,16.65917,98.55083,64,09-19-2019,13:00:00,30.04,0.00,31.7,10.00,9.3,030,24.1,1007.24,17.20,985.26
48376,TAK,ตาก,ตาก,16.87833,99.14333,71,09-19-2019,13:00:00,32.81,0.00,31.5,7.00,5.6,240,25.6,1009.99,34.50,995.77
48377,BHUMIBOL DAM,เขื่อนภูมิพล,ตาก,17.24389,99.00250,74,09-19-2019,13:00:00,29.74,2.00,29.0,6.00,0.0,000,23.9,1009.65,11.20,993.33
48378,PHITSANULOK,พิษณุโลก,พิษณุโลก,16.79481,100.27930,58,09-19-2019,13:00:00,28.97,0.00,33.0,10.00,5.6,080,23.5,1009.16,25.40,1004.03
48379,PHETCHABUN,เพชรบูรณ์,เพชรบูรณ์,16.43333,101.15000,59,09-19-2019,13:00:00,29.21,0.00,32.7,12.00,5.6,030,23.7,1007.81,1.00,994.84
48380,KAMPHAENG PHET,กำแพงเพชร,กำแพงเพชร,16.48681,99.52697,69,09-19-2019,13:00:00,32.91,0.00,32.1,10.00,3.7,340,25.6,1009.15,51.90,999.97
48381,KHON KAEN,ขอนแก่น,ขอนแก่น,16.46111,102.78972,53,09-19-2019,13:00:00,26.53,0.00,32.9,10.00,9.3,080,22.1,1008.44,0.01,987.14
48382,MAHASARAKHAM,มหาสารคาม,มหาสารคาม,16.24722,103.06805,61,09-19-2019,13:00:00,30.69,0.00,33.0,12.00,0.0,000,24.5,1007.91,0.00,990.74
48383,MUKDAHAN,มุกดาหาร,มุกดาหาร,16.54139,104.72889,83,09-19-2019,13:00:00,30.42,2.10,27.5,12.00,3.7,200,24.3,1008.67,2.10,992.84
48384,THA PHRA AGROMET.,ท่าพระ สกษ.,ขอนแก่น,16.33333,102.81667,66,09-19-2019,13:00:00,33.50,0.00,33.2,10.00,3.7,070,25.9,1007.61,0.01,989.10
48385,UMPHANG,อุ้มผาง,ตาก,16.02472,98.86444,73,09-19-2019,13:00:00,27.22,4.00,27.8,11.00,0.0,000,22.5,1010.42,6.10,959.37
48386,PICHIT AGROMET.,พิจิตร สกษ.,พิจิตร,16.43806,100.29250,66,09-19-2019,13:00:00,31.94,0.00,32.2,10.00,0.0,000,25.1,1008.79,5.00,1004.90
48387,DOI MU SOE AGROMET.,ดอยมูเซอร์ สกษ.,ตาก,16.75000,98.93333,71,09-19-2019,13:00:00,23.87,0.00,26.0,9.00,9.3,020,20.3,1009.24,9.80,915.29
48390,KALASIN,กาฬสินธุ์,กาฬสินธุ์,16.33250,103.58833,64,09-19-2019,13:00:00,30.65,0.00,32.0,10.00,0.0,000,24.5,1008.31,0.00,992.56
48400,NAKHON SAWAN,นครสวรรค์ ,นครสวรรค์,15.67183,100.13236,64,09-19-2019,13:00:00,32.16,0.00,33.0,10.00,0.0,000,25.3,1008.78,11.00,1004.82
48401,TAKFA AGROMET.,ตากฟ้า สกษ.,นครสวรรค์,15.34944,100.53028,68,09-19-2019,13:00:00,29.89,0.00,30.5,10.00,9.3,350,24.0,1010.04,7.80,999.46
48402,CHAINAT AGROMET.,ชัยนาท สกษ.,ชัยนาท,15.15000,100.18333,66,09-19-2019,13:00:00,29.48,0.00,31.0,12.00,0.0,000,23.8,1009.49,18.70,1007.58
48403,CHAIYAPHUM,ชัยภูมิ,ชัยภูมิ,15.80000,102.03333,58,09-19-2019,13:00:00,27.55,0.00,32.0,10.00,9.3,050,22.7,1008.18,0.00,987.64
48404,ROI ET AGROMET.,ร้อยเอ็ด สกษ.,ร้อยเอ็ด,16.07322,103.60844,65,09-19-2019,13:00:00,29.52,0.00,31.3,10.00,7.4,130,23.8,1007.84,0.00,990.41
48405,ROI ET,ร้อยเอ็ด,ร้อยเอ็ด,16.02000,103.74389,62,09-19-2019,13:00:00,28.99,0.00,31.6,10.00,0.0,000,23.5,1007.81,0.00,991.88
48407,UBON RATCHATHANI,อุบลราชธานี (ศูนย์ฯ),อุบลราชธานี,15.25000,104.86667,60,09-19-2019,13:00:00,28.66,0.00,32.0,10.00,9.3,080,23.3,1008.24,2.20,994.42
48408,UBON RATCHATHANI AGROMET.,อุบลราชธานี สกษ.,อุบลราชธานี,15.23914,105.02350,70,09-19-2019,13:00:00,30.54,0.00,30.4,10.00,0.0,000,24.4,1008.74,4.30,994.05
48409,SI SAKET AGROMET.,ศรีสะเกษ,ศรีสะเกษ,15.00000,104.05000,77,09-19-2019,13:00:00,33.63,0.00,30.5,10.00,5.6,070,26.0,1008.76,1.20,994.23
48410,UTHAITHANI,อุทัยธานี,อุทัยธานี,15.37417,100.03889,71,09-19-2019,13:00:00,32.60,0.00,31.4,10.00,0.0,"{'@attributes': {'Unit': 'degree'}, '0': '   '}",25.5,1008.80,33.00,1005.82
48413,WICHIAN BURI,วิเชียรบุรี,เพชรบูรณ์,15.65700,101.10800,59,09-19-2019,13:00:00,27.71,0.00,31.8,10.00,7.4,010,22.8,1008.48,7.30,1000.64
48415,AYUTTHAYA,พระนครศรีอยุธยา,พระนครศรีอยุธยา,14.53472,100.72500,83,09-19-2019,13:00:00,32.10,0.40,28.5,8.00,0.0,000,25.2,1009.53,2.90,1008.42
48416,THA TUM,ท่าตูม,สุรินทร์,15.31667,103.68333,76,09-19-2019,13:00:00,34.90,0.00,31.5,8.00,0.0,000,26.6,1008.48,1.80,993.99
48417,NAKORNNAYOK,นครนายก,นครนายก,14.36222,101.39278,96,09-19-2019,13:00:00,23.03,0.20,20.4,2.00,5.6,060,19.8,1009.49,0.60,874.55
48418,BUA CHUM,บัวชุม  ,ลพบุรี,15.26667,101.18736,66,09-19-2019,13:00:00,31.52,0.00,32.0,10.00,7.4,010,24.9,1008.40,9.80,1002.61
48419,PATHUMTHANI,ปทุมธานี สกษ.,ปทุมธานี,14.10000,100.61667,75,09-19-2019,13:00:00,32.96,17.50,30.6,8.00,0.0,000,25.7,1009.05,49.00,1008.25
48420,Samut Prakarn,สมุทรปราการ สกษ.,สมุทรปราการ,13.51667,100.76167,78,09-19-2019,13:00:00,32.13,0.00,29.5,10.00,5.6,140,25.2,1008.59,24.70,1008.14
48421,THONG PHAPHUM,ทองผาภูมิ,กาญจนบุรี,14.74222,98.63639,64,09-19-2019,13:00:00,31.11,0.00,32.5,10.00,0.0,000,24.7,1008.59,4.00,997.47
48425,SUPHAN BURI,สุพรรณบุรี,สุพรรณบุรี,14.47444,100.13889,74,09-19-2019,13:00:00,33.43,0.00,31.1,12.00,5.6,050,25.9,1009.05,8.90,1008.05
48426,LOP BURI,ลพบุรี,ลพบุรี,14.79972,100.64500,76,09-19-2019,13:00:00,32.09,0.01,29.9,7.00,0.0,000,25.2,1009.15,8.60,1007.34
48427,U THONG AGROMET.,อู่ทอง สกษ.,สุพรรณบุรี,14.30361,99.86472,66,09-19-2019,13:00:00,30.28,0.00,31.4,11.00,0.0,000,24.3,1008.67,0.20,1007.91
48429,SUVARNABHUMI AIRPORT,สนามบินสุวรรณภูมิ,สมุทรปราการ,13.68639,100.76750,76,09-19-2019,13:00:00,31.28,0.01,29.5,8.00,9.3,350,24.8,1009.05,7.00,1008.35
48430,PRACHIN BURI,ปราจีนบุรี,ปราจีนบุรี,14.05842,101.36930,78,09-19-2019,13:00:00,33.29,0.00,30.2,7.00,3.7,030,25.8,1008.56,38.30,1007.87
48431,NAKHON RATCHASIMA,นครราชสีมา,นครราชสีมา,14.96830,102.08603,68,09-19-2019,13:00:00,30.61,0.10,31.0,10.00,3.7,080,24.4,1008.33,0.20,987.43
48432,SURIN,สุรินทร์,สุรินทร์,14.88333,103.50000,63,09-19-2019,13:00:00,30.20,0.00,32.2,12.00,0.0,000,24.2,1008.19,8.50,991.74
48433,SURIN AGROMET.,สุรินทร์ สกษ.,สุรินทร์,14.88333,103.45000,66,09-19-2019,13:00:00,31.52,0.00,32.0,10.00,3.7,090,24.9,1008.81,12.90,992.61
48434,CHOK CHAI,โชคชัย,นครราชสีมา,14.71889,102.16861,69,09-19-2019,13:00:00,30.49,0.01,30.8,8.00,5.6,150,24.4,1008.80,0.01,987.18
48435,PAKCHONG AGROMET.,ปากช่อง สกษ.,นครราชสีมา,14.64389,101.33194,93,09-19-2019,13:00:00,29.16,13.90,24.8,10.00,3.7,080,23.6,1009.65,23.80,965.99
48436,NANG RONG,นางรอง,บุรีรัมย์,14.58333,102.80000,94,09-19-2019,13:00:00,30.15,20.50,25.2,10.00,3.7,300,24.2,1008.82,21.00,988.10
48437,BURIRUM,บุรีรัมย์,บุรีรัมย์,15.22575,103.24808,100,09-19-2019,13:00:00,29.29,14.40,23.7,1.00,27.8,170,23.7,1010.84,14.40,989.72
48438,SAMUTSONGKRAM,สมุทรสงคราม,สมุทรสงคราม,13.40778,100.03222,66,09-19-2019,13:00:00,30.16,0.00,31.2,10.00,7.4,040,24.2,1008.39,1.50,1007.97
48439,KABIN BURI,กบินทร์บุรี,ปราจีนบุรี,13.98333,101.70722,80,09-19-2019,13:00:00,31.86,0.00,28.8,8.00,0.0,000,25.1,1008.91,11.20,1007.50
48440,SA KAEW,สระแก้ว,สระแก้ว,13.78889,102.03472,87,09-19-2019,13:00:00,32.08,0.40,27.5,8.00,0.0,000,25.2,1008.52,99.80,1003.58
48450,KANCHANA BURI,กาญจนบุรี,กาญจนบุรี,14.02250,99.53583,65,09-19-2019,13:00:00,31.48,0.00,32.4,9.00,9.3,020,24.9,1008.57,33.20,1005.33
48451,NAKHONPATHOM,นครปฐม,นครปฐม,14.01167,99.97000,75,09-19-2019,13:00:00,32.13,0.00,30.2,10.00,0.0,000,25.2,1008.80,26.50,1007.70
48453,BANG NA AGROMET.,กรุงเทพฯ บางนา สกษ.,กรุงเทพมหานคร,13.66639,100.60611,74,09-19-2019,13:00:00,31.44,0.00,30.0,10.00,7.4,040,24.9,1008.67,22.30,1008.37
48454,BANGKOK PORT (KLONG TOEI),กรุงเทพฯ ท่าเรือคลองเตย,กรุงเทพมหานคร,13.70694,100.56805,71,09-19-2019,13:00:00,31.76,0.00,31.0,10.00,9.3,010,25.0,1008.55,30.20,1007.87
48455,BANGKOK METROPOLIS,กรุงเทพมหานคร,กรุงเทพมหานคร,13.72639,100.56000,66,09-19-2019,13:00:00,33.28,0.00,33.1,10.00,3.7,120,25.8,1009.19,33.90,1008.71
48456,DON MUANG AIRPORT,สนามบินดอนเมือง,กรุงเทพมหานคร,13.91917,100.60500,81,09-19-2019,13:00:00,32.75,0.00,29.1,10.00,14.8,350,25.6,1009.11,24.60,1007.71
48457,PILOT STATION,นำร่อง,สมุทรปราการ,13.39389,100.59944,94,09-19-2019,13:00:00,36.25,0.01,28.4,2.00,5.6,030,27.3,1008.81,2.20,1007.13
48458,CHACHOENGSAO,ฉะเชิงเทรา,ฉะเชิงเทรา,13.51556,101.45833,80,09-19-2019,13:00:00,30.40,0.40,28.2,10.00,0.0,000,24.3,1010.95,28.20,1002.95
48459,CHON BURI,ชลบุรี,ชลบุรี,13.36667,100.98333,76,09-19-2019,13:00:00,32.30,0.20,30.0,8.00,0.0,000,25.3,1008.75,6.70,1008.47
48460,KO SICHANG,เกาะสีชัง,ชลบุรี,13.16167,100.80194,76,09-19-2019,13:00:00,31.28,0.00,29.5,10.00,5.6,270,24.8,1008.80,1.00,1005.68
48461,PHATTHAYA,พัทยา,ชลบุรี,12.92000,100.86944,76,09-19-2019,13:00:00,31.08,0.00,29.4,10.00,5.6,330,24.7,1008.84,0.00,1001.95
48462,ARANYA PRATHET,อรัญประเทศ,สระแก้ว,13.70000,102.58333,83,09-19-2019,13:00:00,32.30,0.01,28.6,10.00,7.4,230,25.3,1009.28,64.70,1003.70
48463,LAEM CHABANG,แหลมฉบัง,ชลบุรี,13.07694,100.87583,71,09-19-2019,13:00:00,31.23,0.00,30.6,9.00,13.0,020,24.8,1010.72,0.00,1001.49
48464,RATCHA BURI,ราชบุรี,ราชบุรี,13.48931,99.79239,73,09-19-2019,13:00:00,32.22,0.00,30.8,8.00,11.1,350,25.3,1009.47,2.00,1008.22
48465,PHETCHA BURI,เพชรบุรี,เพชรบุรี,12.99944,100.06056,71,09-19-2019,13:00:00,31.76,0.00,31.0,11.00,11.1,330,25.0,1008.47,0.30,1008.04
48474,NONG PHLUB AGROMET.,หนองพลับ สกษ.,ประจวบคีรีขันธ์,12.58333,99.73333,64,09-19-2019,13:00:00,30.65,0.00,32.0,10.00,7.4,230,24.5,1008.34,0.00,996.27
48475,HUA HIN,หัวหิน,ประจวบคีรีขันธ์,12.58611,99.96250,74,09-19-2019,13:00:00,31.97,0.00,30.4,10.00,7.4,120,25.2,1008.89,0.00,1008.18
48477,SATTAHIP,สัตหีบ,ชลบุรี,12.68333,100.98333,81,09-19-2019,13:00:00,32.67,0.20,29.2,8.00,5.6,060,25.5,1008.82,37.20,1006.40
48478,RAYONG,ระยอง,ระยอง,12.63222,101.34361,78,09-19-2019,13:00:00,32.13,0.00,29.5,10.00,5.6,010,25.2,1009.14,40.60,1008.62
48479,HUAI PONG AGROMET.,ห้วยโป่ง สกษ.,ระยอง,12.73333,101.13333,93,09-19-2019,13:00:00,30.17,17.20,25.5,6.00,0.0,000,24.2,1008.66,57.70,1003.47
48480,CHANTHA BURI,จันทบุรี,จันทบุรี,12.61667,102.11333,86,09-19-2019,13:00:00,35.13,1.20,29.4,7.00,0.0,000,26.7,1008.84,2.80,1008.43
48481,PHLIU  AGROMET.,พลิ้ว สกษ.,จันทบุรี,12.50861,102.17305,81,09-19-2019,13:00:00,32.55,0.60,29.0,8.00,7.4,210,25.5,1008.64,7.30,1005.89
48500,PRACHUAP KHIRIKHAN,ประจวบคีรีขันธ์,ประจวบคีรีขันธ์,11.83333,99.83333,70,09-19-2019,13:00:00,32.01,0.00,31.4,10.00,11.1,130,25.2,1009.36,0.00,1008.58
48501,TRAD,ตราด,ตราด,11.76667,102.88333,95,09-19-2019,13:00:00,31.36,10.70,25.7,5.00,5.6,070,24.8,1009.96,67.50,1009.50
48517,CHUMPHON,ชุมพร,ชุมพร,10.49875,99.18847,71,09-19-2019,13:00:00,30.31,0.00,30.0,7.00,7.4,300,24.3,1009.73,0.10,1009.05
48520,SAWI AGROMET.,สวี สกษ.,ชุมพร,10.33333,99.10000,65,09-19-2019,13:00:00,28.70,0.00,30.6,9.00,3.7,270,23.4,1009.80,0.00,1008.29
48532,RANONG,ระนอง,ระนอง,9.98333,98.61667,61,09-19-2019,13:00:00,28.23,0.00,31.5,10.00,9.3,260,23.1,1010.66,7.90,1009.76
48550,KO SAMUI,เกาะสมุย,สุราษฎร์ธานี,9.46667,100.05000,63,09-19-2019,13:00:00,29.07,0.00,31.5,12.00,13.0,270,23.6,1010.03,3.70,1009.35
48551,SURAT THANI,สุราษฎร์ธานี,สุราษฎร์ธานี,9.13556,99.15194,59,09-19-2019,13:00:00,30.70,0.00,33.7,10.00,3.7,270,24.5,1009.92,0.00,1009.14
48552,NAKHONSI THAMMARAT,นครศรีธรรมราช,นครศรีธรรมราช,8.53778,99.96389,60,09-19-2019,13:00:00,29.70,0.00,32.8,10.00,0.0,000,23.9,1009.39,9.80,1008.77
48554,NAKHONSI THAMMARAT AGROMET.,นครศรีธรรมราช สกษ.,นครศรีธรรมราช,8.35931,100.00000,70,09-19-2019,13:00:00,32.52,0.00,31.5,10.00,7.4,050,25.4,1009.34,0.00,1008.94
48555,SURAT THANI AGROMET.,สุราษฎร์ธานี สกษ.,สุราษฎร์ธานี,9.10000,99.63333,58,09-19-2019,13:00:00,27.66,0.00,32.2,10.00,9.3,270,22.7,1012.30,48.20,1008.14
48556,PHRA SANG,พระแสง สอท.,สุราษฎร์ธานี,8.57022,99.25825,72,09-19-2019,13:00:00,29.99,0.00,29.7,12.00,0.0,000,24.1,1010.80,0.40,1009.20
48557,CHAWANG,ฉวาง,นครศรีธรรมราช,8.43194,99.51194,62,09-19-2019,13:00:00,30.24,0.00,32.5,10.00,7.4,270,24.2,1009.76,1.70,1006.34
48560,PHATTHALUNG AGROMET.,พัทลุง สกษ.,พัทลุง,7.58333,100.16667,65,09-19-2019,13:00:00,30.32,0.00,31.7,9.00,11.1,110,24.3,1009.32,0.00,1007.98
48561,TAKUA PA,ตะกั่วป่า,พังงา,8.68417,98.25222,71,09-19-2019,13:00:00,28.37,0.00,29.0,10.00,11.1,240,23.2,1011.02,4.50,1010.14
48563,KRABI,กระบี่,กระบี่,8.10361,98.97528,61,09-19-2019,13:00:00,28.94,0.00,32.0,10.00,0.0,000,23.5,1009.96,0.00,1006.45
48564,PHUKET,ภูเก็ต,ภูเก็ต,7.88333,98.40000,81,09-19-2019,13:00:00,30.75,0.20,28.1,9.00,3.7,330,24.5,1010.52,0.20,1010.08
48565,PHUKET AIRPORT,ภูเก็ต (ศูนย์ฯ),ภูเก็ต,8.14500,98.31444,66,09-19-2019,13:00:00,28.67,0.00,30.3,10.00,9.3,310,23.3,1011.01,5.70,1010.02
48566,KO LANTA,เกาะลันตา,กระบี่,7.53333,99.05000,76,09-19-2019,13:00:00,32.21,0.00,30.1,10.00,5.6,230,25.3,1010.32,0.80,1009.51
48567,TRANG AIRPORT,ตรัง,ตรัง,7.51667,99.61667,65,09-19-2019,13:00:00,30.86,0.00,32.1,5.00,16.7,190,24.6,1009.60,0.00,1007.82
48568,SONGKHLA,สงขลา,สงขลา,7.18211,100.60769,72,09-19-2019,13:00:00,30.70,0.00,30.2,3.00,9.3,130,24.5,1009.58,3.50,1008.83
48569,HAT YAI AIRPORT,หาดใหญ่,สงขลา,6.91667,100.43333,60,09-19-2019,13:00:00,27.87,0.00,31.6,5.00,11.1,240,22.9,1009.67,0.80,1005.72
48570,SATUN,สตูล,สตูล,6.65000,100.08333,72,09-19-2019,13:00:00,30.99,0.00,30.2,6.00,0.0,000,24.6,1009.96,11.90,1009.29
48571,KHO HONG AGROMET.,คอหงษ์ สกษ.,สงขลา,7.00000,100.50000,61,09-19-2019,13:00:00,29.26,0.00,32.3,10.00,7.4,200,23.7,1010.68,0.20,1009.58
48574,SA DAO,สะเดา,สงขลา,6.79806,100.39056,65,09-19-2019,13:00:00,30.61,0.00,31.7,8.00,9.3,270,24.4,1009.81,0.50,1006.93
48580,PATTANI AIRPORT,ปัตตานี,ปัตตานี,6.78333,101.15000,72,09-19-2019,13:00:00,34.05,0.00,31.8,5.00,0.0,000,26.2,1009.57,10.50,1008.90
48581,YALA AGROMET.,ยะลา สกษ.,ยะลา,6.51667,101.28333,59,09-19-2019,13:00:00,29.83,0.00,33.0,1.00,5.6,250,24.0,1010.08,0.00,1006.03
48583,NARATHIWAT,นราธิวาส,นราธิวาส,6.41667,101.81667,75,09-19-2019,13:00:00,31.72,0.00,30.0,6.00,11.1,020,25.0,1009.54,3.30,1008.95
