WmoStationNumber,StationNameEnglish,StationNameThai,Province,Latitude,Longitude,Rainfall,Date,Time,VaporPressure,RelativeHumidity,StationPressure,WindDirection,Rainfall24Hr,LandVisibility,WindSpeed,DewPoint,AirTemperature,MeanSeaLevelPressure
48300,MAE HONG SON,แม่ฮ่องสอน,แม่ฮ่องสอน,19.29897,97.97578,0.00,09-19-2019,16:00:00,28.50,59,976.29,000,9.70,15.00,0.0,23.2,32.2,1006.57
48302,DOI ANG KANG,ดอยอ่างขาง,เชียงใหม่,19.93139,99.04833,0.00,09-19-2019,16:00:00,23.35,96,846.44,120,26.60,8.00,9.3,20.0,20.6,1006.79
48303,CHIANG RAI,เชียงราย,เชียงราย,19.96139,99.88139,0.00,09-19-2019,16:00:00,28.97,66,964.44,180,1.10,10.00,18.5,23.5,30.6,1007.38
48304,CHAING RAI AGROMET.,เชียงราย สกษ.,เชียงราย,19.87083,99.78278,0.00,09-19-2019,16:00:00,27.55,65,962.75,000,3.00,15.00,0.0,22.7,30.0,1007.66
48307,THUNG CHANG,ทุ่งช้าง,น่าน,19.41194,100.88353,5.90,09-19-2019,16:00:00,30.43,88,970.51,000,12.60,8.00,0.0,24.3,26.5,1008.08
48310,PHAYAO,พะเยา,พะเยา,19.13333,99.90000,4.00,09-19-2019,16:00:00,28.59,88,963.85,000,12.40,10.00,0.0,23.3,25.5,1009.03
48315,THA WANGPHA,ท่าวังผา,น่าน,19.11056,100.80250,0.00,09-19-2019,16:00:00,30.90,79,982.41,360,23.70,10.00,3.7,24.6,28.6,1008.97
48324,THOEN,เถิน,ลำปาง,17.63661,99.24475,1.00,09-19-2019,16:00:00,30.20,84,986.16,210,9.90,10.00,11.1,24.2,27.1,1007.88
48325,MAE SARIANG,แม่สะเรียง,แม่ฮ่องสอน,18.16667,97.93333,0.00,09-19-2019,16:00:00,33.01,74,983.01,000,1.80,10.00,0.0,25.7,30.9,1006.74
48327,CHIANG MAI,เชียงใหม่,เชียงใหม่,18.79000,98.97694,0.00,09-19-2019,16:00:00,28.10,59,972.93,180,85.10,10.00,3.7,23.0,32.0,1006.77
48328,LAMPANG,ลำปาง,ลำปาง,18.28333,99.51667,19.20,09-19-2019,16:00:00,30.34,87,981.39,000,76.10,10.00,0.0,24.3,26.6,1008.94
48329,LAMPHUN,ลำพูน,ลำพูน,18.56722,99.03389,0.00,09-19-2019,16:00:00,30.08,63,974.17,000,18.90,12.00,0.0,24.1,32.0,1007.10
48330,PHRAE,แพร่,แพร่,18.16667,100.16667,4.10,09-19-2019,16:00:00,33.34,76,989.22,000,6.40,8.00,0.0,25.9,30.5,1007.50
48331,NAN,น่าน,น่าน,18.77972,100.77778,0.00,09-19-2019,16:00:00,31.19,69,985.67,000,28.50,10.00,0.0,24.7,31.0,1008.18
48333,NAN AGROMET.,น่าน สกษ.,น่าน,18.86667,100.75000,0.00,09-19-2019,16:00:00,28.75,67,978.53,000,10.40,10.00,0.0,23.4,30.2,1008.07
48334,LAMPANG AGROMET.,ลำปาง สกษ.,ลำปาง,18.31667,99.28333,0.00,09-19-2019,16:00:00,31.69,79,973.79,000,19.00,8.00,0.0,25.0,29.0,1009.03
48350,LOEI AGROMET.,เลย สกษ.,เลย,17.40000,101.73333,0.00,09-19-2019,16:00:00,32.34,72,977.36,000,0.00,15.00,0.0,25.4,31.0,1006.61
48351,UTTARADIT,อุตรดิตถ์,อุตรดิตถ์,17.61667,100.10000,0.01,09-19-2019,16:00:00,31.16,76,1000.29,000,0.01,8.00,0.0,24.7,29.3,1007.54
48352,NONG KHAI,หนองคาย,หนองคาย,17.86717,102.73303,3.20,09-19-2019,16:00:00,31.68,67,987.30,090,3.20,10.00,11.1,25.0,31.8,1006.87
48353,LOEI,เลย,เลย,17.45000,101.73333,0.00,09-19-2019,16:00:00,27.63,62,978.85,360,0.20,15.00,5.6,22.7,30.9,1007.10
48354,UDON THANI,อุดรธานี,อุดรธานี,17.38333,102.80000,5.90,09-19-2019,16:00:00,30.12,65,987.51,050,6.00,10.00,3.7,24.2,31.6,1007.38
48355,SAKON NAKHON AGROMET.,สกลนคร สกษ.,สกลนคร,17.12503,104.06100,9.30,09-19-2019,16:00:00,29.58,89,986.57,000,9.70,10.00,0.0,23.9,25.9,1008.39
48356,SAKON NAKHON,สกลนคร,สกลนคร,17.15000,104.13333,6.60,09-19-2019,16:00:00,30.89,89,988.46,140,6.60,15.00,3.7,24.6,26.6,1007.98
48357,NAKHON PHANOM,นครพนม,นครพนม,17.41083,104.78250,14.90,09-19-2019,16:00:00,30.62,78,991.28,000,14.90,12.00,0.0,24.4,28.6,1007.94
48358,NAKHON PHANOM AGROMET.,นครพนม สกษ.,นครพนม,17.44306,104.77361,0.50,09-19-2019,16:00:00,32.55,72,990.94,000,0.60,12.00,0.0,25.5,31.1,1008.13
48360,NONG BUA LAM PHU,หนองบัวลำภู,หนองบัวลำภู,17.23250,102.42944,6.80,09-19-2019,16:00:00,30.84,92,981.35,000,6.80,10.00,0.0,24.6,26.0,1007.20
48372,SUKHOTHAI*,สุโขทัย,สุโขทัย,17.10611,99.80000,4.70,09-19-2019,16:00:00,35.65,86,1001.06,300,7.30,10.00,7.4,27.0,29.5,1006.80
48373,SI SAMRONG AGROMET.,ศรีสำโรง สกษ.,สุโขทัย,17.16136,99.86167,0.00,09-19-2019,16:00:00,33.17,78,1001.00,000,10.10,12.00,0.0,25.8,30.0,1007.13
48374,LOM SAK,หล่มสัก,เพชรบูรณ์,16.77361,101.24944,0.00,09-19-2019,16:00:00,27.93,61,990.76,000,0.50,12.00,0.0,22.9,31.2,1006.97
48375,MAE SOT,แม่สอด,ตาก,16.65917,98.55083,0.00,09-19-2019,16:00:00,25.93,51,982.32,100,17.20,10.00,11.1,21.7,33.3,1004.11
48376,TAK,ตาก,ตาก,16.87833,99.14333,1.00,09-19-2019,16:00:00,31.72,72,993.50,000,35.50,6.00,0.0,25.0,30.7,1007.72
48377,BHUMIBOL DAM,เขื่อนภูมิพล,ตาก,17.24389,99.00250,0.00,09-19-2019,16:00:00,32.34,72,990.78,000,11.20,8.00,0.0,25.4,31.0,1006.94
48378,PHITSANULOK,พิษณุโลก,พิษณุโลก,16.79481,100.27930,0.00,09-19-2019,16:00:00,29.25,58,1001.55,060,25.40,10.00,9.3,23.7,33.0,1006.67
48379,PHETCHABUN,เพชรบูรณ์,เพชรบูรณ์,16.43333,101.15000,0.00,09-19-2019,16:00:00,28.55,53,992.13,020,0.40,12.00,5.6,23.3,34.2,1004.99
48380,KAMPHAENG PHET,กำแพงเพชร,กำแพงเพชร,16.48681,99.52697,2.50,09-19-2019,16:00:00,34.84,77,997.88,210,54.40,10.00,3.7,26.6,31.2,1007.07
48381,KHON KAEN,ขอนแก่น,ขอนแก่น,16.46111,102.78972,0.00,09-19-2019,16:00:00,29.99,63,985.24,030,0.00,10.00,7.4,24.1,32.1,1006.55
48382,MAHASARAKHAM,มหาสารคาม,มหาสารคาม,16.24722,103.06805,0.00,09-19-2019,16:00:00,32.58,67,989.43,000,0.00,12.00,0.0,25.5,32.5,1006.61
48383,MUKDAHAN,มุกดาหาร,มุกดาหาร,16.54139,104.72889,0.50,09-19-2019,16:00:00,31.28,84,991.43,010,2.60,12.00,3.7,24.8,27.8,1007.22
48384,THA PHRA AGROMET.,ท่าพระ สกษ.,ขอนแก่น,16.33333,102.81667,0.00,09-19-2019,16:00:00,33.06,66,987.29,020,0.01,10.00,3.7,25.7,33.0,1005.79
48385,UMPHANG,อุ้มผาง,ตาก,16.02472,98.86444,1.20,09-19-2019,16:00:00,28.80,69,960.37,000,7.30,10.00,0.0,23.4,29.8,1011.12
48386,PICHIT AGROMET.,พิจิตร สกษ.,พิจิตร,16.43806,100.29250,0.00,09-19-2019,16:00:00,30.90,61,1002.50,350,5.00,10.00,7.4,24.6,33.1,1006.38
48387,DOI MU SOE AGROMET.,ดอยมูเซอร์ สกษ.,ตาก,16.75000,98.93333,0.00,09-19-2019,16:00:00,24.78,73,913.17,050,9.80,9.00,7.4,20.9,26.1,1006.87
48390,KALASIN,กาฬสินธุ์,กาฬสินธุ์,16.33250,103.58833,0.00,09-19-2019,16:00:00,31.76,71,991.26,080,0.00,10.00,11.1,25.0,31.0,1007.04
48400,NAKHON SAWAN,นครสวรรค์ ,นครสวรรค์,15.67183,100.13236,0.00,09-19-2019,16:00:00,31.92,62,1002.56,000,11.00,10.00,0.0,25.1,33.3,1006.51
48401,TAKFA AGROMET.,ตากฟ้า สกษ.,นครสวรรค์,15.34944,100.53028,0.00,09-19-2019,16:00:00,32.81,71,996.98,340,7.80,10.00,9.3,25.6,31.5,1007.50
48402,CHAINAT AGROMET.,ชัยนาท สกษ.,ชัยนาท,15.15000,100.18333,4.50,09-19-2019,16:00:00,32.13,78,1005.22,000,13.50,12.00,0.0,25.2,29.5,1007.14
48403,CHAIYAPHUM,ชัยภูมิ,ชัยภูมิ,15.80000,102.03333,0.40,09-19-2019,16:00:00,30.86,67,985.88,150,0.40,10.00,11.1,24.6,31.4,1006.42
48404,ROI ET AGROMET.,ร้อยเอ็ด สกษ.,ร้อยเอ็ด,16.07322,103.60844,0.00,09-19-2019,16:00:00,30.05,67,988.96,100,0.00,11.00,3.7,24.1,31.0,1006.38
48405,ROI ET,ร้อยเอ็ด,ร้อยเอ็ด,16.02000,103.74389,0.00,09-19-2019,16:00:00,31.06,67,990.32,100,0.00,10.00,3.7,24.7,31.5,1006.23
48407,UBON RATCHATHANI,อุบลราชธานี (ศูนย์ฯ),อุบลราชธานี,15.25000,104.86667,0.00,09-19-2019,16:00:00,29.31,62,992.73,000,0.00,10.00,0.0,23.7,31.9,1006.53
48408,UBON RATCHATHANI AGROMET.,อุบลราชธานี สกษ.,อุบลราชธานี,15.23914,105.02350,0.00,09-19-2019,16:00:00,30.78,69,992.22,000,0.00,10.00,0.0,24.5,30.8,1006.86
48409,SI SAKET AGROMET.,ศรีสะเกษ,ศรีสะเกษ,15.00000,104.05000,0.00,09-19-2019,16:00:00,34.98,76,992.52,220,1.20,10.00,13.0,26.7,31.4,1006.98
48410,UTHAITHANI,อุทัยธานี,อุทัยธานี,15.37417,100.03889,0.00,09-19-2019,16:00:00,32.30,73,1003.53,"{'0': '   ', '@attributes': {'Unit': 'degree'}}",26.00,10.00,0.0,25.3,30.7,1006.51
48413,WICHIAN BURI,วิเชียรบุรี,เพชรบูรณ์,15.65700,101.10800,0.00,09-19-2019,16:00:00,27.59,54,998.00,040,7.30,10.00,9.3,22.7,33.3,1005.78
48415,AYUTTHAYA,พระนครศรีอยุธยา,พระนครศรีอยุธยา,14.53472,100.72500,0.10,09-19-2019,16:00:00,33.66,86,1005.86,000,3.00,6.00,0.0,26.0,28.7,1006.96
48416,THA TUM,ท่าตูม,สุรินทร์,15.31667,103.68333,0.00,09-19-2019,16:00:00,34.90,76,992.31,000,1.80,8.00,0.0,26.6,31.5,1006.78
48417,NAKORNNAYOK,นครนายก,นครนายก,14.36222,101.39278,1.00,09-19-2019,16:00:00,23.64,90,873.04,000,1.60,7.00,0.0,20.2,21.9,1007.03
48418,BUA CHUM,บัวชุม  ,ลพบุรี,15.26667,101.18736,0.00,09-19-2019,16:00:00,33.17,78,1000.71,000,9.80,10.00,0.0,25.8,30.0,1006.53
48419,PATHUMTHANI,ปทุมธานี สกษ.,ปทุมธานี,14.10000,100.61667,0.00,09-19-2019,16:00:00,33.34,76,1006.16,050,49.00,8.00,9.3,25.9,30.5,1006.95
48420,Samut Prakarn,สมุทรปราการ สกษ.,สมุทรปราการ,13.51667,100.76167,0.00,09-19-2019,16:00:00,31.23,71,1006.12,120,24.70,10.00,3.7,24.8,30.6,1006.56
48421,THONG PHAPHUM,ทองผาภูมิ,กาญจนบุรี,14.74222,98.63639,0.30,09-19-2019,16:00:00,34.21,82,995.49,000,0.30,10.00,0.0,26.3,29.8,1006.68
48425,SUPHAN BURI,สุพรรณบุรี,สุพรรณบุรี,14.47444,100.13889,0.00,09-19-2019,16:00:00,33.43,74,1005.81,000,8.90,12.00,0.0,25.9,31.1,1006.81
48426,LOP BURI,ลพบุรี,ลพบุรี,14.79972,100.64500,0.00,09-19-2019,16:00:00,33.05,76,1005.11,160,8.60,7.00,3.7,25.7,30.5,1006.91
48427,U THONG AGROMET.,อู่ทอง สกษ.,สุพรรณบุรี,14.30361,99.86472,0.00,09-19-2019,16:00:00,30.28,66,1005.84,000,0.20,10.00,0.0,24.3,31.4,1006.59
48429,SUVARNABHUMI AIRPORT,สนามบินสุวรรณภูมิ,สมุทรปราการ,13.68639,100.76750,0.00,09-19-2019,16:00:00,29.45,67,1006.04,050,7.00,10.00,7.4,23.8,30.7,1006.74
48430,PRACHIN BURI,ปราจีนบุรี,ปราจีนบุรี,14.05842,101.36930,0.00,09-19-2019,16:00:00,31.85,77,1007.45,000,38.30,7.00,0.0,25.1,29.5,1008.15
48431,NAKHON RATCHASIMA,นครราชสีมา,นครราชสีมา,14.96830,102.08603,3.60,09-19-2019,16:00:00,30.53,82,986.06,270,3.80,10.00,3.7,24.4,27.7,1007.17
48432,SURIN,สุรินทร์,สุรินทร์,14.88333,103.50000,4.80,09-19-2019,16:00:00,30.02,84,990.60,000,13.30,7.00,0.0,24.1,27.0,1007.32
48433,SURIN AGROMET.,สุรินทร์ สกษ.,สุรินทร์,14.88333,103.45000,2.20,09-19-2019,16:00:00,32.35,85,991.45,080,15.10,8.00,9.3,25.4,28.2,1007.82
48434,CHOK CHAI,โชคชัย,นครราชสีมา,14.71889,102.16861,3.30,09-19-2019,16:00:00,31.46,80,985.34,000,3.30,10.00,0.0,24.9,28.6,1007.08
48435,PAKCHONG AGROMET.,ปากช่อง สกษ.,นครราชสีมา,14.64389,101.33194,0.50,09-19-2019,16:00:00,27.79,88,964.01,100,24.30,10.00,3.7,22.8,24.9,1007.56
48436,NANG RONG,นางรอง,บุรีรัมย์,14.58333,102.80000,0.00,09-19-2019,16:00:00,30.31,71,986.32,030,21.00,10.00,3.7,24.3,30.0,1006.67
48437,BURIRUM,บุรีรัมย์,บุรีรัมย์,15.22575,103.24808,55.00,09-19-2019,16:00:00,33.41,91,987.99,160,69.40,9.00,11.1,25.9,27.6,1008.80
48438,SAMUTSONGKRAM,สมุทรสงคราม,สมุทรสงคราม,13.40778,100.03222,0.00,09-19-2019,16:00:00,31.80,72,1006.21,160,1.50,10.00,14.8,25.1,30.6,1006.64
48439,KABIN BURI,กบินทร์บุรี,ปราจีนบุรี,13.98333,101.70722,0.00,09-19-2019,16:00:00,32.55,81,1005.57,000,11.20,10.00,0.0,25.5,29.0,1006.98
48440,SA KAEW,สระแก้ว,สระแก้ว,13.78889,102.03472,0.00,09-19-2019,16:00:00,33.83,83,1001.94,000,99.30,8.00,0.0,26.1,29.2,1006.84
48450,KANCHANA BURI,กาญจนบุรี,กาญจนบุรี,14.02250,99.53583,0.00,09-19-2019,16:00:00,32.01,70,1002.80,000,33.20,9.00,0.0,25.2,31.4,1006.04
48451,NAKHONPATHOM,นครปฐม,นครปฐม,14.01167,99.97000,0.00,09-19-2019,16:00:00,32.86,70,1005.58,000,26.50,10.00,0.0,25.6,31.8,1006.67
48453,BANG NA AGROMET.,กรุงเทพฯ บางนา สกษ.,กรุงเทพมหานคร,13.66639,100.60611,0.00,09-19-2019,16:00:00,30.41,65,1006.39,040,22.30,8.00,7.4,24.3,31.6,1006.68
48454,BANGKOK PORT (KLONG TOEI),กรุงเทพฯ ท่าเรือคลองเตย,กรุงเทพมหานคร,13.70694,100.56805,0.00,09-19-2019,16:00:00,30.57,67,1006.12,040,30.20,10.00,7.4,24.4,31.4,1006.80
48455,BANGKOK METROPOLIS,กรุงเทพมหานคร,กรุงเทพมหานคร,13.72639,100.56000,0.00,09-19-2019,16:00:00,29.63,64,1005.94,090,33.90,10.00,3.7,23.9,31.5,1006.42
48456,DON MUANG AIRPORT,สนามบินดอนเมือง,กรุงเทพมหานคร,13.91917,100.60500,0.00,09-19-2019,16:00:00,31.47,70,1005.55,070,24.20,10.00,14.8,24.9,31.0,1006.94
48457,PILOT STATION,นำร่อง,สมุทรปราการ,13.39389,100.59944,0.00,09-19-2019,16:00:00,38.18,95,1005.34,160,2.20,3.00,9.3,28.2,29.0,1007.01
48458,CHACHOENGSAO,ฉะเชิงเทรา,ฉะเชิงเทรา,13.51556,101.45833,0.00,09-19-2019,16:00:00,30.72,75,1000.86,000,28.20,10.00,0.0,24.5,29.5,1008.81
48459,CHON BURI,ชลบุรี,ชลบุรี,13.36667,100.98333,0.00,09-19-2019,16:00:00,33.17,78,1006.48,300,6.70,8.00,5.6,25.8,30.0,1006.76
48460,KO SICHANG,เกาะสีชัง,ชลบุรี,13.16167,100.80194,0.00,09-19-2019,16:00:00,28.50,65,1003.60,000,1.00,10.00,0.0,23.2,30.5,1006.70
48461,PHATTHAYA,พัทยา,ชลบุรี,12.92000,100.86944,0.00,09-19-2019,16:00:00,32.39,83,1000.36,000,0.00,10.00,0.0,25.4,28.5,1007.27
48462,ARANYA PRATHET,อรัญประเทศ,สระแก้ว,13.70000,102.58333,0.00,09-19-2019,16:00:00,32.75,75,1001.98,000,24.70,10.00,0.0,25.6,30.5,1007.51
48463,LAEM CHABANG,แหลมฉบัง,ชลบุรี,13.07694,100.87583,0.00,09-19-2019,16:00:00,30.79,72,999.41,310,0.00,9.00,5.6,24.5,30.1,1008.65
48464,RATCHA BURI,ราชบุรี,ราชบุรี,13.48931,99.79239,3.20,09-19-2019,16:00:00,36.47,88,1006.43,040,5.20,10.00,3.7,27.4,29.6,1007.69
48465,PHETCHA BURI,เพชรบุรี,เพชรบุรี,12.99944,100.06056,0.00,09-19-2019,16:00:00,34.21,74,1006.54,120,0.30,11.00,5.6,26.3,31.6,1006.97
48474,NONG PHLUB AGROMET.,หนองพลับ สกษ.,ประจวบคีรีขันธ์,12.58333,99.73333,25.40,09-19-2019,16:00:00,31.63,96,995.87,230,25.40,8.00,11.1,25.0,25.7,1008.19
48475,HUA HIN,หัวหิน,ประจวบคีรีขันธ์,12.58611,99.96250,0.00,09-19-2019,16:00:00,33.20,80,1006.82,130,0.00,10.00,5.6,25.8,29.6,1007.52
48477,SATTAHIP,สัตหีบ,ชลบุรี,12.68333,100.98333,20.40,09-19-2019,16:00:00,30.40,89,1005.20,000,37.80,7.00,0.0,24.3,26.2,1007.64
48478,RAYONG,ระยอง,ระยอง,12.63222,101.34361,2.70,09-19-2019,16:00:00,32.32,86,1007.01,000,41.30,10.00,0.0,25.3,27.9,1007.53
48479,HUAI PONG AGROMET.,ห้วยโป่ง สกษ.,ระยอง,12.73333,101.13333,3.70,09-19-2019,16:00:00,31.03,92,1002.14,120,60.80,7.00,1.9,24.7,26.1,1007.31
48480,CHANTHA BURI,จันทบุรี,จันทบุรี,12.61667,102.11333,0.20,09-19-2019,16:00:00,32.42,82,1007.18,210,3.00,8.00,5.6,25.4,28.8,1007.59
48481,PHLIU  AGROMET.,พลิ้ว สกษ.,จันทบุรี,12.50861,102.17305,0.20,09-19-2019,16:00:00,33.37,88,1004.91,140,7.50,8.00,7.4,25.9,28.0,1007.67
48500,PRACHUAP KHIRIKHAN,ประจวบคีรีขันธ์,ประจวบคีรีขันธ์,11.83333,99.83333,0.00,09-19-2019,16:00:00,31.60,70,1005.84,000,0.00,10.00,0.0,25.0,31.2,1006.61
48501,TRAD,ตราด,ตราด,11.76667,102.88333,1.50,09-19-2019,16:00:00,31.33,91,1008.13,030,46.90,8.00,5.6,24.8,26.4,1008.59
48517,CHUMPHON,ชุมพร,ชุมพร,10.49875,99.18847,0.50,09-19-2019,16:00:00,30.56,81,1007.73,200,0.50,7.00,3.7,24.4,28.0,1008.41
48520,SAWI AGROMET.,สวี สกษ.,ชุมพร,10.33333,99.10000,0.00,09-19-2019,16:00:00,29.03,68,1006.75,250,0.00,9.00,3.7,23.5,30.2,1008.26
48532,RANONG,ระนอง,ระนอง,9.98333,98.61667,0.00,09-19-2019,16:00:00,28.78,74,1008.70,240,6.30,10.00,11.1,23.4,28.5,1009.62
48550,KO SAMUI,เกาะสมุย,สุราษฎร์ธานี,9.46667,100.05000,0.00,09-19-2019,16:00:00,30.98,67,1007.73,300,3.70,12.00,7.4,24.6,31.6,1008.41
48551,SURAT THANI,สุราษฎร์ธานี,สุราษฎร์ธานี,9.13556,99.15194,0.00,09-19-2019,16:00:00,29.60,76,1008.44,300,0.00,10.00,7.4,23.9,28.5,1009.23
48552,NAKHONSI THAMMARAT,นครศรีธรรมราช,นครศรีธรรมราช,8.53778,99.96389,0.00,09-19-2019,16:00:00,29.37,58,1006.91,330,0.00,10.00,7.4,23.7,33.2,1007.53
48554,NAKHONSI THAMMARAT AGROMET.,นครศรีธรรมราช สกษ.,นครศรีธรรมราช,8.35931,100.00000,0.00,09-19-2019,16:00:00,32.08,63,1007.18,000,0.00,10.00,0.0,25.2,33.1,1007.57
48555,SURAT THANI AGROMET.,สุราษฎร์ธานี สกษ.,สุราษฎร์ธานี,9.10000,99.63333,0.00,09-19-2019,16:00:00,28.91,68,1006.42,290,48.20,5.00,11.1,23.5,30.0,1010.61
48556,PHRA SANG,พระแสง สอท.,สุราษฎร์ธานี,8.57022,99.25825,0.40,09-19-2019,16:00:00,28.02,75,1006.32,000,0.80,10.00,0.0,23.0,27.8,1007.92
48557,CHAWANG,ฉวาง,นครศรีธรรมราช,8.43194,99.51194,0.60,09-19-2019,16:00:00,32.55,85,1005.45,000,2.30,8.00,0.0,25.5,28.3,1008.92
48560,PHATTHALUNG AGROMET.,พัทลุง สกษ.,พัทลุง,7.58333,100.16667,11.20,09-19-2019,16:00:00,30.71,94,1007.30,130,11.20,7.00,7.4,24.5,25.5,1008.66
48561,TAKUA PA,ตะกั่วป่า,พังงา,8.68417,98.25222,0.00,09-19-2019,16:00:00,30.97,84,1008.59,000,4.50,10.00,0.0,24.6,27.5,1009.48
48563,KRABI,กระบี่,กระบี่,8.10361,98.97528,0.00,09-19-2019,16:00:00,29.83,71,1005.31,290,0.00,10.00,5.6,24.0,29.9,1008.84
48564,PHUKET,ภูเก็ต,ภูเก็ต,7.88333,98.40000,0.00,09-19-2019,16:00:00,27.25,62,1008.48,280,0.20,10.00,7.4,22.5,30.7,1008.91
48565,PHUKET AIRPORT,ภูเก็ต (ศูนย์ฯ),ภูเก็ต,8.14500,98.31444,0.00,09-19-2019,16:00:00,28.91,72,1008.83,300,5.70,10.00,9.3,23.5,29.0,1009.82
48566,KO LANTA,เกาะลันตา,กระบี่,7.53333,99.05000,0.00,09-19-2019,16:00:00,30.63,74,1008.26,180,0.80,10.00,11.1,24.4,29.6,1009.06
48567,TRANG AIRPORT,ตรัง,ตรัง,7.51667,99.61667,0.00,09-19-2019,16:00:00,28.61,69,1007.21,190,0.00,6.00,14.8,23.3,29.7,1009.01
48568,SONGKHLA,สงขลา,สงขลา,7.18211,100.60769,0.01,09-19-2019,16:00:00,30.46,70,1007.61,020,3.50,4.00,5.6,24.3,30.5,1008.35
48569,HAT YAI AIRPORT,หาดใหญ่,สงขลา,6.91667,100.43333,0.00,09-19-2019,16:00:00,27.93,65,1004.33,240,0.80,7.00,9.3,22.9,30.2,1008.29
48570,SATUN,สตูล,สตูล,6.65000,100.08333,0.00,09-19-2019,16:00:00,31.15,73,1008.17,260,4.80,6.00,5.6,24.7,30.0,1008.85
48571,KHO HONG AGROMET.,คอหงษ์ สกษ.,สงขลา,7.00000,100.50000,0.00,09-19-2019,16:00:00,28.42,65,1007.30,170,0.20,10.00,7.4,23.2,30.6,1008.40
48574,SA DAO,สะเดา,สงขลา,6.79806,100.39056,0.00,09-19-2019,16:00:00,31.40,75,1005.49,210,0.50,8.00,5.6,24.9,29.7,1008.39
48580,PATTANI AIRPORT,ปัตตานี,ปัตตานี,6.78333,101.15000,28.20,09-19-2019,16:00:00,31.55,95,1007.88,190,36.50,4.00,7.4,24.9,25.8,1008.58
48581,YALA AGROMET.,ยะลา สกษ.,ยะลา,6.51667,101.28333,0.01,09-19-2019,16:00:00,30.15,82,1004.92,290,0.01,2.00,5.6,24.2,27.5,1009.05
48583,NARATHIWAT,นราธิวาส,นราธิวาส,6.41667,101.81667,0.00,09-19-2019,16:00:00,32.13,78,1007.63,000,3.30,6.00,0.0,25.2,29.5,1008.22
