WmoStationNumber,StationNameEnglish,StationNameThai,Province,Latitude,Longitude,WindSpeed,Date,Time,StationPressure,WindDirection,Rainfall24Hr,LandVisibility,AirTemperature,MeanSeaLevelPressure,VaporPressure,Rainfall,DewPoint,RelativeHumidity
48300,MAE HONG SON,แม่ฮ่องสอน,แม่ฮ่องสอน,19.29897,97.97578,0.0,09-15-2019,16:00:00,972.93,000,0.80,9.00,33.9,1002.94,31.72,0.01,25.0,60
48302,DOI ANG KANG,ดอยอ่างขาง,เชียงใหม่,19.93139,99.04833,13.0,09-15-2019,16:00:00,844.67,100,0.00,8.00,22.6,1003.53,19.01,0.00,16.7,69
48303,CHIANG RAI,เชียงราย,เชียงราย,19.96139,99.88139,9.3,09-15-2019,16:00:00,961.51,100,10.50,10.00,33.5,1003.91,25.76,0.00,21.6,50
48304,CHAING RAI AGROMET.,เชียงราย สกษ.,เชียงราย,19.87083,99.78278,5.6,09-15-2019,16:00:00,959.46,150,10.20,15.00,33.2,1003.74,27.11,0.00,22.4,53
48307,THUNG CHANG,ทุ่งช้าง,น่าน,19.41194,100.88353,0.0,09-15-2019,16:00:00,967.33,000,42.20,12.00,32.5,1004.03,31.69,0.00,25.0,65
48310,PHAYAO,พะเยา,พะเยา,19.13333,99.90000,3.7,09-15-2019,16:00:00,960.15,030,0.00,11.00,31.6,1004.25,30.69,0.00,24.5,66
48315,THA WANGPHA,ท่าวังผา,น่าน,19.11056,100.80250,0.0,09-15-2019,16:00:00,978.21,000,0.00,12.00,35.9,1004.02,30.07,0.00,24.1,51
48324,THOEN,เถิน,ลำปาง,17.63661,99.24475,0.0,09-15-2019,16:00:00,982.87,000,4.70,13.00,33.7,1004.05,29.25,0.00,23.7,56
48325,MAE SARIANG,แม่สะเรียง,แม่ฮ่องสอน,18.16667,97.93333,0.0,09-15-2019,16:00:00,979.72,000,0.00,10.00,35.5,1003.02,27.19,0.00,22.5,47
48327,CHIANG MAI,เชียงใหม่,เชียงใหม่,18.79000,98.97694,5.6,09-15-2019,16:00:00,970.21,210,0.00,10.00,34.3,1003.70,26.21,0.00,21.9,48
48328,LAMPANG,ลำปาง,ลำปาง,18.28333,99.51667,0.0,09-15-2019,16:00:00,977.18,000,0.00,10.00,34.2,1003.93,28.26,0.00,23.1,53
48329,LAMPHUN,ลำพูน,ลำพูน,18.56722,99.03389,0.0,09-15-2019,16:00:00,971.10,000,0.00,15.00,34.3,1003.67,29.62,0.00,23.9,55
48330,PHRAE,แพร่,แพร่,18.16667,100.16667,1.9,09-15-2019,16:00:00,986.36,090,17.80,12.00,25.7,1004.88,31.36,17.80,24.8,95
48331,NAN,น่าน,น่าน,18.77972,100.77778,7.4,09-15-2019,16:00:00,981.69,100,0.00,10.00,35.3,1003.79,27.36,0.00,22.6,48
48333,NAN AGROMET.,น่าน สกษ.,น่าน,18.86667,100.75000,5.6,09-15-2019,16:00:00,974.43,040,0.00,12.00,34.9,1003.39,26.55,0.00,22.1,47
48334,LAMPANG AGROMET.,ลำปาง สกษ.,ลำปาง,18.31667,99.28333,0.0,09-15-2019,16:00:00,969.21,000,0.00,8.00,33.0,1003.82,29.25,0.00,23.7,58
48350,LOEI AGROMET.,เลย สกษ.,เลย,17.40000,101.73333,11.1,09-15-2019,16:00:00,974.79,150,0.00,17.00,32.0,1003.86,31.52,0.00,24.9,66
48351,UTTARADIT,อุตรดิตถ์,อุตรดิตถ์,17.61667,100.10000,0.0,09-15-2019,16:00:00,997.11,000,0.00,10.00,31.0,1004.30,28.65,0.00,23.3,64
48352,NONG KHAI,หนองคาย,หนองคาย,17.86717,102.73303,11.1,09-15-2019,16:00:00,984.95,140,0.00,18.00,33.7,1004.35,28.68,0.00,23.3,55
48353,LOEI,เลย,เลย,17.45000,101.73333,11.1,09-15-2019,16:00:00,975.92,070,3.50,15.00,33.8,1003.82,25.51,0.00,21.4,49
48354,UDON THANI,อุดรธานี,อุดรธานี,17.38333,102.80000,3.7,09-15-2019,16:00:00,985.21,080,16.70,13.00,33.3,1004.91,25.11,0.00,21.2,49
48355,SAKON NAKHON AGROMET.,สกลนคร สกษ.,สกลนคร,17.12503,104.06100,5.6,09-15-2019,16:00:00,983.54,070,0.00,15.00,32.9,1004.78,27.36,0.00,22.6,55
48356,SAKON NAKHON,สกลนคร,สกลนคร,17.15000,104.13333,5.6,09-15-2019,16:00:00,985.34,080,0.00,15.00,32.5,1004.42,24.16,0.00,20.5,49
48357,NAKHON PHANOM,นครพนม,นครพนม,17.41083,104.78250,3.7,09-15-2019,16:00:00,988.55,250,0.01,12.00,33.2,1004.92,26.84,0.01,22.3,53
48358,NAKHON PHANOM AGROMET.,นครพนม สกษ.,นครพนม,17.44306,104.77361,3.7,09-15-2019,16:00:00,987.97,180,0.00,10.00,32.8,1005.01,26.61,0.00,22.1,54
48360,NONG BUA LAM PHU,หนองบัวลำภู,หนองบัวลำภู,17.23250,102.42944,9.3,09-15-2019,16:00:00,978.14,060,5.00,15.00,32.5,1003.35,26.86,0.00,22.3,55
48372,SUKHOTHAI*,สุโขทัย,สุโขทัย,17.10611,99.80000,9.3,09-15-2019,16:00:00,999.42,080,0.00,10.00,31.0,1005.12,33.81,0.00,26.1,75
48373,SI SAMRONG AGROMET.,ศรีสำโรง สกษ.,สุโขทัย,17.16136,99.86167,11.1,09-15-2019,16:00:00,998.97,270,0.60,10.00,30.5,1005.07,32.75,0.00,25.6,75
48374,LOM SAK,หล่มสัก,เพชรบูรณ์,16.77361,101.24944,0.0,09-15-2019,16:00:00,988.21,000,0.00,12.00,35.0,1004.18,27.89,0.00,22.9,50
48375,MAE SOT,แม่สอด,ตาก,16.65917,98.55083,13.0,09-15-2019,16:00:00,980.00,070,7.00,10.00,34.5,1001.66,23.85,0.00,20.3,44
48376,TAK,ตาก,ตาก,16.87833,99.14333,5.6,09-15-2019,16:00:00,990.49,140,11.00,8.00,34.0,1004.51,30.46,0.00,24.3,57
48377,BHUMIBOL DAM,เขื่อนภูมิพล,ตาก,17.24389,99.00250,0.0,09-15-2019,16:00:00,988.01,000,0.00,8.00,34.0,1003.97,29.87,0.00,24.0,56
48378,PHITSANULOK,พิษณุโลก,พิษณุโลก,16.79481,100.27930,3.7,09-15-2019,16:00:00,999.40,210,36.10,10.00,30.5,1004.55,34.22,29.80,26.3,78
48379,PHETCHABUN,เพชรบูรณ์,เพชรบูรณ์,16.43333,101.15000,0.0,09-15-2019,16:00:00,989.62,000,0.00,12.00,37.7,1002.31,25.38,0.00,21.3,39
48380,KAMPHAENG PHET,กำแพงเพชร,กำแพงเพชร,16.48681,99.52697,9.3,09-15-2019,16:00:00,995.20,080,0.00,12.00,33.5,1004.30,30.57,0.00,24.4,59
48381,KHON KAEN,ขอนแก่น,ขอนแก่น,16.46111,102.78972,7.4,09-15-2019,16:00:00,983.76,060,0.00,10.00,33.4,1004.95,27.51,0.00,22.7,53
48382,MAHASARAKHAM,มหาสารคาม,มหาสารคาม,16.24722,103.06805,9.3,09-15-2019,16:00:00,986.65,230,0.00,12.00,34.0,1003.70,29.87,0.00,24.0,56
48383,MUKDAHAN,มุกดาหาร,มุกดาหาร,16.54139,104.72889,5.6,09-15-2019,16:00:00,987.99,110,3.20,12.00,33.1,1003.45,26.37,0.00,22.0,52
48384,THA PHRA AGROMET.,ท่าพระ สกษ.,ขอนแก่น,16.33333,102.81667,0.0,09-15-2019,16:00:00,985.25,000,0.00,12.00,33.9,1003.65,32.92,0.00,25.6,62
48385,UMPHANG,อุ้มผาง,ตาก,16.02472,98.86444,0.0,09-15-2019,16:00:00,954.42,000,26.40,10.00,32.5,1004.40,26.04,0.00,21.8,53
48386,PICHIT AGROMET.,พิจิตร สกษ.,พิจิตร,16.43806,100.29250,11.1,09-15-2019,16:00:00,1000.37,180,2.20,8.00,31.0,1004.27,32.93,1.30,25.7,73
48387,DOI MU SOE AGROMET.,ดอยมูเซอร์ สกษ.,ตาก,16.75000,98.93333,0.0,09-15-2019,16:00:00,911.27,000,2.10,9.00,28.1,1004.13,24.65,0.00,20.9,65
48390,KALASIN,กาฬสินธุ์,กาฬสินธุ์,16.33250,103.58833,0.0,09-15-2019,16:00:00,988.96,000,0.40,12.00,33.0,1004.59,33.66,0.00,26.0,67
48400,NAKHON SAWAN,นครสวรรค์ ,นครสวรรค์,15.67183,100.13236,0.0,09-15-2019,16:00:00,1000.08,000,0.00,12.00,34.9,1004.00,32.09,0.00,25.2,57
48401,TAKFA AGROMET.,ตากฟ้า สกษ.,นครสวรรค์,15.34944,100.53028,3.7,09-15-2019,16:00:00,994.12,020,4.90,10.00,33.2,1004.56,30.53,0.00,24.4,60
48402,CHAINAT AGROMET.,ชัยนาท สกษ.,ชัยนาท,15.15000,100.18333,3.7,09-15-2019,16:00:00,1002.13,270,5.50,12.00,34.9,1004.00,29.42,0.00,23.8,53
48403,CHAIYAPHUM,ชัยภูมิ,ชัยภูมิ,15.80000,102.03333,7.4,09-15-2019,16:00:00,983.76,060,0.00,12.00,33.6,1004.11,26.23,0.00,21.9,50
48404,ROI ET AGROMET.,ร้อยเอ็ด สกษ.,ร้อยเอ็ด,16.07322,103.60844,0.0,09-15-2019,16:00:00,987.00,000,0.00,10.00,32.0,1004.33,28.94,0.00,23.5,61
48405,ROI ET,ร้อยเอ็ด,ร้อยเอ็ด,16.02000,103.74389,9.3,09-15-2019,16:00:00,988.44,110,0.00,10.00,32.7,1004.26,29.79,0.00,24.0,60
48407,UBON RATCHATHANI,อุบลราชธานี (ศูนย์ฯ),อุบลราชธานี,15.25000,104.86667,7.4,09-15-2019,16:00:00,990.58,130,1.10,10.00,33.0,1004.30,29.25,0.00,23.7,58
48408,UBON RATCHATHANI AGROMET.,อุบลราชธานี สกษ.,อุบลราชธานี,15.23914,105.02350,0.0,09-15-2019,16:00:00,990.56,000,0.80,10.00,32.0,1005.12,32.10,0.00,25.2,68
48409,SI SAKET AGROMET.,ศรีสะเกษ,ศรีสะเกษ,15.00000,104.05000,0.0,09-15-2019,16:00:00,991.32,000,0.00,10.00,29.5,1005.86,32.13,0.00,25.2,78
48410,UTHAITHANI,อุทัยธานี,อุทัยธานี,15.37417,100.03889,0.0,09-15-2019,16:00:00,1001.38,"{'0': '   ', '@attributes': {'Unit': 'degree'}}",3.60,10.00,33.2,1004.33,31.70,0.00,25.0,62
48413,WICHIAN BURI,วิเชียรบุรี,เพชรบูรณ์,15.65700,101.10800,3.7,09-15-2019,16:00:00,995.53,090,2.50,10.00,35.0,1003.25,27.32,0.00,22.5,49
48415,AYUTTHAYA,พระนครศรีอยุธยา,พระนครศรีอยุธยา,14.53472,100.72500,5.6,09-15-2019,16:00:00,1004.15,280,4.40,8.00,28.4,1005.25,31.62,4.40,25.0,82
48416,THA TUM,ท่าตูม,สุรินทร์,15.31667,103.68333,0.0,09-15-2019,16:00:00,990.73,000,1.50,5.00,28.0,1005.34,34.81,1.50,26.6,92
48417,NAKORNNAYOK,นครนายก,นครนายก,14.36222,101.39278,1.9,09-15-2019,16:00:00,871.03,020,0.20,8.00,23.5,1003.94,23.75,0.00,20.3,82
48418,BUA CHUM,บัวชุม  ,ลพบุรี,15.26667,101.18736,5.6,09-15-2019,16:00:00,997.99,120,0.00,10.00,34.0,1003.72,31.34,0.00,24.8,59
48419,PATHUMTHANI,ปทุมธานี สกษ.,ปทุมธานี,14.10000,100.61667,5.6,09-15-2019,16:00:00,1003.09,060,0.40,12.00,34.7,1003.87,33.48,0.00,25.9,61
48420,Samut Prakarn,สมุทรปราการ สกษ.,สมุทรปราการ,13.51667,100.76167,14.8,09-15-2019,16:00:00,1003.91,210,2.30,10.00,30.0,1004.35,30.03,0.00,24.1,71
48421,THONG PHAPHUM,ทองผาภูมิ,กาญจนบุรี,14.74222,98.63639,0.0,09-15-2019,16:00:00,992.70,000,22.80,10.00,34.0,1003.71,29.87,0.00,24.0,56
48425,SUPHAN BURI,สุพรรณบุรี,สุพรรณบุรี,14.47444,100.13889,3.7,09-15-2019,16:00:00,1002.80,040,0.00,12.00,36.0,1003.78,31.19,0.00,24.7,52
48426,LOP BURI,ลพบุรี,ลพบุรี,14.79972,100.64500,5.6,09-15-2019,16:00:00,1002.22,190,3.20,9.00,32.3,1004.01,31.27,0.00,24.8,65
48427,U THONG AGROMET.,อู่ทอง สกษ.,สุพรรณบุรี,14.30361,99.86472,0.0,09-15-2019,16:00:00,1002.94,000,1.00,9.00,34.6,1003.69,28.80,0.00,23.4,52
48429,SUVARNABHUMI AIRPORT,สนามบินสุวรรณภูมิ,สมุทรปราการ,13.68639,100.76750,14.8,09-15-2019,16:00:00,1003.28,190,10.00,10.00,31.4,1003.97,31.72,0.00,25.0,69
48430,PRACHIN BURI,ปราจีนบุรี,ปราจีนบุรี,14.05842,101.36930,3.7,09-15-2019,16:00:00,1003.24,330,7.50,9.00,30.5,1003.93,30.18,0.01,24.2,69
48431,NAKHON RATCHASIMA,นครราชสีมา,นครราชสีมา,14.96830,102.08603,11.1,09-15-2019,16:00:00,983.47,100,0.00,12.00,32.1,1004.22,27.46,0.00,22.6,57
48432,SURIN,สุรินทร์,สุรินทร์,14.88333,103.50000,0.0,09-15-2019,16:00:00,988.49,000,0.50,8.00,31.0,1004.95,32.34,0.50,25.4,72
48433,SURIN AGROMET.,สุรินทร์ สกษ.,สุรินทร์,14.88333,103.45000,5.6,09-15-2019,16:00:00,989.16,090,11.40,14.00,31.5,1005.32,31.93,0.00,25.1,69
48434,CHOK CHAI,โชคชัย,นครราชสีมา,14.71889,102.16861,9.3,09-15-2019,16:00:00,982.73,090,3.00,10.00,32.0,1004.17,29.22,0.00,23.7,61
48435,PAKCHONG AGROMET.,ปากช่อง สกษ.,นครราชสีมา,14.64389,101.33194,11.1,09-15-2019,16:00:00,961.46,040,15.30,15.00,31.4,1003.96,26.40,0.60,22.0,57
48436,NANG RONG,นางรอง,บุรีรัมย์,14.58333,102.80000,7.4,09-15-2019,16:00:00,984.52,070,0.40,10.00,31.0,1004.77,29.48,0.40,23.8,66
48437,BURIRUM,บุรีรัมย์,บุรีรัมย์,15.22575,103.24808,3.7,09-15-2019,16:00:00,985.83,060,2.20,10.00,25.5,1006.74,32.62,2.20,25.5,100
48438,SAMUTSONGKRAM,สมุทรสงคราม,สมุทรสงคราม,13.40778,100.03222,14.8,09-15-2019,16:00:00,1003.67,190,6.00,10.00,30.6,1004.09,33.85,0.00,26.1,77
48439,KABIN BURI,กบินทร์บุรี,ปราจีนบุรี,13.98333,101.70722,0.0,09-15-2019,16:00:00,1002.50,000,23.70,11.00,31.0,1003.89,33.81,10.50,26.1,75
48440,SA KAEW,สระแก้ว,สระแก้ว,13.78889,102.03472,0.0,09-15-2019,16:00:00,998.90,000,8.40,10.00,32.6,1003.73,33.99,0.10,26.2,69
48450,KANCHANA BURI,กาญจนบุรี,กาญจนบุรี,14.02250,99.53583,3.7,09-15-2019,16:00:00,1000.67,160,20.90,12.00,34.7,1003.87,27.28,0.00,22.5,49
48451,NAKHONPATHOM,นครปฐม,นครปฐม,14.01167,99.97000,0.0,09-15-2019,16:00:00,1002.44,000,36.60,10.00,34.2,1003.52,31.17,0.00,24.7,58
48453,BANG NA AGROMET.,กรุงเทพฯ บางนา สกษ.,กรุงเทพมหานคร,13.66639,100.60611,11.1,09-15-2019,16:00:00,1004.22,220,2.70,10.00,32.5,1004.51,34.07,0.00,26.2,70
48454,BANGKOK PORT (KLONG TOEI),กรุงเทพฯ ท่าเรือคลองเตย,กรุงเทพมหานคร,13.70694,100.56805,7.4,09-15-2019,16:00:00,1003.45,240,13.30,10.00,32.4,1004.12,34.76,0.00,26.6,71
48455,BANGKOK METROPOLIS,กรุงเทพมหานคร,กรุงเทพมหานคร,13.72639,100.56000,3.7,09-15-2019,16:00:00,1002.77,150,31.80,10.00,31.4,1003.25,34.38,0.00,26.4,75
48456,DON MUANG AIRPORT,สนามบินดอนเมือง,กรุงเทพมหานคร,13.91917,100.60500,14.8,09-15-2019,16:00:00,1002.64,120,4.60,10.00,34.0,1004.01,28.43,0.00,23.2,53
48457,PILOT STATION,นำร่อง,สมุทรปราการ,13.39389,100.59944,18.5,09-15-2019,16:00:00,1002.01,210,0.00,12.00,29.5,1003.67,35.94,0.00,27.1,87
48458,CHACHOENGSAO,ฉะเชิงเทรา,ฉะเชิงเทรา,13.51556,101.45833,3.7,09-15-2019,16:00:00,997.68,230,11.60,10.00,33.2,1005.51,30.53,0.00,24.4,60
48459,CHON BURI,ชลบุรี,ชลบุรี,13.36667,100.98333,5.6,09-15-2019,16:00:00,1003.96,310,35.40,10.00,28.6,1004.24,33.74,31.90,26.1,86
48460,KO SICHANG,เกาะสีชัง,ชลบุรี,13.16167,100.80194,0.0,09-15-2019,16:00:00,1001.64,000,35.00,10.00,28.5,1004.75,31.82,0.00,25.1,82
48461,PHATTHAYA,พัทยา,ชลบุรี,12.92000,100.86944,5.6,09-15-2019,16:00:00,998.11,240,3.40,12.00,28.0,1005.01,30.56,0.00,24.4,81
48462,ARANYA PRATHET,อรัญประเทศ,สระแก้ว,13.70000,102.58333,7.4,09-15-2019,16:00:00,998.86,070,3.10,9.00,32.6,1004.35,33.99,0.00,26.2,69
48463,LAEM CHABANG,แหลมฉบัง,ชลบุรี,13.07694,100.87583,16.7,09-15-2019,16:00:00,996.01,230,17.00,10.00,28.1,1005.27,31.31,0.00,24.8,82
48464,RATCHA BURI,ราชบุรี,ราชบุรี,13.48931,99.79239,7.4,09-15-2019,16:00:00,1004.22,180,2.50,10.00,31.9,1005.46,33.07,0.00,25.7,70
48465,PHETCHA BURI,เพชรบุรี,เพชรบุรี,12.99944,100.06056,9.3,09-15-2019,16:00:00,1004.07,170,2.50,11.00,32.4,1004.50,34.16,0.00,26.3,70
48474,NONG PHLUB AGROMET.,หนองพลับ สกษ.,ประจวบคีรีขันธ์,12.58333,99.73333,3.7,09-15-2019,16:00:00,993.14,210,1.20,9.00,30.5,1005.23,32.17,0.00,25.3,74
48475,HUA HIN,หัวหิน,ประจวบคีรีขันธ์,12.58611,99.96250,5.6,09-15-2019,16:00:00,1004.47,150,0.00,10.00,29.9,1005.17,32.96,0.00,25.7,78
48477,SATTAHIP,สัตหีบ,ชลบุรี,12.68333,100.98333,11.1,09-15-2019,16:00:00,1003.75,210,40.90,7.00,27.8,1006.18,28.55,0.50,23.3,76
48478,RAYONG,ระยอง,ระยอง,12.63222,101.34361,9.3,09-15-2019,16:00:00,1004.82,230,53.30,2.00,27.2,1005.34,32.61,14.90,25.5,90
48479,HUAI PONG AGROMET.,ห้วยโป่ง สกษ.,ระยอง,12.73333,101.13333,1.9,09-15-2019,16:00:00,999.96,270,11.90,7.00,27.2,1005.10,32.33,2.10,25.3,90
48480,CHANTHA BURI,จันทบุรี,จันทบุรี,12.61667,102.11333,0.0,09-15-2019,16:00:00,1004.36,000,16.60,5.00,26.3,1004.77,31.41,6.40,24.9,92
48481,PHLIU  AGROMET.,พลิ้ว สกษ.,จันทบุรี,12.50861,102.17305,14.8,09-15-2019,16:00:00,1002.46,140,87.10,8.00,25.0,1005.24,30.32,59.20,24.3,96
48500,PRACHUAP KHIRIKHAN,ประจวบคีรีขันธ์,ประจวบคีรีขันธ์,11.83333,99.83333,3.7,09-15-2019,16:00:00,1005.76,200,0.60,10.00,29.0,1006.54,29.19,0.60,23.6,73
48501,TRAD,ตราด,ตราด,11.76667,102.88333,14.8,09-15-2019,16:00:00,1005.55,260,145.70,5.00,26.7,1006.01,31.63,3.50,25.0,90
48517,CHUMPHON,ชุมพร,ชุมพร,10.49875,99.18847,5.6,09-15-2019,16:00:00,1006.73,260,40.60,6.00,25.7,1007.42,29.21,0.70,23.7,89
48520,SAWI AGROMET.,สวี สกษ.,ชุมพร,10.33333,99.10000,3.7,09-15-2019,16:00:00,1006.37,270,28.20,8.00,26.0,1007.90,29.50,1.60,23.8,88
48532,RANONG,ระนอง,ระนอง,9.98333,98.61667,5.6,09-15-2019,16:00:00,1007.75,170,146.50,8.00,24.9,1008.68,28.82,18.50,23.4,92
48550,KO SAMUI,เกาะสมุย,สุราษฎร์ธานี,9.46667,100.05000,0.0,09-15-2019,16:00:00,1006.88,000,1.00,8.00,27.2,1007.57,32.33,0.20,25.3,90
48551,SURAT THANI,สุราษฎร์ธานี,สุราษฎร์ธานี,9.13556,99.15194,3.7,09-15-2019,16:00:00,1007.25,280,6.20,9.00,27.0,1008.04,31.11,0.30,24.7,87
48552,NAKHONSI THAMMARAT,นครศรีธรรมราช,นครศรีธรรมราช,8.53778,99.96389,7.4,09-15-2019,16:00:00,1006.21,330,1.70,10.00,31.0,1006.84,29.48,0.00,23.8,66
48554,NAKHONSI THAMMARAT AGROMET.,นครศรีธรรมราช สกษ.,นครศรีธรรมราช,8.35931,100.00000,7.4,09-15-2019,16:00:00,1006.38,270,0.30,10.00,31.4,1006.78,29.72,0.00,23.9,65
48555,SURAT THANI AGROMET.,สุราษฎร์ธานี สกษ.,สุราษฎร์ธานี,9.10000,99.63333,3.7,09-15-2019,16:00:00,1005.43,230,2.50,5.00,26.7,1009.65,32.46,0.80,25.4,93
48556,PHRA SANG,พระแสง สอท.,สุราษฎร์ธานี,8.57022,99.25825,0.0,09-15-2019,16:00:00,1006.28,000,3.20,10.00,29.5,1007.87,29.33,0.00,23.7,71
48557,CHAWANG,ฉวาง,นครศรีธรรมราช,8.43194,99.51194,5.6,09-15-2019,16:00:00,1004.45,270,1.70,8.00,29.7,1007.90,29.16,0.00,23.6,70
48560,PHATTHALUNG AGROMET.,พัทลุง สกษ.,พัทลุง,7.58333,100.16667,0.0,09-15-2019,16:00:00,1006.69,000,7.00,7.00,24.6,1008.06,27.78,5.00,22.8,90
48561,TAKUA PA,ตะกั่วป่า,พังงา,8.68417,98.25222,14.8,09-15-2019,16:00:00,1007.66,240,24.00,10.00,27.0,1008.55,30.56,0.60,24.4,86
48563,KRABI,กระบี่,กระบี่,8.10361,98.97528,5.6,09-15-2019,16:00:00,1004.47,280,12.40,10.00,29.2,1008.00,27.13,0.00,22.4,67
48564,PHUKET,ภูเก็ต,ภูเก็ต,7.88333,98.40000,16.7,09-15-2019,16:00:00,1007.19,290,17.20,10.00,30.8,1007.62,28.81,0.00,23.4,65
48565,PHUKET AIRPORT,ภูเก็ต (ศูนย์ฯ),ภูเก็ต,8.14500,98.31444,7.4,09-15-2019,16:00:00,1006.71,330,17.40,10.00,29.9,1007.69,29.00,0.00,23.5,69
48566,KO LANTA,เกาะลันตา,กระบี่,7.53333,99.05000,31.5,09-15-2019,16:00:00,1007.15,270,55.00,10.00,29.0,1007.96,31.41,1.80,24.9,78
48567,TRANG AIRPORT,ตรัง,ตรัง,7.51667,99.61667,9.3,09-15-2019,16:00:00,1006.95,150,20.00,10.00,24.8,1008.77,29.69,6.20,23.9,95
48568,SONGKHLA,สงขลา,สงขลา,7.18211,100.60769,22.2,09-15-2019,16:00:00,1008.76,270,12.10,4.00,24.1,1009.52,28.70,12.10,23.4,96
48569,HAT YAI AIRPORT,หาดใหญ่,สงขลา,6.91667,100.43333,18.5,09-15-2019,16:00:00,1004.52,260,2.80,8.00,23.9,1008.56,26.58,2.80,22.1,90
48570,SATUN,สตูล,สตูล,6.65000,100.08333,11.1,09-15-2019,16:00:00,1008.19,270,15.40,6.00,25.5,1008.88,29.91,3.20,24.0,92
48571,KHO HONG AGROMET.,คอหงษ์ สกษ.,สงขลา,7.00000,100.50000,5.6,09-15-2019,16:00:00,1008.27,080,18.80,10.00,23.0,1009.40,27.57,18.80,22.7,98
48574,SA DAO,สะเดา,สงขลา,6.79806,100.39056,14.8,09-15-2019,16:00:00,1005.38,300,8.00,10.00,25.9,1008.31,28.78,1.40,23.4,86
48580,PATTANI AIRPORT,ปัตตานี,ปัตตานี,6.78333,101.15000,0.0,09-15-2019,16:00:00,1006.36,000,5.20,6.00,25.2,1007.06,31.22,5.20,24.8,97
48581,YALA AGROMET.,ยะลา สกษ.,ยะลา,6.51667,101.28333,16.7,09-15-2019,16:00:00,1002.97,250,1.60,10.00,26.8,1007.09,28.31,1.60,23.1,80
48583,NARATHIWAT,นราธิวาส,นราธิวาส,6.41667,101.81667,9.3,09-15-2019,16:00:00,1006.91,170,18.50,6.00,23.5,1007.51,27.66,17.90,22.8,96
