WmoStationNumber,StationNameEnglish,StationNameThai,Province,Latitude,Longitude,MeanSeaLevelPressure,Date,Time,StationPressure,Rainfall24Hr,VaporPressure,Rainfall,WindDirection,DewPoint,WindSpeed,LandVisibility,RelativeHumidity,AirTemperature
48300,MAE HONG SON,แม่ฮ่องสอน,แม่ฮ่องสอน,19.29897,97.97578,1009.23,09-14-2019,10:00:00,978.46,0.01,30.20,0.00,000,24.2,0.0,10.00,79,28.1
48302,DOI ANG KANG,ดอยอ่างขาง,เชียงใหม่,19.93139,99.04833,1007.67,09-14-2019,10:00:00,847.48,0.00,23.06,0.00,130,19.8,16.7,8.00,92,21.2
48303,CHIANG RAI,เชียงราย,เชียงราย,19.96139,99.88139,1010.61,09-14-2019,10:00:00,966.89,21.40,29.23,0.00,360,23.7,5.6,12.00,87,26.0
48304,CHAING RAI AGROMET.,เชียงราย สกษ.,เชียงราย,19.87083,99.78278,1010.45,09-14-2019,10:00:00,964.83,0.20,29.50,0.00,000,23.8,0.0,15.00,88,26.0
48307,THUNG CHANG,ทุ่งช้าง,น่าน,19.41194,100.88353,1009.53,09-14-2019,10:00:00,972.33,0.20,33.17,0.00,000,25.8,0.0,12.00,78,30.0
48310,PHAYAO,พะเยา,พะเยา,19.13333,99.90000,1009.23,09-14-2019,10:00:00,964.55,0.00,29.74,0.00,000,23.9,0.0,10.00,74,29.0
48315,THA WANGPHA,ท่าวังผา,น่าน,19.11056,100.80250,1010.19,09-14-2019,10:00:00,983.71,0.00,31.03,0.00,000,24.7,0.0,12.00,74,29.8
48324,THOEN,เถิน,ลำปาง,17.63661,99.24475,1008.95,09-14-2019,10:00:00,987.39,3.90,30.83,0.00,120,24.6,3.7,14.00,74,29.7
48325,MAE SARIANG,แม่สะเรียง,แม่ฮ่องสอน,18.16667,97.93333,1009.77,09-14-2019,10:00:00,985.76,0.00,28.95,0.00,000,23.5,0.0,8.00,75,28.3
48327,CHIANG MAI,เชียงใหม่,เชียงใหม่,18.79000,98.97694,1009.15,09-14-2019,10:00:00,974.98,29.70,29.16,0.00,000,23.6,0.0,12.00,70,29.7
48328,LAMPANG,ลำปาง,ลำปาง,18.28333,99.51667,1009.46,09-14-2019,10:00:00,982.13,0.00,31.81,0.00,000,25.1,0.0,10.00,79,29.2
48329,LAMPHUN,ลำพูน,ลำพูน,18.56722,99.03389,1009.08,09-14-2019,10:00:00,975.71,0.80,31.26,0.00,000,24.8,0.0,10.00,80,28.5
48330,PHRAE,แพร่,แพร่,18.16667,100.16667,1009.24,09-14-2019,10:00:00,990.72,0.20,32.77,0.20,310,25.6,1.9,5.00,92,27.0
48331,NAN,น่าน,น่าน,18.77972,100.77778,1010.20,09-14-2019,10:00:00,987.43,0.20,32.15,0.00,000,25.3,0.0,10.00,85,28.1
48333,NAN AGROMET.,น่าน สกษ.,น่าน,18.86667,100.75000,1009.57,09-14-2019,10:00:00,979.76,0.00,29.36,0.00,000,23.7,0.0,12.00,79,27.8
48334,LAMPANG AGROMET.,ลำปาง สกษ.,ลำปาง,18.31667,99.28333,1009.41,09-14-2019,10:00:00,974.24,0.00,31.89,0.00,110,25.1,7.4,8.00,76,29.8
48350,LOEI AGROMET.,เลย สกษ.,เลย,17.40000,101.73333,1009.14,09-14-2019,10:00:00,979.66,4.50,33.45,0.00,050,25.9,5.6,15.00,82,29.3
48351,UTTARADIT,อุตรดิตถ์,อุตรดิตถ์,17.61667,100.10000,1008.85,09-14-2019,10:00:00,1001.57,16.70,32.79,0.00,000,25.6,0.0,11.00,83,28.7
48352,NONG KHAI,หนองคาย,หนองคาย,17.86717,102.73303,1009.22,09-14-2019,10:00:00,989.62,0.40,33.80,0.00,150,26.1,9.3,18.00,71,32.1
48353,LOEI,เลย,เลย,17.45000,101.73333,1009.89,09-14-2019,10:00:00,981.38,4.30,29.74,0.00,320,23.9,3.7,15.00,74,29.0
48354,UDON THANI,อุดรธานี,อุดรธานี,17.38333,102.80000,1009.33,09-14-2019,10:00:00,989.41,0.00,29.24,0.00,060,23.7,5.6,15.00,64,31.3
48355,SAKON NAKHON AGROMET.,สกลนคร สกษ.,สกลนคร,17.12503,104.06100,1009.83,09-14-2019,10:00:00,988.30,0.00,29.33,0.00,140,23.7,3.7,15.00,67,30.5
48356,SAKON NAKHON,สกลนคร,สกลนคร,17.15000,104.13333,1008.94,09-14-2019,10:00:00,989.66,0.00,28.06,0.00,120,23.0,7.4,15.00,64,30.7
48357,NAKHON PHANOM,นครพนม,นครพนม,17.41083,104.78250,1009.40,09-14-2019,10:00:00,992.88,0.00,26.97,0.00,000,22.3,0.0,12.00,58,31.7
48358,NAKHON PHANOM AGROMET.,นครพนม สกษ.,นครพนม,17.44306,104.77361,1009.86,09-14-2019,10:00:00,992.58,0.00,28.91,0.00,140,23.5,3.7,10.00,68,30.0
48360,NONG BUA LAM PHU,หนองบัวลำภู,หนองบัวลำภู,17.23250,102.42944,1008.23,09-14-2019,10:00:00,982.77,0.00,29.48,0.00,080,23.8,5.6,15.00,66,31.0
48372,SUKHOTHAI*,สุโขทัย,สุโขทัย,17.10611,99.80000,1009.04,09-14-2019,10:00:00,1003.31,0.00,35.72,0.00,030,27.0,5.6,10.00,82,30.5
48373,SI SAMRONG AGROMET.,ศรีสำโรง สกษ.,สุโขทัย,17.16136,99.86167,1008.90,09-14-2019,10:00:00,1002.75,1.40,35.05,0.00,000,26.7,0.0,10.00,85,29.5
48374,LOM SAK,หล่มสัก,เพชรบูรณ์,16.77361,101.24944,1009.36,09-14-2019,10:00:00,993.08,1.50,32.75,0.00,000,25.6,0.0,12.00,75,30.5
48375,MAE SOT,แม่สอด,ตาก,16.65917,98.55083,1007.82,09-14-2019,10:00:00,985.56,0.00,29.19,0.00,000,23.6,0.0,10.00,77,28.0
48376,TAK,ตาก,ตาก,16.87833,99.14333,1009.21,09-14-2019,10:00:00,995.08,0.00,30.69,0.00,000,24.5,0.0,8.00,61,33.0
48377,BHUMIBOL DAM,เขื่อนภูมิพล,ตาก,17.24389,99.00250,1008.56,09-14-2019,10:00:00,992.40,0.50,30.20,0.00,000,24.2,0.0,12.00,65,31.5
48378,PHITSANULOK,พิษณุโลก,พิษณุโลก,16.79481,100.27930,1008.82,09-14-2019,10:00:00,1003.66,0.00,33.40,0.00,220,25.9,3.7,10.00,72,31.5
48379,PHETCHABUN,เพชรบูรณ์,เพชรบูรณ์,16.43333,101.15000,1007.19,09-14-2019,10:00:00,994.17,0.00,31.68,0.00,030,25.0,5.6,12.00,70,31.1
48380,KAMPHAENG PHET,กำแพงเพชร,กำแพงเพชร,16.48681,99.52697,1008.65,09-14-2019,10:00:00,999.45,0.00,30.61,0.00,210,24.4,3.7,15.00,65,31.7
48381,KHON KAEN,ขอนแก่น,ขอนแก่น,16.46111,102.78972,1009.16,09-14-2019,10:00:00,987.66,8.20,29.22,0.00,090,23.7,11.1,10.00,68,30.3
48382,MAHASARAKHAM,มหาสารคาม,มหาสารคาม,16.24722,103.06805,1009.63,09-14-2019,10:00:00,992.27,0.00,30.42,0.00,030,24.3,5.6,10.00,71,30.2
48383,MUKDAHAN,มุกดาหาร,มุกดาหาร,16.54139,104.72889,1008.37,09-14-2019,10:00:00,992.70,0.00,29.81,0.00,090,24.0,3.7,12.00,68,30.6
48384,THA PHRA AGROMET.,ท่าพระ สกษ.,ขอนแก่น,16.33333,102.81667,1008.12,09-14-2019,10:00:00,989.43,0.80,32.26,0.00,050,25.3,7.4,10.00,74,30.4
48385,UMPHANG,อุ้มผาง,ตาก,16.02472,98.86444,1008.46,09-14-2019,10:00:00,957.23,0.80,25.03,0.00,000,21.1,0.0,11.00,74,26.1
48386,PICHIT AGROMET.,พิจิตร สกษ.,พิจิตร,16.43806,100.29250,1008.06,09-14-2019,10:00:00,1004.17,0.00,32.58,0.00,000,25.5,0.0,9.00,67,32.5
48387,DOI MU SOE AGROMET.,ดอยมูเซอร์ สกษ.,ตาก,16.75000,98.93333,1009.47,09-14-2019,10:00:00,914.81,0.01,26.00,0.00,200,21.7,5.6,8.00,89,23.7
48390,KALASIN,กาฬสินธุ์,กาฬสินธุ์,16.33250,103.58833,1009.10,09-14-2019,10:00:00,993.08,9.30,33.14,0.00,100,25.8,5.6,10.00,94,26.9
48400,NAKHON SAWAN,นครสวรรค์ ,นครสวรรค์,15.67183,100.13236,1008.70,09-14-2019,10:00:00,1004.72,0.50,31.51,0.00,000,24.9,0.0,10.00,69,31.3
48401,TAKFA AGROMET.,ตากฟ้า สกษ.,นครสวรรค์,15.34944,100.53028,1009.73,09-14-2019,10:00:00,999.12,5.50,31.97,0.00,000,25.2,0.0,10.00,77,29.7
48402,CHAINAT AGROMET.,ชัยนาท สกษ.,ชัยนาท,15.15000,100.18333,1009.59,09-14-2019,10:00:00,1007.68,10.80,30.70,0.00,150,24.5,3.7,10.00,72,30.2
48403,CHAIYAPHUM,ชัยภูมิ,ชัยภูมิ,15.80000,102.03333,1007.28,09-14-2019,10:00:00,986.74,20.60,29.47,0.00,060,23.8,13.0,10.00,63,31.7
48404,ROI ET AGROMET.,ร้อยเอ็ด สกษ.,ร้อยเอ็ด,16.07322,103.60844,1008.76,09-14-2019,10:00:00,991.24,20.20,30.31,0.00,080,24.3,11.1,10.00,71,30.0
48405,ROI ET,ร้อยเอ็ด,ร้อยเอ็ด,16.02000,103.74389,1008.40,09-14-2019,10:00:00,992.38,19.60,29.30,0.00,040,23.7,7.4,10.00,68,30.2
48407,UBON RATCHATHANI,อุบลราชธานี (ศูนย์ฯ),อุบลราชธานี,15.25000,104.86667,1008.62,09-14-2019,10:00:00,994.70,6.10,31.15,0.00,120,24.7,11.1,10.00,73,30.0
48408,UBON RATCHATHANI AGROMET.,อุบลราชธานี สกษ.,อุบลราชธานี,15.23914,105.02350,1009.24,09-14-2019,10:00:00,994.48,2.20,30.49,0.00,000,24.4,0.0,10.00,76,29.1
48409,SI SAKET AGROMET.,ศรีสะเกษ,ศรีสะเกษ,15.00000,104.05000,1008.93,09-14-2019,10:00:00,994.40,0.00,33.93,0.00,290,26.2,3.7,10.00,78,30.5
48410,UTHAITHANI,อุทัยธานี,อุทัยธานี,15.37417,100.03889,1008.70,09-14-2019,10:00:00,1005.72,0.10,32.34,0.00,"{'0': '   ', '@attributes': {'Unit': 'degree'}}",25.4,0.0,10.00,72,31.0
48413,WICHIAN BURI,วิเชียรบุรี,เพชรบูรณ์,15.65700,101.10800,1008.75,09-14-2019,10:00:00,1000.86,8.10,32.75,0.00,000,25.6,0.0,10.00,78,29.8
48415,AYUTTHAYA,พระนครศรีอยุธยา,พระนครศรีอยุธยา,14.53472,100.72500,1008.52,09-14-2019,10:00:00,1007.41,1.60,31.53,0.00,000,24.9,0.0,8.00,78,29.2
48416,THA TUM,ท่าตูม,สุรินทร์,15.31667,103.68333,1009.27,09-14-2019,10:00:00,994.62,4.50,25.61,0.00,000,21.5,0.0,8.00,66,28.5
48417,NAKORNNAYOK,นครนายก,นครนายก,14.36222,101.39278,1009.87,09-14-2019,10:00:00,875.00,0.00,23.70,0.00,000,20.2,0.0,2.00,97,20.7
48418,BUA CHUM,บัวชุม  ,ลพบุรี,15.26667,101.18736,1009.24,09-14-2019,10:00:00,1003.38,12.20,33.74,0.00,000,26.1,0.0,9.00,86,28.6
48419,PATHUMTHANI,ปทุมธานี สกษ.,ปทุมธานี,14.10000,100.61667,1009.19,09-14-2019,10:00:00,1008.40,1.50,29.89,0.00,240,24.0,3.7,9.00,68,30.5
48420,Samut Prakarn,สมุทรปราการ สกษ.,สมุทรปราการ,13.51667,100.76167,1009.34,09-14-2019,10:00:00,1008.90,5.50,29.30,0.40,210,23.7,3.7,10.00,72,29.2
48421,THONG PHAPHUM,ทองผาภูมิ,กาญจนบุรี,14.74222,98.63639,1010.22,09-14-2019,10:00:00,998.94,7.20,29.33,0.20,000,23.7,0.0,10.00,75,28.5
48425,SUPHAN BURI,สุพรรณบุรี,สุพรรณบุรี,14.47444,100.13889,1009.32,09-14-2019,10:00:00,1008.32,0.20,30.88,0.00,000,24.6,0.0,12.00,76,29.3
48426,LOP BURI,ลพบุรี,ลพบุรี,14.79972,100.64500,1010.03,09-14-2019,10:00:00,1008.22,23.40,31.88,0.00,000,25.1,0.0,10.00,73,30.5
48427,U THONG AGROMET.,อู่ทอง สกษ.,สุพรรณบุรี,14.30361,99.86472,1009.11,09-14-2019,10:00:00,1008.35,9.20,30.96,0.20,000,24.6,0.0,8.00,76,29.2
48429,SUVARNABHUMI AIRPORT,สนามบินสุวรรณภูมิ,สมุทรปราการ,13.68639,100.76750,1009.43,09-14-2019,10:00:00,1008.73,15.40,28.95,0.40,300,23.5,5.6,10.00,75,28.3
48430,PRACHIN BURI,ปราจีนบุรี,ปราจีนบุรี,14.05842,101.36930,1009.04,09-14-2019,10:00:00,1008.33,0.90,33.20,0.20,240,25.8,3.7,7.00,87,28.2
48431,NAKHON RATCHASIMA,นครราชสีมา,นครราชสีมา,14.96830,102.08603,1009.13,09-14-2019,10:00:00,988.14,2.10,30.22,0.00,070,24.2,7.4,10.00,71,30.1
48432,SURIN,สุรินทร์,สุรินทร์,14.88333,103.50000,1009.01,09-14-2019,10:00:00,992.36,3.70,29.63,0.00,000,23.9,0.0,10.00,75,28.8
48433,SURIN AGROMET.,สุรินทร์ สกษ.,สุรินทร์,14.88333,103.45000,1009.01,09-14-2019,10:00:00,992.64,11.00,31.94,0.00,030,25.1,5.6,9.00,81,28.7
48434,CHOK CHAI,โชคชัย,นครราชสีมา,14.71889,102.16861,1009.18,09-14-2019,10:00:00,987.43,2.50,31.13,1.10,030,24.7,3.7,10.00,78,29.0
48435,PAKCHONG AGROMET.,ปากช่อง สกษ.,นครราชสีมา,14.64389,101.33194,1009.11,09-14-2019,10:00:00,965.93,0.00,29.19,0.00,260,23.6,7.4,10.00,77,28.0
48436,NANG RONG,นางรอง,บุรีรัมย์,14.58333,102.80000,1008.83,09-14-2019,10:00:00,988.37,16.20,30.57,0.00,010,24.4,3.7,9.00,76,29.0
48437,BURIRUM,บุรีรัมย์,บุรีรัมย์,15.22575,103.24808,1010.60,09-14-2019,10:00:00,989.81,0.00,33.12,0.00,040,25.8,14.8,9.00,86,28.3
48438,SAMUTSONGKRAM,สมุทรสงคราม,สมุทรสงคราม,13.40778,100.03222,1008.73,09-14-2019,10:00:00,1008.30,0.01,27.54,0.00,320,22.7,5.6,10.00,61,31.0
48439,KABIN BURI,กบินทร์บุรี,ปราจีนบุรี,13.98333,101.70722,1008.42,09-14-2019,10:00:00,1007.00,2.40,32.77,0.20,000,25.6,0.0,9.00,92,27.0
48440,SA KAEW,สระแก้ว,สระแก้ว,13.78889,102.03472,1009.56,09-14-2019,10:00:00,1004.59,14.50,31.46,3.70,000,24.9,0.0,8.00,94,25.9
48450,KANCHANA BURI,กาญจนบุรี,กาญจนบุรี,14.02250,99.53583,1009.10,09-14-2019,10:00:00,1005.85,0.00,28.09,0.00,250,23.0,7.4,12.00,63,31.0
48451,NAKHONPATHOM,นครปฐม,นครปฐม,14.01167,99.97000,1009.38,09-14-2019,10:00:00,1008.28,0.30,30.57,0.00,290,24.4,3.7,10.00,76,29.0
48453,BANG NA AGROMET.,กรุงเทพฯ บางนา สกษ.,กรุงเทพมหานคร,13.66639,100.60611,1009.26,09-14-2019,10:00:00,1008.96,2.00,29.60,0.20,290,23.9,5.6,10.00,76,28.5
48454,BANGKOK PORT (KLONG TOEI),กรุงเทพฯ ท่าเรือคลองเตย,กรุงเทพมหานคร,13.70694,100.56805,1009.13,09-14-2019,10:00:00,1008.44,2.00,30.72,0.00,260,24.5,7.4,10.00,75,29.5
48455,BANGKOK METROPOLIS,กรุงเทพมหานคร,กรุงเทพมหานคร,13.72639,100.56000,1008.47,09-14-2019,10:00:00,1007.98,2.40,32.23,1.20,270,25.3,1.9,10.00,85,28.0
48456,DON MUANG AIRPORT,สนามบินดอนเมือง,กรุงเทพมหานคร,13.91917,100.60500,1009.48,09-14-2019,10:00:00,1008.07,0.60,29.65,0.00,270,23.9,11.1,10.00,74,29.1
48457,PILOT STATION,นำร่อง,สมุทรปราการ,13.39389,100.59944,1009.14,09-14-2019,10:00:00,1007.47,0.00,34.58,0.00,210,26.5,14.8,10.00,86,29.0
48458,CHACHOENGSAO,ฉะเชิงเทรา,ฉะเชิงเทรา,13.51556,101.45833,1011.37,09-14-2019,10:00:00,1003.33,3.90,32.21,0.50,000,25.3,0.0,10.00,90,27.0
48459,CHON BURI,ชลบุรี,ชลบุรี,13.36667,100.98333,1009.25,09-14-2019,10:00:00,1008.97,0.60,30.54,0.00,320,24.4,9.3,10.00,78,28.7
48460,KO SICHANG,เกาะสีชัง,ชลบุรี,13.16167,100.80194,1008.96,09-14-2019,10:00:00,1005.85,0.00,29.71,0.00,270,23.9,5.6,10.00,71,29.7
48461,PHATTHAYA,พัทยา,ชลบุรี,12.92000,100.86944,1009.29,09-14-2019,10:00:00,1002.37,0.00,31.46,0.00,000,24.9,0.0,12.00,80,28.6
48462,ARANYA PRATHET,อรัญประเทศ,สระแก้ว,13.70000,102.58333,1009.60,09-14-2019,10:00:00,1003.95,19.90,30.69,10.10,000,24.5,0.0,6.00,96,25.2
48463,LAEM CHABANG,แหลมฉบัง,ชลบุรี,13.07694,100.87583,1011.29,09-14-2019,10:00:00,1002.01,0.00,28.86,0.00,330,23.4,5.6,10.00,70,29.4
48464,RATCHA BURI,ราชบุรี,ราชบุรี,13.48931,99.79239,1009.94,09-14-2019,10:00:00,1008.69,0.01,28.91,0.00,350,23.5,11.1,14.00,68,30.0
48465,PHETCHA BURI,เพชรบุรี,เพชรบุรี,12.99944,100.06056,1009.26,09-14-2019,10:00:00,1008.84,2.10,31.15,0.00,170,24.7,5.6,11.00,71,30.7
48474,NONG PHLUB AGROMET.,หนองพลับ สกษ.,ประจวบคีรีขันธ์,12.58333,99.73333,1009.44,09-14-2019,10:00:00,997.22,0.00,28.35,0.00,270,23.2,3.7,10.00,72,28.7
48475,HUA HIN,หัวหิน,ประจวบคีรีขันธ์,12.58611,99.96250,1009.36,09-14-2019,10:00:00,1008.66,0.00,28.73,0.00,300,23.4,5.6,10.00,64,30.9
48477,SATTAHIP,สัตหีบ,ชลบุรี,12.68333,100.98333,1009.28,09-14-2019,10:00:00,1006.86,1.90,30.72,0.40,270,24.5,7.4,10.00,75,29.5
48478,RAYONG,ระยอง,ระยอง,12.63222,101.34361,1009.77,09-14-2019,10:00:00,1009.25,3.10,32.36,0.30,000,25.4,0.0,9.00,88,27.5
48479,HUAI PONG AGROMET.,ห้วยโป่ง สกษ.,ระยอง,12.73333,101.13333,1009.11,09-14-2019,10:00:00,1003.98,1.90,30.46,0.00,310,24.3,11.1,11.00,77,28.8
48480,CHANTHA BURI,จันทบุรี,จันทบุรี,12.61667,102.11333,1009.06,09-14-2019,10:00:00,1008.65,18.70,32.86,0.40,000,25.6,0.0,7.00,93,26.9
48481,PHLIU  AGROMET.,พลิ้ว สกษ.,จันทบุรี,12.50861,102.17305,1009.29,09-14-2019,10:00:00,1006.52,40.90,32.20,0.00,000,25.3,0.0,8.00,87,27.7
48500,PRACHUAP KHIRIKHAN,ประจวบคีรีขันธ์,ประจวบคีรีขันธ์,11.83333,99.83333,1009.79,09-14-2019,10:00:00,1009.00,0.01,27.03,0.00,000,22.4,0.0,10.00,68,29.0
48501,TRAD,ตราด,ตราด,11.76667,102.88333,1008.59,09-14-2019,10:00:00,1008.14,93.90,32.27,0.00,280,25.3,9.3,8.00,84,28.3
48517,CHUMPHON,ชุมพร,ชุมพร,10.49875,99.18847,1010.49,09-14-2019,10:00:00,1009.80,1.70,28.96,1.40,300,23.5,7.4,7.00,80,27.3
48520,SAWI AGROMET.,สวี สกษ.,ชุมพร,10.33333,99.10000,1011.18,09-14-2019,10:00:00,1009.64,3.40,27.85,3.40,230,22.9,3.7,8.00,81,26.4
48532,RANONG,ระนอง,ระนอง,9.98333,98.61667,1012.81,09-14-2019,10:00:00,1011.88,10.90,27.95,6.10,000,22.9,0.0,7.00,90,24.7
48550,KO SAMUI,เกาะสมุย,สุราษฎร์ธานี,9.46667,100.05000,1010.83,09-14-2019,10:00:00,1010.15,0.90,29.71,0.00,300,23.9,9.3,12.00,75,28.7
48551,SURAT THANI,สุราษฎร์ธานี,สุราษฎร์ธานี,9.13556,99.15194,1011.44,09-14-2019,10:00:00,1010.64,0.20,29.98,0.00,190,24.1,3.7,10.00,76,28.7
48552,NAKHONSI THAMMARAT,นครศรีธรรมราช,นครศรีธรรมราช,8.53778,99.96389,1010.29,09-14-2019,10:00:00,1009.67,8.00,28.45,0.00,000,23.2,0.0,12.00,64,30.9
48554,NAKHONSI THAMMARAT AGROMET.,นครศรีธรรมราช สกษ.,นครศรีธรรมราช,8.35931,100.00000,1010.79,09-14-2019,10:00:00,1010.38,16.10,31.68,0.00,000,25.0,0.0,10.00,76,29.7
48555,SURAT THANI AGROMET.,สุราษฎร์ธานี สกษ.,สุราษฎร์ธานี,9.10000,99.63333,1012.80,09-14-2019,10:00:00,1008.60,0.60,27.83,0.00,210,22.9,9.3,6.00,70,29.0
48556,PHRA SANG,พระแสง สอท.,สุราษฎร์ธานี,8.57022,99.25825,1011.70,09-14-2019,10:00:00,1010.09,11.80,28.62,0.00,000,23.3,0.0,10.00,73,28.7
48557,CHAWANG,ฉวาง,นครศรีธรรมราช,8.43194,99.51194,1011.52,09-14-2019,10:00:00,1008.05,1.50,29.35,0.00,000,23.7,0.0,10.00,74,28.8
48560,PHATTHALUNG AGROMET.,พัทลุง สกษ.,พัทลุง,7.58333,100.16667,1010.69,09-14-2019,10:00:00,1009.34,0.00,27.55,0.00,100,22.7,11.1,10.00,65,30.0
48561,TAKUA PA,ตะกั่วป่า,พังงา,8.68417,98.25222,1012.06,09-14-2019,10:00:00,1011.18,1.80,31.72,0.00,000,25.0,0.0,10.00,75,30.0
48563,KRABI,กระบี่,กระบี่,8.10361,98.97528,1012.06,09-14-2019,10:00:00,1008.49,10.20,28.35,0.00,000,23.2,0.0,10.00,78,27.4
48564,PHUKET,ภูเก็ต,ภูเก็ต,7.88333,98.40000,1012.66,09-14-2019,10:00:00,1012.23,0.00,28.37,0.00,000,23.2,0.0,10.00,71,29.0
48565,PHUKET AIRPORT,ภูเก็ต (ศูนย์ฯ),ภูเก็ต,8.14500,98.31444,1011.10,09-14-2019,10:00:00,1010.12,0.01,30.63,0.00,320,24.4,9.3,8.00,74,29.6
48566,KO LANTA,เกาะลันตา,กระบี่,7.53333,99.05000,1011.86,09-14-2019,10:00:00,1011.05,6.00,32.83,0.00,290,25.6,16.7,10.00,79,29.7
48567,TRANG AIRPORT,ตรัง,ตรัง,7.51667,99.61667,1011.73,09-14-2019,10:00:00,1009.93,0.30,31.07,0.00,280,24.7,5.6,10.00,73,30.1
48568,SONGKHLA,สงขลา,สงขลา,7.18211,100.60769,1011.58,09-14-2019,10:00:00,1010.84,0.00,30.57,0.00,230,24.4,11.1,12.00,67,31.4
48569,HAT YAI AIRPORT,หาดใหญ่,สงขลา,6.91667,100.43333,1012.15,09-14-2019,10:00:00,1008.18,0.00,30.22,0.00,240,24.2,14.8,10.00,71,30.1
48570,SATUN,สตูล,สตูล,6.65000,100.08333,1012.16,09-14-2019,10:00:00,1011.48,0.30,30.80,0.10,240,24.5,7.4,10.00,75,29.4
48571,KHO HONG AGROMET.,คอหงษ์ สกษ.,สงขลา,7.00000,100.50000,1011.42,09-14-2019,10:00:00,1010.32,0.00,30.05,0.00,200,24.1,5.6,10.00,67,31.0
48574,SA DAO,สะเดา,สงขลา,6.79806,100.39056,1011.90,09-14-2019,10:00:00,1009.00,0.00,30.47,0.00,260,24.4,5.6,10.00,73,29.8
48580,PATTANI AIRPORT,ปัตตานี,ปัตตานี,6.78333,101.15000,1011.01,09-14-2019,10:00:00,1010.33,2.40,32.67,0.00,270,25.5,14.8,11.00,74,30.6
48581,YALA AGROMET.,ยะลา สกษ.,ยะลา,6.51667,101.28333,1011.75,09-14-2019,10:00:00,1007.66,2.00,28.65,0.00,000,23.3,0.0,10.00,64,31.0
48583,NARATHIWAT,นราธิวาส,นราธิวาส,6.41667,101.81667,1011.02,09-14-2019,10:00:00,1010.44,0.60,26.73,0.00,250,22.2,18.5,10.00,60,31.0
