WmoStationNumber,StationNameEnglish,StationNameThai,Province,Latitude,Longitude,WindSpeed,Date,Time,DewPoint,RelativeHumidity,StationPressure,Rainfall24Hr,AirTemperature,Rainfall,LandVisibility,WindDirection,MeanSeaLevelPressure,VaporPressure
48300,MAE HONG SON,แม่ฮ่องสอน,แม่ฮ่องสอน,19.29897,97.97578,5.6,09-14-2019,16:00:00,24.7,82,973.61,3.40,28.0,3.40,10.00,320,1004.24,31.11
48302,DOI ANG KANG,ดอยอ่างขาง,เชียงใหม่,19.93139,99.04833,18.5,09-14-2019,16:00:00,22.2,95,846.03,0.00,23.1,0.00,8.00,200,1004.86,26.74
48303,CHIANG RAI,เชียงราย,เชียงราย,19.96139,99.88139,7.4,09-14-2019,16:00:00,24.4,63,961.74,21.40,32.2,0.00,15.00,120,1004.33,30.48
48304,CHAING RAI AGROMET.,เชียงราย สกษ.,เชียงราย,19.87083,99.78278,0.0,09-14-2019,16:00:00,23.9,61,959.94,0.20,32.5,0.00,15.00,000,1004.34,29.66
48307,THUNG CHANG,ทุ่งช้าง,น่าน,19.41194,100.88353,0.0,09-14-2019,16:00:00,24.8,58,967.39,0.20,34.1,0.00,12.00,000,1003.91,31.26
48310,PHAYAO,พะเยา,พะเยา,19.13333,99.90000,3.7,09-14-2019,16:00:00,24.7,93,960.95,9.00,26.0,9.00,11.00,080,1005.93,31.11
48315,THA WANGPHA,ท่าวังผา,น่าน,19.11056,100.80250,9.3,09-14-2019,16:00:00,25.0,55,978.36,0.00,35.5,0.00,12.00,180,1004.21,31.60
48324,THOEN,เถิน,ลำปาง,17.63661,99.24475,11.1,09-14-2019,16:00:00,25.2,65,983.45,3.20,32.5,2.50,15.00,100,1004.72,31.98
48325,MAE SARIANG,แม่สะเรียง,แม่ฮ่องสอน,18.16667,97.93333,0.0,09-14-2019,16:00:00,26.0,67,980.65,0.00,33.0,0.00,10.00,000,1004.16,33.66
48327,CHIANG MAI,เชียงใหม่,เชียงใหม่,18.79000,98.97694,0.0,09-14-2019,16:00:00,24.3,87,971.79,30.00,26.6,0.30,12.00,000,1006.20,30.34
48328,LAMPANG,ลำปาง,ลำปาง,18.28333,99.51667,0.0,09-14-2019,16:00:00,25.1,69,978.23,0.60,31.5,0.00,10.00,000,1005.25,31.93
48329,LAMPHUN,ลำพูน,ลำพูน,18.56722,99.03389,0.0,09-14-2019,16:00:00,24.3,93,972.67,29.30,25.5,28.50,10.00,000,1006.27,30.44
48330,PHRAE,แพร่,แพร่,18.16667,100.16667,0.0,09-14-2019,16:00:00,24.9,59,985.82,0.30,34.1,0.00,15.00,000,1003.81,31.55
48331,NAN,น่าน,น่าน,18.77972,100.77778,0.0,09-14-2019,16:00:00,24.4,52,981.86,0.20,35.7,0.00,10.00,000,1003.93,30.53
48333,NAN AGROMET.,น่าน สกษ.,น่าน,18.86667,100.75000,0.0,09-14-2019,16:00:00,22.5,52,974.64,0.00,33.7,0.00,12.00,000,1003.72,27.26
48334,LAMPANG AGROMET.,ลำปาง สกษ.,ลำปาง,18.31667,99.28333,0.0,09-14-2019,16:00:00,24.5,75,970.27,6.20,29.4,0.20,8.00,000,1005.34,30.80
48350,LOEI AGROMET.,เลย สกษ.,เลย,17.40000,101.73333,5.6,09-14-2019,16:00:00,24.3,60,975.08,0.20,33.0,0.00,16.00,050,1004.07,30.40
48351,UTTARADIT,อุตรดิตถ์,อุตรดิตถ์,17.61667,100.10000,5.6,09-14-2019,16:00:00,23.6,52,996.74,6.70,35.0,0.00,11.00,070,1003.83,29.05
48352,NONG KHAI,หนองคาย,หนองคาย,17.86717,102.73303,11.1,09-14-2019,16:00:00,25.8,61,985.00,0.40,34.3,0.00,18.00,060,1004.37,33.20
48353,LOEI,เลย,เลย,17.45000,101.73333,9.3,09-14-2019,16:00:00,22.5,52,976.66,0.70,33.8,0.00,15.00,110,1004.58,27.18
48354,UDON THANI,อุดรธานี,อุดรธานี,17.38333,102.80000,5.6,09-14-2019,16:00:00,23.4,58,985.24,0.20,32.9,0.20,15.00,070,1004.97,28.77
48355,SAKON NAKHON AGROMET.,สกลนคร สกษ.,สกลนคร,17.12503,104.06100,7.4,09-14-2019,16:00:00,24.7,64,983.98,0.00,32.5,0.00,15.00,010,1005.26,31.11
48356,SAKON NAKHON,สกลนคร,สกลนคร,17.15000,104.13333,0.0,09-14-2019,16:00:00,23.7,60,985.24,0.00,32.5,0.00,15.00,000,1004.32,29.38
48357,NAKHON PHANOM,นครพนม,นครพนม,17.41083,104.78250,0.0,09-14-2019,16:00:00,23.8,57,988.67,0.00,33.4,0.00,12.00,000,1005.02,29.50
48358,NAKHON PHANOM AGROMET.,นครพนม สกษ.,นครพนม,17.44306,104.77361,0.0,09-14-2019,16:00:00,23.7,58,988.17,0.00,33.0,0.00,12.00,000,1005.20,29.25
48360,NONG BUA LAM PHU,หนองบัวลำภู,หนองบัวลำภู,17.23250,102.42944,9.3,09-14-2019,16:00:00,22.9,68,980.75,0.00,29.5,0.00,15.00,120,1006.28,27.96
48372,SUKHOTHAI*,สุโขทัย,สุโขทัย,17.10611,99.80000,20.4,09-14-2019,16:00:00,27.2,76,998.73,0.50,32.0,0.50,10.00,080,1004.41,36.01
48373,SI SAMRONG AGROMET.,ศรีสำโรง สกษ.,สุโขทัย,17.16136,99.86167,9.3,09-14-2019,16:00:00,23.9,71,998.39,1.40,29.7,0.00,10.00,050,1004.51,29.71
48374,LOM SAK,หล่มสัก,เพชรบูรณ์,16.77361,101.24944,0.0,09-14-2019,16:00:00,23.6,52,988.26,1.50,35.0,0.00,12.00,000,1004.23,29.05
48375,MAE SOT,แม่สอด,ตาก,16.65917,98.55083,11.1,09-14-2019,16:00:00,26.3,78,980.82,1.20,30.5,1.20,6.00,330,1002.79,34.22
48376,TAK,ตาก,ตาก,16.87833,99.14333,5.6,09-14-2019,16:00:00,25.2,67,990.82,0.00,32.1,0.00,8.00,080,1004.94,32.02
48377,BHUMIBOL DAM,เขื่อนภูมิพล,ตาก,17.24389,99.00250,0.0,09-14-2019,16:00:00,24.9,60,988.27,0.20,33.8,0.00,12.00,000,1004.25,31.50
48378,PHITSANULOK,พิษณุโลก,พิษณุโลก,16.79481,100.27930,11.1,09-14-2019,16:00:00,23.4,58,999.49,4.60,32.8,0.00,10.00,310,1004.60,28.85
48379,PHETCHABUN,เพชรบูรณ์,เพชรบูรณ์,16.43333,101.15000,5.6,09-14-2019,16:00:00,24.1,56,989.70,4.00,34.1,4.00,12.00,010,1002.54,30.08
48380,KAMPHAENG PHET,กำแพงเพชร,กำแพงเพชร,16.48681,99.52697,5.6,09-14-2019,16:00:00,25.7,63,995.46,0.00,33.7,0.00,15.00,040,1004.55,33.08
48381,KHON KAEN,ขอนแก่น,ขอนแก่น,16.46111,102.78972,7.4,09-14-2019,16:00:00,24.1,63,983.25,8.20,32.0,0.00,10.00,080,1004.53,30.08
48382,MAHASARAKHAM,มหาสารคาม,มหาสารคาม,16.24722,103.06805,7.4,09-14-2019,16:00:00,25.3,64,988.17,0.00,33.0,0.00,10.00,060,1005.30,32.16
48383,MUKDAHAN,มุกดาหาร,มุกดาหาร,16.54139,104.72889,0.0,09-14-2019,16:00:00,24.9,66,988.90,0.00,32.0,0.00,12.00,000,1004.43,31.52
48384,THA PHRA AGROMET.,ท่าพระ สกษ.,ขอนแก่น,16.33333,102.81667,7.4,09-14-2019,16:00:00,26.7,70,985.22,0.80,32.9,0.00,10.00,010,1003.68,34.96
48385,UMPHANG,อุ้มผาง,ตาก,16.02472,98.86444,0.0,09-14-2019,16:00:00,22.9,70,952.77,3.00,29.0,0.00,11.00,000,1003.25,27.83
48386,PICHIT AGROMET.,พิจิตร สกษ.,พิจิตร,16.43806,100.29250,9.3,09-14-2019,16:00:00,26.5,71,1000.17,0.00,32.5,0.00,8.00,010,1004.05,34.68
48387,DOI MU SOE AGROMET.,ดอยมูเซอร์ สกษ.,ตาก,16.75000,98.93333,11.1,09-14-2019,16:00:00,20.2,72,911.49,0.50,25.7,0.50,8.00,360,1005.15,23.63
48390,KALASIN,กาฬสินธุ์,กาฬสินธุ์,16.33250,103.58833,9.3,09-14-2019,16:00:00,24.7,91,989.34,17.80,26.3,8.50,6.00,140,1005.33,31.13
48400,NAKHON SAWAN,นครสวรรค์ ,นครสวรรค์,15.67183,100.13236,0.0,09-14-2019,16:00:00,25.8,62,1000.15,0.50,34.2,0.00,10.00,000,1004.08,33.28
48401,TAKFA AGROMET.,ตากฟ้า สกษ.,นครสวรรค์,15.34944,100.53028,7.4,09-14-2019,16:00:00,24.7,61,994.29,5.50,33.3,0.00,10.00,010,1004.72,31.03
48402,CHAINAT AGROMET.,ชัยนาท สกษ.,ชัยนาท,15.15000,100.18333,0.0,09-14-2019,16:00:00,27.2,77,1002.83,12.70,31.8,1.90,10.00,000,1004.72,36.18
48403,CHAIYAPHUM,ชัยภูมิ,ชัยภูมิ,15.80000,102.03333,3.7,09-14-2019,16:00:00,22.1,52,983.59,0.20,33.2,0.00,12.00,060,1003.97,26.56
48404,ROI ET AGROMET.,ร้อยเอ็ด สกษ.,ร้อยเอ็ด,16.07322,103.60844,13.0,09-14-2019,16:00:00,23.5,62,986.81,20.20,31.7,0.00,11.00,080,1004.15,28.91
48405,ROI ET,ร้อยเอ็ด,ร้อยเอ็ด,16.02000,103.74389,5.6,09-14-2019,16:00:00,24.0,59,988.43,19.60,33.0,0.00,10.00,080,1004.23,29.83
48407,UBON RATCHATHANI,อุบลราชธานี (ศูนย์ฯ),อุบลราชธานี,15.25000,104.86667,11.1,09-14-2019,16:00:00,22.9,60,990.86,0.40,31.8,0.00,10.00,010,1004.64,27.99
48408,UBON RATCHATHANI AGROMET.,อุบลราชธานี สกษ.,อุบลราชธานี,15.23914,105.02350,0.0,09-14-2019,16:00:00,25.1,67,990.73,2.20,32.0,0.00,10.00,000,1005.29,31.81
48409,SI SAKET AGROMET.,ศรีสะเกษ,ศรีสะเกษ,15.00000,104.05000,22.2,09-14-2019,16:00:00,26.2,70,990.06,0.00,32.5,0.00,10.00,040,1004.43,34.07
48410,UTHAITHANI,อุทัยธานี,อุทัยธานี,15.37417,100.03889,0.0,09-14-2019,16:00:00,25.3,60,1000.97,0.10,34.3,0.00,10.00,"{'0': '   ', '@attributes': {'Unit': 'degree'}}",1003.91,32.29
48413,WICHIAN BURI,วิเชียรบุรี,เพชรบูรณ์,15.65700,101.10800,5.6,09-14-2019,16:00:00,25.2,72,996.05,17.30,30.7,9.20,10.00,250,1003.88,32.01
48415,AYUTTHAYA,พระนครศรีอยุธยา,พระนครศรีอยุธยา,14.53472,100.72500,7.4,09-14-2019,16:00:00,25.6,79,1003.34,1.60,29.7,0.00,8.00,090,1004.44,32.83
48416,THA TUM,ท่าตูม,สุรินทร์,15.31667,103.68333,0.0,09-14-2019,16:00:00,21.8,53,989.85,4.50,32.5,0.00,8.00,000,1004.23,26.04
48417,NAKORNNAYOK,นครนายก,นครนายก,14.36222,101.39278,5.6,09-14-2019,16:00:00,20.1,98,871.57,14.00,20.4,14.00,1.00,050,1006.05,23.49
48418,BUA CHUM,บัวชุม  ,ลพบุรี,15.26667,101.18736,0.0,09-14-2019,16:00:00,24.1,60,997.79,12.20,32.8,0.00,10.00,000,1003.54,29.99
48419,PATHUMTHANI,ปทุมธานี สกษ.,ปทุมธานี,14.10000,100.61667,7.4,09-14-2019,16:00:00,27.0,82,1003.99,1.60,30.5,0.10,8.00,050,1004.79,35.72
48420,Samut Prakarn,สมุทรปราการ สกษ.,สมุทรปราการ,13.51667,100.76167,9.3,09-14-2019,16:00:00,24.9,73,1004.67,5.50,30.3,0.00,10.00,230,1005.11,31.48
48421,THONG PHAPHUM,ทองผาภูมิ,กาญจนบุรี,14.74222,98.63639,0.0,09-14-2019,16:00:00,24.3,63,993.87,7.20,32.3,0.00,10.00,000,1004.95,30.40
48425,SUPHAN BURI,สุพรรณบุรี,สุพรรณบุรี,14.47444,100.13889,3.7,09-14-2019,16:00:00,26.1,66,1003.47,0.20,33.2,0.00,12.00,020,1004.45,33.80
48426,LOP BURI,ลพบุรี,ลพบุรี,14.79972,100.64500,9.3,09-14-2019,16:00:00,23.3,74,1003.53,23.70,28.4,0.30,8.00,020,1005.34,28.59
48427,U THONG AGROMET.,อู่ทอง สกษ.,สุพรรณบุรี,14.30361,99.86472,0.0,09-14-2019,16:00:00,24.2,59,1004.67,0.20,33.3,0.00,9.00,000,1005.42,30.16
48429,SUVARNABHUMI AIRPORT,สนามบินสุวรรณภูมิ,สมุทรปราการ,13.68639,100.76750,9.3,09-14-2019,16:00:00,24.8,68,1004.40,15.40,31.3,0.00,10.00,170,1005.09,31.23
48430,PRACHIN BURI,ปราจีนบุรี,ปราจีนบุรี,14.05842,101.36930,5.6,09-14-2019,16:00:00,24.2,86,1003.95,20.30,26.8,19.10,6.00,360,1004.65,30.18
48431,NAKHON RATCHASIMA,นครราชสีมา,นครราชสีมา,14.96830,102.08603,13.0,09-14-2019,16:00:00,23.4,58,983.46,2.10,32.8,0.00,10.00,050,1004.16,28.85
48432,SURIN,สุรินทร์,สุรินทร์,14.88333,103.50000,7.4,09-14-2019,16:00:00,24.9,64,987.89,3.70,32.5,0.00,11.00,070,1004.26,31.40
48433,SURIN AGROMET.,สุรินทร์ สกษ.,สุรินทร์,14.88333,103.45000,9.3,09-14-2019,16:00:00,25.7,72,988.46,11.00,31.5,0.00,10.00,360,1004.61,33.10
48434,CHOK CHAI,โชคชัย,นครราชสีมา,14.71889,102.16861,16.7,09-14-2019,16:00:00,23.8,59,982.64,2.50,32.8,0.00,10.00,050,1004.02,29.42
48435,PAKCHONG AGROMET.,ปากช่อง สกษ.,นครราชสีมา,14.64389,101.33194,14.8,09-14-2019,16:00:00,23.9,74,961.66,0.01,29.0,0.01,14.00,250,1004.51,29.74
48436,NANG RONG,นางรอง,บุรีรัมย์,14.58333,102.80000,7.4,09-14-2019,16:00:00,23.9,60,983.76,16.20,32.8,0.00,11.00,350,1003.87,29.70
48437,BURIRUM,บุรีรัมย์,บุรีรัมย์,15.22575,103.24808,14.8,09-14-2019,16:00:00,26.2,77,985.64,3.20,30.7,3.20,10.00,030,1006.19,34.06
48438,SAMUTSONGKRAM,สมุทรสงคราม,สมุทรสงคราม,13.40778,100.03222,18.5,09-14-2019,16:00:00,25.4,72,1004.60,0.01,31.0,0.00,10.00,200,1005.03,32.34
48439,KABIN BURI,กบินทร์บุรี,ปราจีนบุรี,13.98333,101.70722,0.0,09-14-2019,16:00:00,26.3,82,1003.28,2.70,29.8,0.00,10.00,000,1004.68,34.21
48440,SA KAEW,สระแก้ว,สระแก้ว,13.78889,102.03472,0.0,09-14-2019,16:00:00,27.2,87,1000.17,15.40,29.7,0.00,7.00,000,1005.05,36.08
48450,KANCHANA BURI,กาญจนบุรี,กาญจนบุรี,14.02250,99.53583,9.3,09-14-2019,16:00:00,23.8,65,1001.29,0.00,31.1,0.00,12.00,210,1004.53,29.40
48451,NAKHONPATHOM,นครปฐม,นครปฐม,14.01167,99.97000,0.0,09-14-2019,16:00:00,24.6,57,1003.37,0.30,34.5,0.00,10.00,000,1004.45,30.93
48453,BANG NA AGROMET.,กรุงเทพฯ บางนา สกษ.,กรุงเทพมหานคร,13.66639,100.60611,5.6,09-14-2019,16:00:00,25.4,68,1004.49,2.00,32.0,0.00,10.00,220,1004.79,32.40
48454,BANGKOK PORT (KLONG TOEI),กรุงเทพฯ ท่าเรือคลองเตย,กรุงเทพมหานคร,13.70694,100.56805,5.6,09-14-2019,16:00:00,24.8,65,1003.85,2.00,32.2,0.00,10.00,250,1004.52,31.35
48455,BANGKOK METROPOLIS,กรุงเทพมหานคร,กรุงเทพมหานคร,13.72639,100.56000,1.9,09-14-2019,16:00:00,26.1,72,1004.42,2.40,31.7,0.00,10.00,120,1004.90,33.83
48456,DON MUANG AIRPORT,สนามบินดอนเมือง,กรุงเทพมหานคร,13.91917,100.60500,9.3,09-14-2019,16:00:00,25.0,70,1003.47,0.60,31.1,0.01,9.00,310,1004.85,31.68
48457,PILOT STATION,นำร่อง,สมุทรปราการ,13.39389,100.59944,18.5,09-14-2019,16:00:00,26.0,81,1003.12,7.00,29.5,0.00,10.00,210,1004.79,33.58
48458,CHACHOENGSAO,ฉะเชิงเทรา,ฉะเชิงเทรา,13.51556,101.45833,3.7,09-14-2019,16:00:00,25.6,75,999.43,5.80,30.5,0.00,10.00,230,1007.35,32.75
48459,CHON BURI,ชลบุรี,ชลบุรี,13.36667,100.98333,5.6,09-14-2019,16:00:00,24.9,66,1004.69,1.40,32.0,0.00,10.00,170,1004.97,31.52
48460,KO SICHANG,เกาะสีชัง,ชลบุรี,13.16167,100.80194,0.0,09-14-2019,16:00:00,24.7,78,1002.15,26.00,29.0,0.00,10.00,000,1005.26,31.13
48461,PHATTHAYA,พัทยา,ชลบุรี,12.92000,100.86944,7.4,09-14-2019,16:00:00,23.5,72,998.55,0.00,29.0,0.00,12.00,240,1005.43,28.91
48462,ARANYA PRATHET,อรัญประเทศ,สระแก้ว,13.70000,102.58333,7.4,09-14-2019,16:00:00,23.7,71,999.59,20.20,29.5,0.01,9.00,060,1005.13,29.33
48463,LAEM CHABANG,แหลมฉบัง,ชลบุรี,13.07694,100.87583,11.1,09-14-2019,16:00:00,25.4,76,998.04,18.50,30.1,0.00,10.00,280,1007.26,32.50
48464,RATCHA BURI,ราชบุรี,ราชบุรี,13.48931,99.79239,3.7,09-14-2019,16:00:00,24.9,72,1004.91,0.01,30.4,0.00,6.00,320,1006.16,31.39
48465,PHETCHA BURI,เพชรบุรี,เพชรบุรี,12.99944,100.06056,18.5,09-14-2019,16:00:00,24.5,83,1005.11,2.10,27.7,0.00,11.00,210,1005.54,30.81
48474,NONG PHLUB AGROMET.,หนองพลับ สกษ.,ประจวบคีรีขันธ์,12.58333,99.73333,3.7,09-14-2019,16:00:00,24.4,95,994.07,39.30,25.3,39.30,8.00,190,1006.39,30.60
48475,HUA HIN,หัวหิน,ประจวบคีรีขันธ์,12.58611,99.96250,9.3,09-14-2019,16:00:00,25.2,92,1005.30,11.00,26.6,11.00,10.00,260,1006.01,31.99
48477,SATTAHIP,สัตหีบ,ชลบุรี,12.68333,100.98333,14.8,09-14-2019,16:00:00,24.1,63,1003.54,1.90,32.0,0.00,10.00,200,1005.94,30.08
48478,RAYONG,ระยอง,ระยอง,12.63222,101.34361,0.0,09-14-2019,16:00:00,24.8,81,1005.09,3.10,28.4,0.01,10.00,000,1005.60,31.34
48479,HUAI PONG AGROMET.,ห้วยโป่ง สกษ.,ระยอง,12.73333,101.13333,5.6,09-14-2019,16:00:00,24.7,73,1000.06,1.90,30.0,0.00,11.00,220,1005.16,31.15
48480,CHANTHA BURI,จันทบุรี,จันทบุรี,12.61667,102.11333,0.0,09-14-2019,16:00:00,25.3,91,1005.28,18.80,26.9,0.10,7.00,000,1005.69,32.30
48481,PHLIU  AGROMET.,พลิ้ว สกษ.,จันทบุรี,12.50861,102.17305,5.6,09-14-2019,16:00:00,25.1,92,1003.49,43.90,26.5,2.80,8.00,230,1006.27,31.79
48500,PRACHUAP KHIRIKHAN,ประจวบคีรีขันธ์,ประจวบคีรีขันธ์,11.83333,99.83333,16.7,09-14-2019,16:00:00,22.9,72,1005.66,0.01,28.5,0.00,10.00,250,1006.44,27.97
48501,TRAD,ตราด,ตราด,11.76667,102.88333,5.6,09-14-2019,16:00:00,25.2,89,1005.76,91.60,27.2,0.40,6.00,240,1006.22,32.05
48517,CHUMPHON,ชุมพร,ชุมพร,10.49875,99.18847,7.4,09-14-2019,16:00:00,24.1,96,1007.48,6.00,24.8,4.00,7.00,290,1008.17,29.95
48520,SAWI AGROMET.,สวี สกษ.,ชุมพร,10.33333,99.10000,3.7,09-14-2019,16:00:00,22.5,73,1006.69,4.60,27.8,0.60,8.00,270,1008.22,27.22
48532,RANONG,ระนอง,ระนอง,9.98333,98.61667,5.6,09-14-2019,16:00:00,23.7,86,1007.95,17.00,26.2,0.80,9.00,190,1008.87,29.33
48550,KO SAMUI,เกาะสมุย,สุราษฎร์ธานี,9.46667,100.05000,0.0,09-14-2019,16:00:00,24.3,93,1007.40,20.30,25.5,11.40,9.00,000,1008.09,30.44
48551,SURAT THANI,สุราษฎร์ธานี,สุราษฎร์ธานี,9.13556,99.15194,5.6,09-14-2019,16:00:00,24.2,93,1008.14,9.00,25.5,0.80,10.00,190,1008.94,30.17
48552,NAKHONSI THAMMARAT,นครศรีธรรมราช,นครศรีธรรมราช,8.53778,99.96389,5.6,09-14-2019,16:00:00,22.4,90,1007.44,3.60,24.2,3.50,7.00,360,1008.08,27.09
48554,NAKHONSI THAMMARAT AGROMET.,นครศรีธรรมราช สกษ.,นครศรีธรรมราช,8.35931,100.00000,0.0,09-14-2019,16:00:00,24.4,98,1008.30,29.10,24.7,21.70,10.00,000,1008.71,30.56
48555,SURAT THANI AGROMET.,สุราษฎร์ธานี สกษ.,สุราษฎร์ธานี,9.10000,99.63333,0.0,09-14-2019,16:00:00,23.6,97,1006.65,15.40,24.2,14.90,6.00,000,1010.92,29.13
48556,PHRA SANG,พระแสง สอท.,สุราษฎร์ธานี,8.57022,99.25825,0.0,09-14-2019,16:00:00,22.5,91,1007.48,7.00,24.0,7.00,8.00,000,1009.11,27.25
48557,CHAWANG,ฉวาง,นครศรีธรรมราช,8.43194,99.51194,0.0,09-14-2019,16:00:00,22.5,91,1006.05,12.40,24.0,12.40,7.00,000,1009.57,27.25
48560,PHATTHALUNG AGROMET.,พัทลุง สกษ.,พัทลุง,7.58333,100.16667,14.8,09-14-2019,16:00:00,21.5,62,1007.09,0.00,29.5,0.00,10.00,300,1008.43,25.57
48561,TAKUA PA,ตะกั่วป่า,พังงา,8.68417,98.25222,0.0,09-14-2019,16:00:00,24.2,94,1008.19,3.00,25.2,1.60,10.00,000,1009.08,30.15
48563,KRABI,กระบี่,กระบี่,8.10361,98.97528,0.0,09-14-2019,16:00:00,22.9,81,1005.55,3.60,26.4,2.80,10.00,000,1009.12,27.85
48564,PHUKET,ภูเก็ต,ภูเก็ต,7.88333,98.40000,0.0,09-14-2019,16:00:00,24.3,78,1008.08,3.80,28.5,0.20,8.00,000,1008.52,30.42
48565,PHUKET AIRPORT,ภูเก็ต (ศูนย์ฯ),ภูเก็ต,8.14500,98.31444,9.3,09-14-2019,16:00:00,23.3,78,1007.34,6.70,27.5,6.70,8.00,280,1008.33,28.53
48566,KO LANTA,เกาะลันตา,กระบี่,7.53333,99.05000,0.0,09-14-2019,16:00:00,23.8,84,1008.20,8.80,26.7,2.80,9.00,000,1009.02,29.45
48567,TRANG AIRPORT,ตรัง,ตรัง,7.51667,99.61667,0.0,09-14-2019,16:00:00,24.7,82,1007.11,2.50,28.0,1.20,12.00,000,1008.92,31.11
48568,SONGKHLA,สงขลา,สงขลา,7.18211,100.60769,7.4,09-14-2019,16:00:00,22.4,64,1007.26,1.50,29.9,0.00,12.00,230,1008.01,27.09
48569,HAT YAI AIRPORT,หาดใหญ่,สงขลา,6.91667,100.43333,13.0,09-14-2019,16:00:00,23.0,74,1004.37,0.01,28.1,0.00,10.00,240,1008.35,28.04
48570,SATUN,สตูล,สตูล,6.65000,100.08333,0.0,09-14-2019,16:00:00,23.8,80,1007.97,1.20,27.6,0.70,10.00,000,1008.66,29.52
48571,KHO HONG AGROMET.,คอหงษ์ สกษ.,สงขลา,7.00000,100.50000,13.0,09-14-2019,16:00:00,23.1,70,1007.20,14.20,29.2,0.00,10.00,270,1008.31,28.21
48574,SA DAO,สะเดา,สงขลา,6.79806,100.39056,9.3,09-14-2019,16:00:00,24.0,82,1005.96,1.00,27.3,0.00,10.00,220,1008.88,29.77
48580,PATTANI AIRPORT,ปัตตานี,ปัตตานี,6.78333,101.15000,5.6,09-14-2019,16:00:00,23.2,87,1007.52,5.90,25.6,3.80,11.00,240,1008.21,28.51
48581,YALA AGROMET.,ยะลา สกษ.,ยะลา,6.51667,101.28333,0.0,09-14-2019,16:00:00,24.1,94,1005.08,9.50,25.1,9.50,7.00,000,1009.24,29.97
48583,NARATHIWAT,นราธิวาส,นราธิวาส,6.41667,101.81667,0.0,09-14-2019,16:00:00,22.3,84,1007.78,6.50,25.3,6.50,8.00,000,1008.37,26.95
