WmoStationNumber,StationNameEnglish,StationNameThai,Province,Latitude,Longitude,VaporPressure,Date,Time,AirTemperature,Rainfall24Hr,StationPressure,WindSpeed,DewPoint,RelativeHumidity,WindDirection,LandVisibility,MeanSeaLevelPressure,Rainfall
48300,MAE HONG SON,แม่ฮ่องสอน,แม่ฮ่องสอน,19.29897,97.97578,31.39,09-12-2019,16:00:00,28.0,2.40,978.05,7.4,24.8,83,350,10.00,1008.82,2.30
48302,DOI ANG KANG,ดอยอ่างขาง,เชียงใหม่,19.93139,99.04833,20.99,09-12-2019,16:00:00,22.9,0.00,846.50,7.4,18.3,75,270,8.00,1005.53,0.00
48303,CHIANG RAI,เชียงราย,เชียงราย,19.96139,99.88139,27.93,09-12-2019,16:00:00,31.2,0.20,964.08,3.7,22.9,61,170,10.00,1006.92,0.20
48304,CHAING RAI AGROMET.,เชียงราย สกษ.,เชียงราย,19.87083,99.78278,28.91,09-12-2019,16:00:00,30.0,0.00,962.30,0.0,23.5,68,000,15.00,1007.19,0.00
48307,THUNG CHANG,ทุ่งช้าง,น่าน,19.41194,100.88353,30.05,09-12-2019,16:00:00,31.0,3.20,970.44,9.3,24.1,67,180,12.00,1007.45,0.00
48310,PHAYAO,พะเยา,พะเยา,19.13333,99.90000,27.84,09-12-2019,16:00:00,33.0,0.00,962.49,7.4,22.9,55,140,12.00,1006.49,0.00
48315,THA WANGPHA,ท่าวังผา,น่าน,19.11056,100.80250,28.50,09-12-2019,16:00:00,32.2,0.20,982.17,11.1,23.2,59,220,12.00,1008.40,0.00
48324,THOEN,เถิน,ลำปาง,17.63661,99.24475,29.25,09-12-2019,16:00:00,33.0,0.70,986.51,7.4,23.7,58,270,15.00,1007.82,0.00
48325,MAE SARIANG,แม่สะเรียง,แม่ฮ่องสอน,18.16667,97.93333,29.65,09-12-2019,16:00:00,30.8,1.30,985.18,0.0,23.9,67,000,10.00,1008.97,0.00
48327,CHIANG MAI,เชียงใหม่,เชียงใหม่,18.79000,98.97694,27.22,09-12-2019,16:00:00,32.4,0.01,973.47,3.7,22.5,56,210,10.00,1007.29,0.00
48328,LAMPANG,ลำปาง,ลำปาง,18.28333,99.51667,28.81,09-12-2019,16:00:00,32.5,0.00,980.86,0.0,23.4,59,000,10.00,1007.85,0.00
48329,LAMPHUN,ลำพูน,ลำพูน,18.56722,99.03389,25.82,09-12-2019,16:00:00,32.1,0.00,974.60,5.6,21.6,54,240,12.00,1007.54,0.00
48330,PHRAE,แพร่,แพร่,18.16667,100.16667,29.96,09-12-2019,16:00:00,31.8,1.10,989.53,3.7,24.1,64,180,12.00,1007.72,0.00
48331,NAN,น่าน,น่าน,18.77972,100.77778,27.71,09-12-2019,16:00:00,33.5,0.00,985.04,0.0,22.8,54,000,10.00,1007.35,0.00
48333,NAN AGROMET.,น่าน สกษ.,น่าน,18.86667,100.75000,27.28,09-12-2019,16:00:00,33.0,0.01,978.22,0.0,22.5,54,000,12.00,1007.47,0.00
48334,LAMPANG AGROMET.,ลำปาง สกษ.,ลำปาง,18.31667,99.28333,30.49,09-12-2019,16:00:00,31.5,0.80,972.81,0.0,24.4,66,000,8.00,1007.72,0.00
48350,LOEI AGROMET.,เลย สกษ.,เลย,17.40000,101.73333,29.79,09-12-2019,16:00:00,32.0,0.00,977.56,7.4,24.0,63,290,15.00,1006.72,0.00
48351,UTTARADIT,อุตรดิตถ์,อุตรดิตถ์,17.61667,100.10000,27.79,09-12-2019,16:00:00,31.7,0.60,1001.23,0.0,22.8,59,000,11.00,1008.44,0.00
48352,NONG KHAI,หนองคาย,หนองคาย,17.86717,102.73303,34.36,09-12-2019,16:00:00,34.0,0.00,987.01,9.3,26.4,65,250,20.00,1006.43,0.00
48353,LOEI,เลย,เลย,17.45000,101.73333,26.83,09-12-2019,16:00:00,32.2,0.01,978.79,11.1,22.2,56,340,15.00,1006.92,0.00
48354,UDON THANI,อุดรธานี,อุดรธานี,17.38333,102.80000,29.83,09-12-2019,16:00:00,33.0,22.20,987.21,7.4,24.0,59,310,18.00,1006.98,0.00
48355,SAKON NAKHON AGROMET.,สกลนคร สกษ.,สกลนคร,17.12503,104.06100,31.28,09-12-2019,16:00:00,33.0,0.60,986.16,3.7,24.8,62,330,15.00,1007.46,0.00
48356,SAKON NAKHON,สกลนคร,สกลนคร,17.15000,104.13333,28.12,09-12-2019,16:00:00,33.0,0.30,987.47,7.4,23.0,56,340,15.00,1006.55,0.00
48357,NAKHON PHANOM,นครพนม,นครพนม,17.41083,104.78250,29.91,09-12-2019,16:00:00,32.2,0.00,990.36,3.7,24.0,62,210,13.00,1006.81,0.00
48358,NAKHON PHANOM AGROMET.,นครพนม สกษ.,นครพนม,17.44306,104.77361,32.38,09-12-2019,16:00:00,33.1,0.00,990.06,3.7,25.4,64,080,12.00,1007.11,0.00
48360,NONG BUA LAM PHU,หนองบัวลำภู,หนองบัวลำภู,17.23250,102.42944,32.10,09-12-2019,16:00:00,31.3,3.10,980.89,7.4,25.2,70,270,15.00,1006.27,0.00
48372,SUKHOTHAI*,สุโขทัย,สุโขทัย,17.10611,99.80000,30.41,09-12-2019,16:00:00,31.6,0.60,1002.23,3.7,24.3,65,240,10.00,1007.94,0.00
48373,SI SAMRONG AGROMET.,ศรีสำโรง สกษ.,สุโขทัย,17.16136,99.86167,30.49,09-12-2019,16:00:00,31.5,0.10,1001.95,0.0,24.4,66,000,12.00,1008.06,0.00
48374,LOM SAK,หล่มสัก,เพชรบูรณ์,16.77361,101.24944,28.66,09-12-2019,16:00:00,32.0,0.40,992.00,0.0,23.3,60,000,12.00,1008.18,0.00
48375,MAE SOT,แม่สอด,ตาก,16.65917,98.55083,26.21,09-12-2019,16:00:00,30.0,3.00,986.11,9.3,21.9,62,240,10.00,1008.23,0.00
48376,TAK,ตาก,ตาก,16.87833,99.14333,27.22,09-12-2019,16:00:00,32.4,0.00,994.55,11.1,22.5,56,260,8.00,1008.71,0.00
48377,BHUMIBOL DAM,เขื่อนภูมิพล,ตาก,17.24389,99.00250,29.83,09-12-2019,16:00:00,33.0,2.00,991.71,0.0,24.0,59,000,7.00,1007.79,0.00
48378,PHITSANULOK,พิษณุโลก,พิษณุโลก,16.79481,100.27930,28.51,09-12-2019,16:00:00,31.5,0.10,1003.45,11.1,23.2,62,280,10.00,1008.61,0.00
48379,PHETCHABUN,เพชรบูรณ์,เพชรบูรณ์,16.43333,101.15000,31.52,09-12-2019,16:00:00,32.0,0.00,993.54,0.0,24.9,66,000,12.00,1006.51,0.00
48380,KAMPHAENG PHET,กำแพงเพชร,กำแพงเพชร,16.48681,99.52697,29.21,09-12-2019,16:00:00,32.7,0.20,999.22,5.6,23.7,59,280,12.00,1008.39,0.00
48381,KHON KAEN,ขอนแก่น,ขอนแก่น,16.46111,102.78972,28.56,09-12-2019,16:00:00,32.8,0.10,986.09,11.1,23.3,57,300,10.00,1007.37,0.00
48382,MAHASARAKHAM,มหาสารคาม,มหาสารคาม,16.24722,103.06805,29.50,09-12-2019,16:00:00,32.7,0.00,990.65,11.1,23.8,60,330,12.00,1007.84,0.00
48383,MUKDAHAN,มุกดาหาร,มุกดาหาร,16.54139,104.72889,30.22,09-12-2019,16:00:00,30.1,0.00,990.80,11.1,24.2,71,230,12.00,1006.46,0.00
48384,THA PHRA AGROMET.,ท่าพระ สกษ.,ขอนแก่น,16.33333,102.81667,30.36,09-12-2019,16:00:00,32.7,0.00,987.07,0.0,24.3,61,000,10.00,1005.57,0.00
48385,UMPHANG,อุ้มผาง,ตาก,16.02472,98.86444,24.30,09-12-2019,16:00:00,27.6,0.80,960.28,0.0,20.6,66,000,11.00,1011.41,0.00
48386,PICHIT AGROMET.,พิจิตร สกษ.,พิจิตร,16.43806,100.29250,31.31,09-12-2019,16:00:00,31.9,20.60,1004.39,5.6,24.8,66,340,10.00,1008.28,0.00
48387,DOI MU SOE AGROMET.,ดอยมูเซอร์ สกษ.,ตาก,16.75000,98.93333,24.37,09-12-2019,16:00:00,24.8,1.20,914.82,16.7,20.7,78,210,9.00,1009.12,0.00
48390,KALASIN,กาฬสินธุ์,กาฬสินธุ์,16.33250,103.58833,31.69,09-12-2019,16:00:00,32.5,0.20,991.49,5.6,25.0,65,290,10.00,1007.19,0.00
48400,NAKHON SAWAN,นครสวรรค์ ,นครสวรรค์,15.67183,100.13236,32.53,09-12-2019,16:00:00,32.2,0.01,1004.70,5.6,25.4,68,340,12.00,1008.67,0.00
48401,TAKFA AGROMET.,ตากฟ้า สกษ.,นครสวรรค์,15.34944,100.53028,27.27,09-12-2019,16:00:00,32.0,1.80,998.98,9.3,22.5,57,330,10.00,1009.50,0.00
48402,CHAINAT AGROMET.,ชัยนาท สกษ.,ชัยนาท,15.15000,100.18333,27.97,09-12-2019,16:00:00,32.5,0.20,1006.88,0.0,22.9,57,000,15.00,1008.78,0.00
48403,CHAIYAPHUM,ชัยภูมิ,ชัยภูมิ,15.80000,102.03333,27.54,09-12-2019,16:00:00,33.7,0.00,986.32,9.3,22.7,53,230,12.00,1006.72,0.00
48404,ROI ET AGROMET.,ร้อยเอ็ด สกษ.,ร้อยเอ็ด,16.07322,103.60844,30.08,09-12-2019,16:00:00,32.0,32.90,989.52,5.6,24.1,63,300,10.00,1006.90,0.00
48405,ROI ET,ร้อยเอ็ด,ร้อยเอ็ด,16.02000,103.74389,30.48,09-12-2019,16:00:00,32.2,25.20,990.86,0.0,24.4,63,000,10.00,1006.74,0.00
48407,UBON RATCHATHANI,อุบลราชธานี (ศูนย์ฯ),อุบลราชธานี,15.25000,104.86667,28.66,09-12-2019,16:00:00,32.0,0.01,993.36,9.3,23.3,60,300,10.00,1007.17,0.00
48408,UBON RATCHATHANI AGROMET.,อุบลราชธานี สกษ.,อุบลราชธานี,15.23914,105.02350,31.52,09-12-2019,16:00:00,32.0,0.00,992.68,0.0,24.9,66,000,12.00,1007.27,0.00
48409,SI SAKET AGROMET.,ศรีสะเกษ,ศรีสะเกษ,15.00000,104.05000,31.27,09-12-2019,16:00:00,32.3,0.50,993.59,7.4,24.8,65,290,10.00,1008.02,0.00
48410,UTHAITHANI,อุทัยธานี,อุทัยธานี,15.37417,100.03889,24.65,09-12-2019,16:00:00,31.9,0.30,1005.70,0.0,20.9,52,"{'0': '   ', '@attributes': {'Unit': 'degree'}}",10.00,1008.68,0.00
48413,WICHIAN BURI,วิเชียรบุรี,เพชรบูรณ์,15.65700,101.10800,30.28,09-12-2019,16:00:00,32.8,0.70,1000.06,0.0,24.2,61,000,10.00,1007.86,0.00
48415,AYUTTHAYA,พระนครศรีอยุธยา,พระนครศรีอยุธยา,14.53472,100.72500,32.74,09-12-2019,16:00:00,32.3,23.00,1007.33,9.3,25.6,68,270,8.00,1008.42,0.00
48416,THA TUM,ท่าตูม,สุรินทร์,15.31667,103.68333,34.65,09-12-2019,16:00:00,31.8,0.00,997.03,3.7,26.5,74,080,9.00,1011.55,0.00
48417,NAKORNNAYOK,นครนายก,นครนายก,14.36222,101.39278,22.41,09-12-2019,16:00:00,23.7,7.20,874.87,7.4,19.3,77,280,10.00,1008.28,0.00
48418,BUA CHUM,บัวชุม  ,ลพบุรี,15.26667,101.18736,32.05,09-12-2019,16:00:00,33.5,19.90,1002.47,5.6,25.2,62,250,10.00,1008.23,0.00
48419,PATHUMTHANI,ปทุมธานี สกษ.,ปทุมธานี,14.10000,100.61667,29.71,09-12-2019,16:00:00,34.2,0.00,1008.44,5.6,23.9,55,310,9.00,1009.22,0.00
48420,Samut Prakarn,สมุทรปราการ สกษ.,สมุทรปราการ,13.51667,100.76167,28.68,09-12-2019,16:00:00,31.3,0.00,1008.40,7.4,23.3,63,210,10.00,1008.84,0.00
48421,THONG PHAPHUM,ทองผาภูมิ,กาญจนบุรี,14.74222,98.63639,26.72,09-12-2019,16:00:00,32.0,0.00,998.94,0.0,22.2,56,000,10.00,1010.10,0.00
48425,SUPHAN BURI,สุพรรณบุรี,สุพรรณบุรี,14.47444,100.13889,29.58,09-12-2019,16:00:00,34.0,1.40,1007.70,0.0,23.9,56,000,12.00,1008.69,0.00
48426,LOP BURI,ลพบุรี,ลพบุรี,14.79972,100.64500,31.11,09-12-2019,16:00:00,32.5,8.50,1007.00,3.7,24.7,64,320,11.00,1008.80,0.00
48427,U THONG AGROMET.,อู่ทอง สกษ.,สุพรรณบุรี,14.30361,99.86472,22.87,09-12-2019,16:00:00,33.1,0.10,1007.59,7.4,19.7,45,280,10.00,1008.34,0.00
48429,SUVARNABHUMI AIRPORT,สนามบินสุวรรณภูมิ,สมุทรปราการ,13.68639,100.76750,27.16,09-12-2019,16:00:00,32.8,0.60,1008.00,9.3,22.5,55,260,10.00,1008.69,0.00
48430,PRACHIN BURI,ปราจีนบุรี,ปราจีนบุรี,14.05842,101.36930,29.13,09-12-2019,16:00:00,34.9,20.50,1007.69,7.4,23.6,52,310,12.00,1008.38,0.00
48431,NAKHON RATCHASIMA,นครราชสีมา,นครราชสีมา,14.96830,102.08603,29.13,09-12-2019,16:00:00,32.8,9.00,987.02,7.4,23.6,59,280,12.00,1007.79,0.00
48432,SURIN,สุรินทร์,สุรินทร์,14.88333,103.50000,30.86,09-12-2019,16:00:00,32.8,8.40,991.10,3.7,24.6,62,250,12.00,1007.51,0.00
48433,SURIN AGROMET.,สุรินทร์ สกษ.,สุรินทร์,14.88333,103.45000,29.58,09-12-2019,16:00:00,32.6,27.10,992.17,7.4,23.9,60,270,14.00,1008.32,0.00
48434,CHOK CHAI,โชคชัย,นครราชสีมา,14.71889,102.16861,26.45,09-12-2019,16:00:00,33.0,0.00,986.34,18.5,22.0,53,320,12.00,1007.79,0.00
48435,PAKCHONG AGROMET.,ปากช่อง สกษ.,นครราชสีมา,14.64389,101.33194,28.41,09-12-2019,16:00:00,28.3,20.20,965.76,16.7,23.2,74,260,14.00,1008.90,0.00
48436,NANG RONG,นางรอง,บุรีรัมย์,14.58333,102.80000,28.00,09-12-2019,16:00:00,32.8,6.00,987.39,5.6,23.0,56,270,12.00,1007.57,0.00
48437,BURIRUM,บุรีรัมย์,บุรีรัมย์,15.22575,103.24808,30.94,09-12-2019,16:00:00,32.7,1.20,988.87,7.4,24.6,63,310,10.00,1009.35,0.00
48438,SAMUTSONGKRAM,สมุทรสงคราม,สมุทรสงคราม,13.40778,100.03222,31.76,09-12-2019,16:00:00,30.3,0.80,1008.52,5.6,25.0,74,190,10.00,1008.95,0.30
48439,KABIN BURI,กบินทร์บุรี,ปราจีนบุรี,13.98333,101.70722,33.06,09-12-2019,16:00:00,33.0,40.10,1006.95,0.0,25.7,66,000,11.00,1008.34,0.00
48440,SA KAEW,สระแก้ว,สระแก้ว,13.78889,102.03472,30.90,09-12-2019,16:00:00,31.7,3.00,1003.32,0.0,24.6,66,000,10.00,1008.19,0.00
48450,KANCHANA BURI,กาญจนบุรี,กาญจนบุรี,14.02250,99.53583,26.62,09-12-2019,16:00:00,33.8,0.00,1005.72,3.7,22.1,51,340,12.00,1008.95,0.00
48451,NAKHONPATHOM,นครปฐม,นครปฐม,14.01167,99.97000,26.86,09-12-2019,16:00:00,32.5,16.40,1007.81,5.6,22.3,55,260,10.00,1008.90,0.00
48453,BANG NA AGROMET.,กรุงเทพฯ บางนา สกษ.,กรุงเทพมหานคร,13.66639,100.60611,27.25,09-12-2019,16:00:00,34.4,7.60,1008.42,13.0,22.5,50,290,10.00,1008.71,0.00
48454,BANGKOK PORT (KLONG TOEI),กรุงเทพฯ ท่าเรือคลองเตย,กรุงเทพมหานคร,13.70694,100.56805,28.51,09-12-2019,16:00:00,34.6,32.90,1008.01,7.4,23.2,52,220,10.00,1008.68,0.00
48455,BANGKOK METROPOLIS,กรุงเทพมหานคร,กรุงเทพมหานคร,13.72639,100.56000,28.80,09-12-2019,16:00:00,33.2,1.80,1008.20,5.6,23.4,57,120,10.00,1008.68,0.00
48456,DON MUANG AIRPORT,สนามบินดอนเมือง,กรุงเทพมหานคร,13.91917,100.60500,27.00,09-12-2019,16:00:00,33.0,1.20,1007.68,18.5,22.4,54,310,10.00,1009.06,0.00
48457,PILOT STATION,นำร่อง,สมุทรปราการ,13.39389,100.59944,32.59,09-12-2019,16:00:00,30.0,0.00,1006.99,18.5,25.5,77,210,12.00,1008.65,0.00
48458,CHACHOENGSAO,ฉะเชิงเทรา,ฉะเชิงเทรา,13.51556,101.45833,28.00,09-12-2019,16:00:00,32.8,0.20,1002.48,0.0,23.0,56,000,10.00,1010.36,0.00
48459,CHON BURI,ชลบุรี,ชลบุรี,13.36667,100.98333,27.67,09-12-2019,16:00:00,33.2,0.00,1008.51,7.4,22.8,54,230,10.00,1008.78,0.00
48460,KO SICHANG,เกาะสีชัง,ชลบุรี,13.16167,100.80194,27.14,09-12-2019,16:00:00,30.5,0.00,1006.04,5.6,22.4,62,230,10.00,1009.14,0.00
48461,PHATTHAYA,พัทยา,ชลบุรี,12.92000,100.86944,25.33,09-12-2019,16:00:00,32.7,0.00,1002.51,5.6,21.3,51,260,10.00,1009.34,0.00
48462,ARANYA PRATHET,อรัญประเทศ,สระแก้ว,13.70000,102.58333,29.09,09-12-2019,16:00:00,33.2,15.50,1002.72,11.1,23.6,57,280,10.00,1008.21,0.00
48463,LAEM CHABANG,แหลมฉบัง,ชลบุรี,13.07694,100.87583,25.90,09-12-2019,16:00:00,34.0,0.00,1001.06,9.3,21.7,49,230,12.00,1010.19,0.00
48464,RATCHA BURI,ราชบุรี,ราชบุรี,13.48931,99.79239,31.23,09-12-2019,16:00:00,32.0,0.50,1008.80,7.4,24.8,66,230,12.00,1010.05,0.50
48465,PHETCHA BURI,เพชรบุรี,เพชรบุรี,12.99944,100.06056,30.57,09-12-2019,16:00:00,29.0,1.20,1008.57,0.0,24.4,76,000,11.00,1009.00,1.20
48474,NONG PHLUB AGROMET.,หนองพลับ สกษ.,ประจวบคีรีขันธ์,12.58333,99.73333,26.04,09-12-2019,16:00:00,33.5,0.00,997.41,16.7,21.8,50,310,9.00,1009.44,0.00
48475,HUA HIN,หัวหิน,ประจวบคีรีขันธ์,12.58611,99.96250,29.73,09-12-2019,16:00:00,30.7,0.00,1008.81,5.6,23.9,67,090,10.00,1009.51,0.00
48477,SATTAHIP,สัตหีบ,ชลบุรี,12.68333,100.98333,32.99,09-12-2019,16:00:00,32.0,0.00,1007.27,7.4,25.7,69,350,10.00,1009.67,0.00
48478,RAYONG,ระยอง,ระยอง,12.63222,101.34361,31.31,09-12-2019,16:00:00,30.5,0.20,1009.15,13.0,24.8,72,240,12.00,1009.66,0.00
48479,HUAI PONG AGROMET.,ห้วยโป่ง สกษ.,ระยอง,12.73333,101.13333,21.69,09-12-2019,16:00:00,33.9,0.00,1003.74,9.3,18.8,41,280,13.00,1008.79,0.00
48480,CHANTHA BURI,จันทบุรี,จันทบุรี,12.61667,102.11333,33.15,09-12-2019,16:00:00,31.8,16.90,1008.46,13.0,25.8,71,200,10.00,1008.87,0.00
48481,PHLIU  AGROMET.,พลิ้ว สกษ.,จันทบุรี,12.50861,102.17305,34.90,09-12-2019,16:00:00,31.5,7.20,1006.19,11.1,26.6,76,210,8.00,1008.92,0.00
48500,PRACHUAP KHIRIKHAN,ประจวบคีรีขันธ์,ประจวบคีรีขันธ์,11.83333,99.83333,34.41,09-12-2019,16:00:00,33.2,0.00,1009.08,11.1,26.4,68,130,10.00,1009.85,0.00
48501,TRAD,ตราด,ตราด,11.76667,102.88333,33.52,09-12-2019,16:00:00,31.0,0.00,1008.56,9.3,26.0,75,260,8.00,1009.02,0.00
48517,CHUMPHON,ชุมพร,ชุมพร,10.49875,99.18847,29.33,09-12-2019,16:00:00,33.6,2.40,1009.39,13.0,23.7,56,290,10.00,1010.06,0.00
48520,SAWI AGROMET.,สวี สกษ.,ชุมพร,10.33333,99.10000,27.22,09-12-2019,16:00:00,32.4,0.00,1008.40,5.6,22.5,56,310,9.00,1009.90,0.00
48532,RANONG,ระนอง,ระนอง,9.98333,98.61667,28.23,09-12-2019,16:00:00,31.5,0.00,1010.64,0.0,23.1,61,000,10.00,1011.54,0.00
48550,KO SAMUI,เกาะสมุย,สุราษฎร์ธานี,9.46667,100.05000,33.85,09-12-2019,16:00:00,30.6,0.00,1009.68,11.1,26.1,77,090,10.00,1010.36,0.00
48551,SURAT THANI,สุราษฎร์ธานี,สุราษฎร์ธานี,9.13556,99.15194,31.08,09-12-2019,16:00:00,33.6,9.00,1009.65,7.4,24.7,60,340,10.00,1010.43,0.00
48552,NAKHONSI THAMMARAT,นครศรีธรรมราช,นครศรีธรรมราช,8.53778,99.96389,28.26,09-12-2019,16:00:00,29.8,2.20,1008.58,9.3,23.1,67,330,10.00,1009.21,0.00
48554,NAKHONSI THAMMARAT AGROMET.,นครศรีธรรมราช สกษ.,นครศรีธรรมราช,8.35931,100.00000,31.93,09-12-2019,16:00:00,30.1,0.01,1009.91,11.1,25.1,75,350,10.00,1010.31,0.00
48555,SURAT THANI AGROMET.,สุราษฎร์ธานี สกษ.,สุราษฎร์ธานี,9.10000,99.63333,29.83,09-12-2019,16:00:00,29.9,0.50,1008.10,5.6,24.0,71,140,7.00,1012.28,0.00
48556,PHRA SANG,พระแสง สอท.,สุราษฎร์ธานี,8.57022,99.25825,31.68,09-12-2019,16:00:00,31.8,4.20,1007.68,0.0,25.0,67,000,12.00,1009.27,0.00
48557,CHAWANG,ฉวาง,นครศรีธรรมราช,8.43194,99.51194,30.34,09-12-2019,16:00:00,34.5,0.00,1006.14,0.0,24.3,55,000,10.00,1009.53,0.00
48560,PHATTHALUNG AGROMET.,พัทลุง สกษ.,พัทลุง,7.58333,100.16667,29.42,09-12-2019,16:00:00,32.8,2.50,1007.56,7.4,23.8,59,110,8.00,1008.89,0.00
48561,TAKUA PA,ตะกั่วป่า,พังงา,8.68417,98.25222,31.06,09-12-2019,16:00:00,30.8,0.00,1009.83,7.4,24.7,70,300,12.00,1010.71,0.00
48563,KRABI,กระบี่,กระบี่,8.10361,98.97528,28.66,09-12-2019,16:00:00,32.0,0.00,1006.30,7.4,23.3,60,230,10.00,1009.80,0.00
48564,PHUKET,ภูเก็ต,ภูเก็ต,7.88333,98.40000,30.11,09-12-2019,16:00:00,33.0,0.80,1009.60,9.3,24.2,60,260,10.00,1010.03,0.60
48565,PHUKET AIRPORT,ภูเก็ต (ศูนย์ฯ),ภูเก็ต,8.14500,98.31444,29.48,09-12-2019,16:00:00,31.0,0.00,1010.80,9.3,23.8,66,340,10.00,1011.78,0.00
48566,KO LANTA,เกาะลันตา,กระบี่,7.53333,99.05000,32.51,09-12-2019,16:00:00,30.8,0.00,1009.21,11.1,25.4,73,300,10.00,1010.02,0.00
48567,TRANG AIRPORT,ตรัง,ตรัง,7.51667,99.61667,31.52,09-12-2019,16:00:00,32.0,0.00,1007.60,9.3,24.9,66,260,8.00,1009.39,0.00
48568,SONGKHLA,สงขลา,สงขลา,7.18211,100.60769,32.17,09-12-2019,16:00:00,30.5,0.00,1008.82,7.4,25.3,74,040,10.00,1009.56,0.00
48569,HAT YAI AIRPORT,หาดใหญ่,สงขลา,6.91667,100.43333,26.58,09-12-2019,16:00:00,28.9,0.40,1005.69,16.7,22.1,67,320,9.00,1009.67,0.40
48570,SATUN,สตูล,สตูล,6.65000,100.08333,28.56,09-12-2019,16:00:00,33.5,0.00,1008.74,7.4,23.3,55,260,8.00,1009.41,0.00
48571,KHO HONG AGROMET.,คอหงษ์ สกษ.,สงขลา,7.00000,100.50000,31.46,09-12-2019,16:00:00,26.9,1.20,1008.66,22.2,24.9,89,340,8.00,1009.78,1.20
48574,SA DAO,สะเดา,สงขลา,6.79806,100.39056,29.58,09-12-2019,16:00:00,34.0,0.00,1006.22,7.4,23.9,56,310,11.00,1009.08,0.00
48580,PATTANI AIRPORT,ปัตตานี,ปัตตานี,6.78333,101.15000,34.07,09-12-2019,16:00:00,32.5,0.00,1008.02,9.3,26.2,70,010,10.00,1008.70,0.00
48581,YALA AGROMET.,ยะลา สกษ.,ยะลา,6.51667,101.28333,26.44,09-12-2019,16:00:00,29.4,4.30,1005.63,13.0,22.0,65,230,6.00,1009.73,0.00
48583,NARATHIWAT,นราธิวาส,นราธิวาส,6.41667,101.81667,29.89,09-12-2019,16:00:00,30.5,71.10,1008.52,7.4,24.0,68,060,12.00,1009.10,0.00
