WmoStationNumber,StationNameEnglish,StationNameThai,Province,Latitude,Longitude,MeanSeaLevelPressure,Date,Time,Rainfall,DewPoint,AirTemperature,LandVisibility,WindDirection,Rainfall24Hr,VaporPressure,WindSpeed,StationPressure,RelativeHumidity
48300,MAE HONG SON,แม่ฮ่องสอน,แม่ฮ่องสอน,19.29897,97.97578,1008.41,09-17-2019,22:00:00,0.00,24.8,27.2,10.00,000,0.00,31.22,0.0,977.58,87
48302,DOI ANG KANG,ดอยอ่างขาง,เชียงใหม่,19.93139,99.04833,1007.24,09-17-2019,22:00:00,0.00,16.4,21.8,10.00,140,0.00,18.58,3.7,847.41,71
48303,CHIANG RAI,เชียงราย,เชียงราย,19.96139,99.88139,1008.33,09-17-2019,22:00:00,0.00,22.9,26.9,10.00,000,0.00,27.96,0.0,964.84,79
48304,CHAING RAI AGROMET.,เชียงราย สกษ.,เชียงราย,19.87083,99.78278,1008.36,09-17-2019,22:00:00,0.00,23.2,25.7,15.00,000,0.00,28.42,0.0,962.79,86
48307,THUNG CHANG,ทุ่งช้าง,น่าน,19.41194,100.88353,1009.71,09-17-2019,22:00:00,0.00,23.4,24.0,6.00,000,4.10,28.78,0.0,971.76,97
48310,PHAYAO,พะเยา,พะเยา,19.13333,99.90000,1008.41,09-17-2019,22:00:00,0.00,23.6,27.0,12.00,000,0.00,29.21,0.0,963.47,82
48315,THA WANGPHA,ท่าวังผา,น่าน,19.11056,100.80250,1009.42,09-17-2019,22:00:00,0.00,23.8,26.0,8.00,000,0.00,29.50,0.0,982.63,88
48324,THOEN,เถิน,ลำปาง,17.63661,99.24475,1008.44,09-17-2019,22:00:00,0.00,23.0,26.7,12.00,070,0.00,28.13,3.7,986.68,80
48325,MAE SARIANG,แม่สะเรียง,แม่ฮ่องสอน,18.16667,97.93333,1008.84,09-17-2019,22:00:00,0.00,24.6,27.5,8.00,000,0.00,30.97,0.0,984.79,84
48327,CHIANG MAI,เชียงใหม่,เชียงใหม่,18.79000,98.97694,1007.92,09-17-2019,22:00:00,0.00,23.2,29.3,10.00,000,0.00,28.40,0.0,973.75,70
48328,LAMPANG,ลำปาง,ลำปาง,18.28333,99.51667,1008.64,09-17-2019,22:00:00,0.00,25.1,28.0,10.00,000,0.00,31.95,0.0,981.23,85
48329,LAMPHUN,ลำพูน,ลำพูน,18.56722,99.03389,1008.22,09-17-2019,22:00:00,0.00,24.2,28.4,10.00,000,0.00,30.23,0.0,974.87,78
48330,PHRAE,แพร่,แพร่,18.16667,100.16667,1007.74,09-17-2019,22:00:00,0.00,24.9,28.5,8.00,000,0.00,31.54,0.0,989.34,81
48331,NAN,น่าน,น่าน,18.77972,100.77778,1008.71,09-17-2019,22:00:00,0.00,24.3,28.3,10.00,000,0.00,30.31,0.0,985.99,79
48333,NAN AGROMET.,น่าน สกษ.,น่าน,18.86667,100.75000,1009.08,09-17-2019,22:00:00,0.00,23.1,26.2,10.00,000,0.00,28.28,0.0,979.13,83
48334,LAMPANG AGROMET.,ลำปาง สกษ.,ลำปาง,18.31667,99.28333,1008.44,09-17-2019,22:00:00,0.00,22.7,26.7,8.00,000,0.00,27.60,0.0,972.96,79
48350,LOEI AGROMET.,เลย สกษ.,เลย,17.40000,101.73333,1008.43,09-17-2019,22:00:00,0.00,23.3,25.5,8.00,000,0.00,28.59,0.0,978.60,88
48351,UTTARADIT,อุตรดิตถ์,อุตรดิตถ์,17.61667,100.10000,1007.84,09-17-2019,22:00:00,0.00,26.4,30.0,10.00,000,0.00,34.34,0.0,1000.60,81
48352,NONG KHAI,หนองคาย,หนองคาย,17.86717,102.73303,1008.20,09-17-2019,22:00:00,0.00,25.9,29.6,10.00,000,0.00,33.50,0.0,988.46,81
48353,LOEI,เลย,เลย,17.45000,101.73333,1008.61,09-17-2019,22:00:00,0.00,23.7,27.3,8.00,000,0.00,29.23,0.0,979.98,81
48354,UDON THANI,อุดรธานี,อุดรธานี,17.38333,102.80000,1008.44,09-17-2019,22:00:00,0.00,25.5,28.8,10.00,200,0.00,32.71,3.7,988.38,83
48355,SAKON NAKHON AGROMET.,สกลนคร สกษ.,สกลนคร,17.12503,104.06100,1008.80,09-17-2019,22:00:00,0.00,25.6,27.0,10.00,000,0.00,32.77,0.0,987.05,92
48356,SAKON NAKHON,สกลนคร,สกลนคร,17.15000,104.13333,1008.05,09-17-2019,22:00:00,0.00,25.8,29.0,10.00,120,0.00,33.12,5.6,988.68,83
48357,NAKHON PHANOM,นครพนม,นครพนม,17.41083,104.78250,1009.14,09-17-2019,22:00:00,0.00,22.4,29.0,12.00,000,0.00,27.03,0.0,992.48,68
48358,NAKHON PHANOM AGROMET.,นครพนม สกษ.,นครพนม,17.44306,104.77361,1009.18,09-17-2019,22:00:00,0.00,22.5,27.1,10.00,090,0.00,27.27,3.7,991.75,76
48360,NONG BUA LAM PHU,หนองบัวลำภู,หนองบัวลำภู,17.23250,102.42944,1007.74,09-17-2019,22:00:00,0.00,24.5,27.4,11.00,000,0.00,30.78,0.0,981.99,84
48372,SUKHOTHAI*,สุโขทัย,สุโขทัย,17.10611,99.80000,1007.44,09-17-2019,22:00:00,0.00,27.5,30.3,10.00,000,1.70,36.80,0.0,1001.71,85
48373,SI SAMRONG AGROMET.,ศรีสำโรง สกษ.,สุโขทัย,17.16136,99.86167,1007.62,09-17-2019,22:00:00,0.00,26.7,29.5,12.00,000,0.00,35.05,0.0,1001.48,85
48374,LOM SAK,หล่มสัก,เพชรบูรณ์,16.77361,101.24944,1009.70,09-17-2019,22:00:00,0.00,23.4,26.5,12.00,000,0.00,28.82,0.0,993.19,83
48375,MAE SOT,แม่สอด,ตาก,16.65917,98.55083,1007.45,09-17-2019,22:00:00,0.00,24.6,27.5,10.00,270,0.00,30.97,7.4,985.16,84
48376,TAK,ตาก,ตาก,16.87833,99.14333,1008.41,09-17-2019,22:00:00,0.00,24.9,28.6,7.00,000,0.00,31.46,0.0,994.09,80
48377,BHUMIBOL DAM,เขื่อนภูมิพล,ตาก,17.24389,99.00250,1008.35,09-17-2019,22:00:00,0.00,23.1,27.1,8.00,000,0.00,28.33,0.0,991.96,79
48378,PHITSANULOK,พิษณุโลก,พิษณุโลก,16.79481,100.27930,1008.81,09-17-2019,22:00:00,15.80,24.3,26.0,10.00,000,15.80,30.30,0.0,1003.56,90
48379,PHETCHABUN,เพชรบูรณ์,เพชรบูรณ์,16.43333,101.15000,1007.34,09-17-2019,22:00:00,0.00,23.3,26.5,10.00,000,0.00,28.55,0.0,994.12,83
48380,KAMPHAENG PHET,กำแพงเพชร,กำแพงเพชร,16.48681,99.52697,1008.05,09-17-2019,22:00:00,0.00,26.5,30.0,11.00,000,0.00,34.64,0.0,998.81,82
48381,KHON KAEN,ขอนแก่น,ขอนแก่น,16.46111,102.78972,1008.53,09-17-2019,22:00:00,0.00,25.5,27.8,8.00,000,0.01,32.68,0.0,986.87,88
48382,MAHASARAKHAM,มหาสารคาม,มหาสารคาม,16.24722,103.06805,1008.61,09-17-2019,22:00:00,0.00,24.2,28.5,12.00,000,0.00,30.15,0.0,991.17,78
48383,MUKDAHAN,มุกดาหาร,มุกดาหาร,16.54139,104.72889,1008.04,09-17-2019,22:00:00,0.00,23.2,29.0,10.00,010,0.00,28.37,3.7,992.29,71
48384,THA PHRA AGROMET.,ท่าพระ สกษ.,ขอนแก่น,16.33333,102.81667,1007.57,09-17-2019,22:00:00,1.00,25.8,26.5,8.00,000,14.80,33.19,0.0,988.65,96
48385,UMPHANG,อุ้มผาง,ตาก,16.02472,98.86444,1009.85,09-17-2019,22:00:00,0.00,21.2,23.5,7.00,000,0.00,25.19,0.0,958.12,87
48386,PICHIT AGROMET.,พิจิตร สกษ.,พิจิตร,16.43806,100.29250,1008.34,09-17-2019,22:00:00,0.10,24.3,26.5,5.00,190,0.10,30.43,1.9,1004.37,88
48387,DOI MU SOE AGROMET.,ดอยมูเซอร์ สกษ.,ตาก,16.75000,98.93333,1010.50,09-17-2019,22:00:00,0.00,19.6,20.9,5.00,000,0.00,22.85,0.0,914.89,93
48390,KALASIN,กาฬสินธุ์,กาฬสินธุ์,16.33250,103.58833,1007.92,09-17-2019,22:00:00,0.00,26.3,28.1,7.00,000,0.00,34.15,0.0,991.98,90
48400,NAKHON SAWAN,นครสวรรค์ ,นครสวรรค์,15.67183,100.13236,1008.08,09-17-2019,22:00:00,0.00,25.4,28.5,8.00,000,0.00,32.39,0.0,1004.06,83
48401,TAKFA AGROMET.,ตากฟ้า สกษ.,นครสวรรค์,15.34944,100.53028,1009.23,09-17-2019,22:00:00,0.00,25.5,26.9,8.00,000,0.00,32.58,0.0,998.53,92
48402,CHAINAT AGROMET.,ชัยนาท สกษ.,ชัยนาท,15.15000,100.18333,1009.09,09-17-2019,22:00:00,0.00,23.6,28.0,9.00,150,0.00,29.19,3.7,1007.17,77
48403,CHAIYAPHUM,ชัยภูมิ,ชัยภูมิ,15.80000,102.03333,1008.30,09-17-2019,22:00:00,0.00,24.5,29.4,10.00,000,0.00,30.80,0.0,987.58,75
48404,ROI ET AGROMET.,ร้อยเอ็ด สกษ.,ร้อยเอ็ด,16.07322,103.60844,1008.13,09-17-2019,22:00:00,0.00,26.7,28.1,10.00,000,0.00,35.02,0.0,990.51,92
48405,ROI ET,ร้อยเอ็ด,ร้อยเอ็ด,16.02000,103.74389,1007.41,09-17-2019,22:00:00,0.00,26.3,29.1,10.00,000,0.00,34.20,0.0,991.36,85
48407,UBON RATCHATHANI,อุบลราชธานี (ศูนย์ฯ),อุบลราชธานี,15.25000,104.86667,1007.65,09-17-2019,22:00:00,0.00,24.2,29.1,10.00,000,0.00,30.21,0.0,993.71,75
48408,UBON RATCHATHANI AGROMET.,อุบลราชธานี สกษ.,อุบลราชธานี,15.23914,105.02350,1008.15,09-17-2019,22:00:00,0.00,25.1,27.2,8.00,000,0.00,31.77,0.0,993.32,88
48409,SI SAKET AGROMET.,ศรีสะเกษ,ศรีสะเกษ,15.00000,104.05000,1008.18,09-17-2019,22:00:00,0.00,27.7,28.8,8.00,220,0.00,37.13,3.7,993.59,94
48410,UTHAITHANI,อุทัยธานี,อุทัยธานี,15.37417,100.03889,1008.16,09-17-2019,22:00:00,0.01,24.7,29.1,9.00,"{'@attributes': {'Unit': 'degree'}, '0': '   '}",0.01,31.05,0.0,1005.16,77
48413,WICHIAN BURI,วิเชียรบุรี,เพชรบูรณ์,15.65700,101.10800,1008.36,09-17-2019,22:00:00,0.00,25.3,27.3,8.00,000,0.90,32.25,0.0,1000.41,89
48415,AYUTTHAYA,พระนครศรีอยุธยา,พระนครศรีอยุธยา,14.53472,100.72500,1009.51,09-17-2019,22:00:00,0.80,25.1,27.0,6.00,010,2.90,31.94,7.4,1008.39,90
48416,THA TUM,ท่าตูม,สุรินทร์,15.31667,103.68333,1008.87,09-17-2019,22:00:00,0.00,22.6,27.0,8.00,000,0.00,27.36,0.0,994.16,77
48417,NAKORNNAYOK,นครนายก,นครนายก,14.36222,101.39278,1010.81,09-17-2019,22:00:00,0.00,19.4,19.6,2.00,000,30.60,22.57,0.0,875.36,99
48418,BUA CHUM,บัวชุม  ,ลพบุรี,15.26667,101.18736,1008.33,09-17-2019,22:00:00,0.00,25.4,27.5,10.00,200,5.30,32.36,5.6,1002.45,88
48419,PATHUMTHANI,ปทุมธานี สกษ.,ปทุมธานี,14.10000,100.61667,1009.08,09-17-2019,22:00:00,2.40,25.2,26.5,7.00,150,2.40,32.07,5.6,1008.27,93
48420,Samut Prakarn,สมุทรปราการ สกษ.,สมุทรปราการ,13.51667,100.76167,1008.96,09-17-2019,22:00:00,1.20,25.1,26.4,10.00,000,1.20,31.88,0.0,1008.51,93
48421,THONG PHAPHUM,ทองผาภูมิ,กาญจนบุรี,14.74222,98.63639,1009.75,09-17-2019,22:00:00,0.00,24.0,25.5,4.00,000,1.00,29.91,0.0,998.36,92
48425,SUPHAN BURI,สุพรรณบุรี,สุพรรณบุรี,14.47444,100.13889,1009.10,09-17-2019,22:00:00,0.00,26.7,29.5,10.00,000,0.20,35.05,0.0,1008.09,85
48426,LOP BURI,ลพบุรี,ลพบุรี,14.79972,100.64500,1009.05,09-17-2019,22:00:00,0.01,24.1,26.9,6.00,170,2.70,30.10,5.6,1007.22,85
48427,U THONG AGROMET.,อู่ทอง สกษ.,สุพรรณบุรี,14.30361,99.86472,1008.62,09-17-2019,22:00:00,0.00,25.0,29.0,5.00,000,0.00,31.69,0.0,1007.86,79
48429,SUVARNABHUMI AIRPORT,สนามบินสุวรรณภูมิ,สมุทรปราการ,13.68639,100.76750,1008.79,09-17-2019,22:00:00,16.80,23.9,25.5,8.00,210,17.00,29.64,9.3,1008.08,91
48430,PRACHIN BURI,ปราจีนบุรี,ปราจีนบุรี,14.05842,101.36930,1008.78,09-17-2019,22:00:00,0.00,25.4,27.0,7.00,000,0.30,32.49,0.0,1008.07,91
48431,NAKHON RATCHASIMA,นครราชสีมา,นครราชสีมา,14.96830,102.08603,1008.81,09-17-2019,22:00:00,0.00,24.4,28.0,10.00,190,0.00,30.56,1.9,987.69,81
48432,SURIN,สุรินทร์,สุรินทร์,14.88333,103.50000,1008.74,09-17-2019,22:00:00,0.00,24.5,27.0,7.00,000,0.00,30.83,0.0,991.99,87
48433,SURIN AGROMET.,สุรินทร์ สกษ.,สุรินทร์,14.88333,103.45000,1008.93,09-17-2019,22:00:00,0.00,24.2,26.8,7.00,000,0.00,30.18,0.0,992.46,86
48434,CHOK CHAI,โชคชัย,นครราชสีมา,14.71889,102.16861,1008.57,09-17-2019,22:00:00,0.00,24.6,27.3,10.00,000,0.20,30.86,0.0,986.70,85
48435,PAKCHONG AGROMET.,ปากช่อง สกษ.,นครราชสีมา,14.64389,101.33194,1009.71,09-17-2019,22:00:00,0.00,23.2,24.2,9.00,000,0.50,28.36,0.0,965.96,94
48436,NANG RONG,นางรอง,บุรีรัมย์,14.58333,102.80000,1008.80,09-17-2019,22:00:00,0.00,24.4,26.4,10.00,000,0.00,30.51,0.0,988.17,89
48437,BURIRUM,บุรีรัมย์,บุรีรัมย์,15.22575,103.24808,1010.14,09-17-2019,22:00:00,0.00,26.3,26.3,8.00,160,0.00,34.20,3.7,989.22,100
48438,SAMUTSONGKRAM,สมุทรสงคราม,สมุทรสงคราม,13.40778,100.03222,1008.35,09-17-2019,22:00:00,0.01,25.1,29.5,9.00,160,2.80,31.85,5.6,1007.92,77
48439,KABIN BURI,กบินทร์บุรี,ปราจีนบุรี,13.98333,101.70722,1008.80,09-17-2019,22:00:00,0.00,24.8,26.2,6.00,000,1.80,31.22,0.0,1007.37,92
48440,SA KAEW,สระแก้ว,สระแก้ว,13.78889,102.03472,1009.38,09-17-2019,22:00:00,0.00,25.6,26.5,7.00,000,24.10,32.91,0.0,1004.42,95
48450,KANCHANA BURI,กาญจนบุรี,กาญจนบุรี,14.02250,99.53583,1008.66,09-17-2019,22:00:00,0.00,24.0,28.5,10.00,300,0.00,29.87,3.7,1005.37,77
48451,NAKHONPATHOM,นครปฐม,นครปฐม,14.01167,99.97000,1008.84,09-17-2019,22:00:00,0.00,26.0,29.1,10.00,000,0.00,33.62,0.0,1007.74,83
48453,BANG NA AGROMET.,กรุงเทพฯ บางนา สกษ.,กรุงเทพมหานคร,13.66639,100.60611,1009.40,09-17-2019,22:00:00,1.70,25.1,26.7,6.00,100,1.80,31.91,3.7,1009.10,91
48455,BANGKOK METROPOLIS,กรุงเทพมหานคร,กรุงเทพมหานคร,13.72639,100.56000,1008.74,09-17-2019,22:00:00,1.90,26.3,27.2,8.00,000,2.10,34.31,0.0,1008.25,95
48456,DON MUANG AIRPORT,สนามบินดอนเมือง,กรุงเทพมหานคร,13.91917,100.60500,1009.14,09-17-2019,22:00:00,0.40,24.4,25.7,8.00,170,0.40,30.54,9.3,1007.72,93
48458,CHACHOENGSAO,ฉะเชิงเทรา,ฉะเชิงเทรา,13.51556,101.45833,1010.62,09-17-2019,22:00:00,1.00,25.2,26.1,10.00,000,1.00,32.12,0.0,1002.56,95
48459,CHON BURI,ชลบุรี,ชลบุรี,13.36667,100.98333,1008.61,09-17-2019,22:00:00,0.20,25.9,28.0,10.00,000,1.00,33.37,0.0,1008.33,88
48460,KO SICHANG,เกาะสีชัง,ชลบุรี,13.16167,100.80194,1007.98,09-17-2019,22:00:00,0.00,25.0,28.3,10.00,000,0.00,31.70,0.0,1004.86,82
48461,PHATTHAYA,พัทยา,ชลบุรี,12.92000,100.86944,1008.59,09-17-2019,22:00:00,0.00,25.1,26.0,10.00,000,33.70,31.93,0.0,1001.62,95
48462,ARANYA PRATHET,อรัญประเทศ,สระแก้ว,13.70000,102.58333,1009.10,09-17-2019,22:00:00,0.00,25.7,26.7,10.00,000,44.20,33.02,0.0,1003.48,94
48464,RATCHA BURI,ราชบุรี,ราชบุรี,13.48931,99.79239,1008.92,09-17-2019,22:00:00,0.00,24.9,27.1,10.00,310,0.70,31.58,3.7,1007.66,88
48465,PHETCHA BURI,เพชรบุรี,เพชรบุรี,12.99944,100.06056,1008.48,09-17-2019,22:00:00,0.00,23.7,27.9,11.00,300,0.00,29.28,3.7,1008.04,78
48474,NONG PHLUB AGROMET.,หนองพลับ สกษ.,ประจวบคีรีขันธ์,12.58333,99.73333,1008.80,09-17-2019,22:00:00,0.00,23.1,25.5,10.00,000,0.00,28.33,0.0,996.46,87
48475,HUA HIN,หัวหิน,ประจวบคีรีขันธ์,12.58611,99.96250,1008.21,09-17-2019,22:00:00,0.00,23.8,27.0,10.00,000,0.00,29.48,0.0,1007.50,83
48477,SATTAHIP,สัตหีบ,ชลบุรี,12.68333,100.98333,1008.85,09-17-2019,22:00:00,0.00,25.2,27.3,10.00,000,9.50,31.97,0.0,1006.41,88
48478,RAYONG,ระยอง,ระยอง,12.63222,101.34361,1008.78,09-17-2019,22:00:00,0.00,25.7,28.4,10.00,260,0.00,33.04,9.3,1008.27,85
48479,HUAI PONG AGROMET.,ห้วยโป่ง สกษ.,ระยอง,12.73333,101.13333,1008.62,09-17-2019,22:00:00,0.00,25.2,26.9,9.00,000,27.10,32.02,0.0,1003.46,90
48480,CHANTHA BURI,จันทบุรี,จันทบุรี,12.61667,102.11333,1008.97,09-17-2019,22:00:00,0.20,25.7,26.6,7.00,000,9.70,33.10,0.0,1008.56,95
48481,PHLIU  AGROMET.,พลิ้ว สกษ.,จันทบุรี,12.50861,102.17305,1009.25,09-17-2019,22:00:00,0.00,25.4,25.8,8.00,000,10.70,32.37,0.0,1006.47,97
48500,PRACHUAP KHIRIKHAN,ประจวบคีรีขันธ์,ประจวบคีรีขันธ์,11.83333,99.83333,1009.13,09-17-2019,22:00:00,0.00,23.1,26.0,10.00,250,0.01,28.18,7.4,1008.34,84
48501,TRAD,ตราด,ตราด,11.76667,102.88333,1009.65,09-17-2019,22:00:00,0.30,23.5,25.0,6.00,000,37.80,29.00,0.0,1009.18,92
48517,CHUMPHON,ชุมพร,ชุมพร,10.49875,99.18847,1009.77,09-17-2019,22:00:00,0.10,24.2,25.1,8.00,000,15.30,30.23,0.0,1009.08,95
48520,SAWI AGROMET.,สวี สกษ.,ชุมพร,10.33333,99.10000,1009.54,09-17-2019,22:00:00,0.00,24.5,25.4,7.00,000,8.20,30.79,0.0,1008.00,95
48532,RANONG,ระนอง,ระนอง,9.98333,98.61667,1010.80,09-17-2019,22:00:00,0.00,23.3,24.0,10.00,000,65.70,28.53,0.0,1009.87,96
48550,KO SAMUI,เกาะสมุย,สุราษฎร์ธานี,9.46667,100.05000,1009.43,09-17-2019,22:00:00,0.01,24.6,26.0,10.00,000,4.40,30.84,0.0,1008.74,92
48551,SURAT THANI,สุราษฎร์ธานี,สุราษฎร์ธานี,9.13556,99.15194,1010.31,09-17-2019,22:00:00,0.00,23.4,23.8,7.00,000,5.70,28.69,0.0,1009.50,97
48552,NAKHONSI THAMMARAT,นครศรีธรรมราช,นครศรีธรรมราช,8.53778,99.96389,1009.75,09-17-2019,22:00:00,0.00,22.7,24.9,10.00,000,0.00,27.53,0.0,1009.11,87
48554,NAKHONSI THAMMARAT AGROMET.,นครศรีธรรมราช สกษ.,นครศรีธรรมราช,8.35931,100.00000,1010.09,09-17-2019,22:00:00,0.00,23.8,25.0,8.00,000,17.20,29.52,0.0,1009.68,93
48555,SURAT THANI AGROMET.,สุราษฎร์ธานี สกษ.,สุราษฎร์ธานี,9.10000,99.63333,1011.53,09-17-2019,22:00:00,0.00,23.1,23.7,6.00,000,3.40,28.26,0.0,1007.26,96
48556,PHRA SANG,พระแสง สอท.,สุราษฎร์ธานี,8.57022,99.25825,1010.49,09-17-2019,22:00:00,0.00,23.1,23.4,10.00,000,8.60,28.25,0.0,1008.86,98
48557,CHAWANG,ฉวาง,นครศรีธรรมราช,8.43194,99.51194,1010.63,09-17-2019,22:00:00,0.00,23.5,24.5,10.00,000,2.20,28.89,0.0,1007.11,94
48560,PHATTHALUNG AGROMET.,พัทลุง สกษ.,พัทลุง,7.58333,100.16667,1010.30,09-17-2019,22:00:00,0.00,23.7,26.2,8.00,000,0.00,29.33,0.0,1008.94,86
48561,TAKUA PA,ตะกั่วป่า,พังงา,8.68417,98.25222,1010.36,09-17-2019,22:00:00,0.00,23.8,25.0,10.00,000,0.30,29.52,0.0,1009.46,93
48563,KRABI,กระบี่,กระบี่,8.10361,98.97528,1010.23,09-17-2019,22:00:00,0.00,22.6,24.2,10.00,000,1.00,27.34,0.0,1006.63,91
48564,PHUKET,ภูเก็ต,ภูเก็ต,7.88333,98.40000,1010.09,09-17-2019,22:00:00,0.00,23.9,27.1,10.00,000,2.60,29.66,0.0,1009.66,83
48565,PHUKET AIRPORT,ภูเก็ต (ศูนย์ฯ),ภูเก็ต,8.14500,98.31444,1009.85,09-17-2019,22:00:00,0.00,24.1,25.3,9.00,000,27.70,30.07,0.0,1008.85,93
48566,KO LANTA,เกาะลันตา,กระบี่,7.53333,99.05000,1010.63,09-17-2019,22:00:00,0.00,22.7,25.1,10.00,000,15.00,27.62,0.0,1009.81,87
48567,TRANG AIRPORT,ตรัง,ตรัง,7.51667,99.61667,1010.64,09-17-2019,22:00:00,0.00,24.3,25.9,10.00,000,0.00,30.38,0.0,1008.82,91
48568,SONGKHLA,สงขลา,สงขลา,7.18211,100.60769,1010.34,09-17-2019,22:00:00,0.10,24.4,27.1,10.00,180,0.70,30.48,3.7,1009.58,85
48569,HAT YAI AIRPORT,หาดใหญ่,สงขลา,6.91667,100.43333,1010.47,09-17-2019,22:00:00,0.00,24.1,26.4,10.00,120,0.20,29.97,3.7,1006.45,87
48570,SATUN,สตูล,สตูล,6.65000,100.08333,1010.89,09-17-2019,22:00:00,0.00,24.0,26.2,10.00,000,23.10,29.86,0.0,1010.20,88
48571,KHO HONG AGROMET.,คอหงษ์ สกษ.,สงขลา,7.00000,100.50000,1010.36,09-17-2019,22:00:00,0.00,23.8,24.5,10.00,000,6.80,29.41,0.0,1009.24,96
48574,SA DAO,สะเดา,สงขลา,6.79806,100.39056,1010.64,09-17-2019,22:00:00,0.00,24.4,26.3,10.00,000,1.80,30.59,0.0,1007.70,89
48580,PATTANI AIRPORT,ปัตตานี,ปัตตานี,6.78333,101.15000,1009.99,09-17-2019,22:00:00,0.00,26.3,27.7,10.00,000,0.00,34.19,0.0,1009.30,92
48581,YALA AGROMET.,ยะลา สกษ.,ยะลา,6.51667,101.28333,1010.84,09-17-2019,22:00:00,0.00,24.2,26.7,8.00,000,0.00,30.26,0.0,1006.70,86
48583,NARATHIWAT,นราธิวาส,นราธิวาส,6.41667,101.81667,1010.32,09-17-2019,22:00:00,0.00,24.3,27.5,10.00,000,0.00,30.42,0.0,1009.73,83
