WmoStationNumber,StationNameEnglish,StationNameThai,Province,Latitude,Longitude,DewPoint,Date,Time,MeanSeaLevelPressure,AirTemperature,Rainfall24Hr,RelativeHumidity,VaporPressure,WindSpeed,WindDirection,StationPressure,LandVisibility,Rainfall
48300,MAE HONG SON,แม่ฮ่องสอน,แม่ฮ่องสอน,19.29897,97.97578,25.3,09-13-2019,16:00:00,1005.17,31.4,1.70,70,32.30,0.0,000,974.85,15.00,0.00
48302,DOI ANG KANG,ดอยอ่างขาง,เชียงใหม่,19.93139,99.04833,20.1,09-13-2019,16:00:00,1003.11,24.1,11.00,78,23.49,20.4,300,845.04,8.00,0.00
48303,CHIANG RAI,เชียงราย,เชียงราย,19.96139,99.88139,23.6,09-13-2019,16:00:00,1003.52,33.4,0.00,57,29.21,5.6,100,961.13,15.00,0.00
48304,CHAING RAI AGROMET.,เชียงราย สกษ.,เชียงราย,19.87083,99.78278,24.2,09-13-2019,16:00:00,1003.57,33.5,0.00,59,30.28,0.0,000,959.34,15.00,0.00
48307,THUNG CHANG,ทุ่งช้าง,น่าน,19.41194,100.88353,24.6,09-13-2019,16:00:00,1004.94,31.0,0.00,69,30.90,3.7,180,968.02,12.00,0.00
48310,PHAYAO,พะเยา,พะเยา,19.13333,99.90000,24.5,09-13-2019,16:00:00,1003.73,33.0,0.00,61,30.69,0.0,000,959.85,15.00,0.00
48315,THA WANGPHA,ท่าวังผา,น่าน,19.11056,100.80250,25.0,09-13-2019,16:00:00,1005.29,31.8,0.00,67,31.68,0.0,000,979.11,12.00,0.00
48324,THOEN,เถิน,ลำปาง,17.63661,99.24475,25.6,09-13-2019,16:00:00,1006.13,27.3,3.20,90,32.81,9.3,240,984.46,7.00,3.20
48325,MAE SARIANG,แม่สะเรียง,แม่ฮ่องสอน,18.16667,97.93333,24.4,09-13-2019,16:00:00,1006.78,31.5,4.90,66,30.49,0.0,000,983.09,10.00,0.00
48327,CHIANG MAI,เชียงใหม่,เชียงใหม่,18.79000,98.97694,24.3,09-13-2019,16:00:00,1004.37,34.5,20.80,55,30.34,0.0,000,970.88,10.00,0.00
48328,LAMPANG,ลำปาง,ลำปาง,18.28333,99.51667,25.3,09-13-2019,16:00:00,1004.98,33.2,19.10,63,32.30,0.0,000,978.12,10.00,0.00
48329,LAMPHUN,ลำพูน,ลำพูน,18.56722,99.03389,23.6,09-13-2019,16:00:00,1004.01,35.0,1.00,52,29.05,9.3,250,971.49,12.00,0.00
48330,PHRAE,แพร่,แพร่,18.16667,100.16667,24.9,09-13-2019,16:00:00,1004.99,32.7,1.80,64,31.53,3.7,300,986.90,15.00,0.00
48331,NAN,น่าน,น่าน,18.77972,100.77778,24.9,09-13-2019,16:00:00,1004.90,32.4,0.00,65,31.48,7.4,100,982.57,10.00,0.00
48333,NAN AGROMET.,น่าน สกษ.,น่าน,18.86667,100.75000,23.4,09-13-2019,16:00:00,1004.52,30.2,0.00,67,28.75,0.0,000,975.09,12.00,0.00
48334,LAMPANG AGROMET.,ลำปาง สกษ.,ลำปาง,18.31667,99.28333,25.2,09-13-2019,16:00:00,1004.67,32.7,3.80,65,32.12,0.0,000,969.99,8.00,0.00
48350,LOEI AGROMET.,เลย สกษ.,เลย,17.40000,101.73333,26.6,09-13-2019,16:00:00,1004.01,29.0,4.30,87,34.87,0.0,000,974.65,17.00,4.30
48351,UTTARADIT,อุตรดิตถ์,อุตรดิตถ์,17.61667,100.10000,26.4,09-13-2019,16:00:00,1005.99,30.2,10.00,80,34.47,18.5,150,998.77,2.00,10.00
48352,NONG KHAI,หนองคาย,หนองคาย,17.86717,102.73303,26.4,09-13-2019,16:00:00,1003.90,34.0,12.80,65,34.36,13.0,090,984.53,18.00,0.00
48353,LOEI,เลย,เลย,17.45000,101.73333,25.4,09-13-2019,16:00:00,1004.30,31.0,3.60,72,32.34,0.0,000,976.13,15.00,3.60
48354,UDON THANI,อุดรธานี,อุดรธานี,17.38333,102.80000,24.5,09-13-2019,16:00:00,1004.17,33.7,3.40,59,30.70,3.7,310,984.50,15.00,0.00
48355,SAKON NAKHON AGROMET.,สกลนคร สกษ.,สกลนคร,17.12503,104.06100,24.9,09-13-2019,16:00:00,1004.59,32.0,0.00,66,31.52,3.7,100,983.28,15.00,0.00
48356,SAKON NAKHON,สกลนคร,สกลนคร,17.15000,104.13333,24.0,09-13-2019,16:00:00,1004.46,32.2,0.00,62,29.91,3.7,080,985.36,15.00,0.00
48357,NAKHON PHANOM,นครพนม,นครพนม,17.41083,104.78250,23.6,09-13-2019,16:00:00,1004.70,33.5,0.01,56,29.13,1.9,060,988.35,12.00,0.00
48358,NAKHON PHANOM AGROMET.,นครพนม สกษ.,นครพนม,17.44306,104.77361,24.9,09-13-2019,16:00:00,1004.87,33.8,24.10,60,31.50,0.0,000,987.89,12.00,0.00
48360,NONG BUA LAM PHU,หนองบัวลำภู,หนองบัวลำภู,17.23250,102.42944,24.2,09-13-2019,16:00:00,1003.06,33.0,0.60,60,30.11,0.0,000,977.90,12.00,0.00
48372,SUKHOTHAI*,สุโขทัย,สุโขทัย,17.10611,99.80000,26.3,09-13-2019,16:00:00,1004.41,36.0,0.00,58,34.26,3.7,270,998.81,10.00,0.00
48373,SI SAMRONG AGROMET.,ศรีสำโรง สกษ.,สุโขทัย,17.16136,99.86167,25.5,09-13-2019,16:00:00,1004.72,34.3,0.00,60,32.59,0.0,000,998.69,12.00,0.00
48374,LOM SAK,หล่มสัก,เพชรบูรณ์,16.77361,101.24944,23.8,09-13-2019,16:00:00,1005.78,31.0,0.00,66,29.48,0.0,000,989.58,12.00,0.00
48375,MAE SOT,แม่สอด,ตาก,16.65917,98.55083,23.2,09-13-2019,16:00:00,1005.34,30.0,0.20,67,28.37,7.4,240,983.28,10.00,0.00
48376,TAK,ตาก,ตาก,16.87833,99.14333,22.8,09-13-2019,16:00:00,1005.91,32.0,0.00,59,27.82,18.5,260,991.78,10.00,0.00
48377,BHUMIBOL DAM,เขื่อนภูมิพล,ตาก,17.24389,99.00250,25.3,09-13-2019,16:00:00,1005.36,33.0,0.50,64,32.16,0.0,000,989.33,12.00,0.50
48378,PHITSANULOK,พิษณุโลก,พิษณุโลก,16.79481,100.27930,23.7,09-13-2019,16:00:00,1005.06,34.0,0.00,55,29.29,7.4,320,999.96,10.00,0.00
48379,PHETCHABUN,เพชรบูรณ์,เพชรบูรณ์,16.43333,101.15000,25.5,09-13-2019,16:00:00,1003.72,31.7,0.00,70,32.64,0.0,000,990.77,12.00,0.00
48380,KAMPHAENG PHET,กำแพงเพชร,กำแพงเพชร,16.48681,99.52697,22.6,09-13-2019,16:00:00,1005.05,34.9,0.00,49,27.40,9.3,290,995.99,15.00,0.00
48381,KHON KAEN,ขอนแก่น,ขอนแก่น,16.46111,102.78972,24.2,09-13-2019,16:00:00,1004.02,33.7,0.20,58,30.12,5.6,020,982.87,12.00,0.00
48382,MAHASARAKHAM,มหาสารคาม,มหาสารคาม,16.24722,103.06805,24.2,09-13-2019,16:00:00,1003.97,33.5,3.70,59,30.28,11.1,210,986.89,12.00,0.00
48383,MUKDAHAN,มุกดาหาร,มุกดาหาร,16.54139,104.72889,24.7,09-13-2019,16:00:00,1004.00,32.5,35.80,64,31.11,3.7,060,988.50,12.00,0.00
48384,THA PHRA AGROMET.,ท่าพระ สกษ.,ขอนแก่น,16.33333,102.81667,25.3,09-13-2019,16:00:00,1003.22,33.0,0.80,64,32.16,0.0,000,984.78,10.00,0.00
48385,UMPHANG,อุ้มผาง,ตาก,16.02472,98.86444,22.4,09-13-2019,16:00:00,1007.88,29.0,0.00,68,27.03,9.3,260,957.16,10.00,0.00
48386,PICHIT AGROMET.,พิจิตร สกษ.,พิจิตร,16.43806,100.29250,23.9,09-13-2019,16:00:00,1004.88,33.5,0.00,57,29.70,7.4,300,1001.01,10.00,0.00
48387,DOI MU SOE AGROMET.,ดอยมูเซอร์ สกษ.,ตาก,16.75000,98.93333,20.9,09-13-2019,16:00:00,1007.20,23.5,1.00,85,24.71,14.8,220,912.70,8.00,0.00
48390,KALASIN,กาฬสินธุ์,กาฬสินธุ์,16.33250,103.58833,26.8,09-13-2019,16:00:00,1004.45,31.0,13.30,79,35.31,14.8,090,988.71,8.00,0.00
48400,NAKHON SAWAN,นครสวรรค์ ,นครสวรรค์,15.67183,100.13236,24.5,09-13-2019,16:00:00,1005.17,35.1,0.00,54,30.73,3.7,260,1001.25,10.00,0.00
48401,TAKFA AGROMET.,ตากฟ้า สกษ.,นครสวรรค์,15.34944,100.53028,23.0,09-13-2019,16:00:00,1005.61,33.8,0.00,53,28.02,3.7,330,995.19,8.00,0.00
48402,CHAINAT AGROMET.,ชัยนาท สกษ.,ชัยนาท,15.15000,100.18333,23.5,09-13-2019,16:00:00,1005.36,34.5,0.00,53,28.88,0.0,000,1003.48,12.00,0.00
48403,CHAIYAPHUM,ชัยภูมิ,ชัยภูมิ,15.80000,102.03333,23.7,09-13-2019,16:00:00,1005.59,25.5,20.40,90,29.38,0.0,000,984.66,10.00,20.40
48404,ROI ET AGROMET.,ร้อยเอ็ด สกษ.,ร้อยเอ็ด,16.07322,103.60844,25.1,09-13-2019,16:00:00,1004.05,31.9,8.90,67,31.89,7.4,050,986.72,11.00,0.00
48405,ROI ET,ร้อยเอ็ด,ร้อยเอ็ด,16.02000,103.74389,26.0,09-13-2019,16:00:00,1004.34,31.2,10.50,74,33.65,9.3,080,988.45,10.00,0.00
48407,UBON RATCHATHANI,อุบลราชธานี (ศูนย์ฯ),อุบลราชธานี,15.25000,104.86667,24.9,09-13-2019,16:00:00,1005.13,31.0,85.00,70,31.47,9.3,230,991.30,10.00,0.00
48408,UBON RATCHATHANI AGROMET.,อุบลราชธานี สกษ.,อุบลราชธานี,15.23914,105.02350,25.6,09-13-2019,16:00:00,1005.24,32.3,26.20,68,32.74,0.0,000,990.69,10.00,0.00
48409,SI SAKET AGROMET.,ศรีสะเกษ,ศรีสะเกษ,15.00000,104.05000,26.6,09-13-2019,16:00:00,1005.89,31.6,17.20,75,34.82,7.4,290,991.46,10.00,0.00
48410,UTHAITHANI,อุทัยธานี,อุทัยธานี,15.37417,100.03889,22.2,09-13-2019,16:00:00,1005.30,36.1,0.00,45,26.70,0.0,"{'@attributes': {'Unit': 'degree'}, '0': '   '}",1002.38,10.00,0.00
48413,WICHIAN BURI,วิเชียรบุรี,เพชรบูรณ์,15.65700,101.10800,24.8,09-13-2019,16:00:00,1005.10,33.8,0.00,59,31.21,7.4,220,997.34,10.00,0.00
48415,AYUTTHAYA,พระนครศรีอยุธยา,พระนครศรีอยุธยา,14.53472,100.72500,25.7,09-13-2019,16:00:00,1006.40,33.0,0.00,66,33.06,0.0,000,1005.31,10.00,0.00
48416,THA TUM,ท่าตูม,สุรินทร์,15.31667,103.68333,27.0,09-13-2019,16:00:00,1005.13,32.5,42.50,73,35.60,0.0,000,990.73,8.00,0.00
48417,NAKORNNAYOK,นครนายก,นครนายก,14.36222,101.39278,20.6,09-13-2019,16:00:00,1006.28,22.0,0.00,92,24.27,1.9,110,872.43,8.00,0.00
48418,BUA CHUM,บัวชุม  ,ลพบุรี,15.26667,101.18736,24.6,09-13-2019,16:00:00,1005.13,34.1,0.00,58,30.96,5.6,270,999.40,10.00,0.00
48419,PATHUMTHANI,ปทุมธานี สกษ.,ปทุมธานี,14.10000,100.61667,23.4,09-13-2019,16:00:00,1005.52,35.4,0.00,50,28.72,0.0,000,1004.75,9.00,0.00
48420,Samut Prakarn,สมุทรปราการ สกษ.,สมุทรปราการ,13.51667,100.76167,25.2,09-13-2019,16:00:00,1005.67,33.2,0.00,63,32.00,18.5,230,1005.23,10.00,0.00
48421,THONG PHAPHUM,ทองผาภูมิ,กาญจนบุรี,14.74222,98.63639,23.9,09-13-2019,16:00:00,1008.50,29.0,0.30,74,29.74,5.6,270,997.26,10.00,0.00
48425,SUPHAN BURI,สุพรรณบุรี,สุพรรณบุรี,14.47444,100.13889,24.3,09-13-2019,16:00:00,1005.60,33.3,0.00,60,30.45,0.0,000,1004.61,12.00,0.00
48426,LOP BURI,ลพบุรี,ลพบุรี,14.79972,100.64500,24.6,09-13-2019,16:00:00,1005.32,34.5,0.00,57,30.93,5.6,220,1003.54,8.00,0.00
48427,U THONG AGROMET.,อู่ทอง สกษ.,สุพรรณบุรี,14.30361,99.86472,25.2,09-13-2019,16:00:00,1005.49,29.6,9.00,77,32.05,0.0,000,1004.73,9.00,9.00
48429,SUVARNABHUMI AIRPORT,สนามบินสุวรรณภูมิ,สมุทรปราการ,13.68639,100.76750,21.8,09-13-2019,16:00:00,1005.57,33.7,0.00,50,26.15,13.0,270,1004.89,10.00,0.00
48430,PRACHIN BURI,ปราจีนบุรี,ปราจีนบุรี,14.05842,101.36930,24.3,09-13-2019,16:00:00,1005.29,33.0,0.00,60,30.40,3.7,300,1004.60,7.00,0.00
48431,NAKHON RATCHASIMA,นครราชสีมา,นครราชสีมา,14.96830,102.08603,23.9,09-13-2019,16:00:00,1004.66,32.1,0.00,62,29.71,5.6,290,983.90,12.00,0.00
48432,SURIN,สุรินทร์,สุรินทร์,14.88333,103.50000,24.3,09-13-2019,16:00:00,1004.94,31.6,8.10,65,30.41,5.6,240,988.51,13.00,0.00
48433,SURIN AGROMET.,สุรินทร์ สกษ.,สุรินทร์,14.88333,103.45000,25.2,09-13-2019,16:00:00,1005.44,32.0,9.70,68,32.10,0.0,000,989.30,10.00,0.00
48434,CHOK CHAI,โชคชัย,นครราชสีมา,14.71889,102.16861,23.3,09-13-2019,16:00:00,1004.61,32.8,0.00,57,28.56,3.7,270,983.22,10.00,0.00
48435,PAKCHONG AGROMET.,ปากช่อง สกษ.,นครราชสีมา,14.64389,101.33194,23.0,09-13-2019,16:00:00,1005.54,30.0,0.00,66,28.09,14.8,230,962.78,14.00,0.00
48436,NANG RONG,นางรอง,บุรีรัมย์,14.58333,102.80000,23.0,09-13-2019,16:00:00,1004.79,32.7,0.00,57,28.08,3.7,210,984.65,12.00,0.00
48437,BURIRUM,บุรีรัมย์,บุรีรัมย์,15.22575,103.24808,26.2,09-13-2019,16:00:00,1006.47,30.4,1.40,78,34.01,5.6,130,985.89,10.00,0.00
48438,SAMUTSONGKRAM,สมุทรสงคราม,สมุทรสงคราม,13.40778,100.03222,22.7,09-13-2019,16:00:00,1005.96,35.0,2.10,49,27.61,7.4,330,1005.53,10.00,0.00
48439,KABIN BURI,กบินทร์บุรี,ปราจีนบุรี,13.98333,101.70722,26.0,09-13-2019,16:00:00,1005.55,31.0,0.00,75,33.52,0.0,000,1004.15,11.00,0.00
48440,SA KAEW,สระแก้ว,สระแก้ว,13.78889,102.03472,25.7,09-13-2019,16:00:00,1005.78,32.0,0.00,69,32.99,0.0,000,1000.94,8.00,0.00
48450,KANCHANA BURI,กาญจนบุรี,กาญจนบุรี,14.02250,99.53583,21.5,09-13-2019,16:00:00,1005.71,34.4,0.00,47,25.57,9.3,250,1002.50,12.00,0.00
48451,NAKHONPATHOM,นครปฐม,นครปฐม,14.01167,99.97000,25.0,09-13-2019,16:00:00,1005.92,31.9,0.00,67,31.60,3.7,320,1004.83,10.00,0.00
48453,BANG NA AGROMET.,กรุงเทพฯ บางนา สกษ.,กรุงเทพมหานคร,13.66639,100.60611,23.1,09-13-2019,16:00:00,1005.68,34.5,0.00,52,28.30,13.0,290,1005.39,10.00,0.00
48454,BANGKOK PORT (KLONG TOEI),กรุงเทพฯ ท่าเรือคลองเตย,กรุงเทพมหานคร,13.70694,100.56805,23.9,09-13-2019,16:00:00,1005.19,34.9,0.00,53,29.71,7.4,280,1004.52,10.00,0.00
48455,BANGKOK METROPOLIS,กรุงเทพมหานคร,กรุงเทพมหานคร,13.72639,100.56000,23.4,09-13-2019,16:00:00,1005.43,32.6,0.00,58,28.73,5.6,120,1004.95,10.00,0.00
48456,DON MUANG AIRPORT,สนามบินดอนเมือง,กรุงเทพมหานคร,13.91917,100.60500,22.0,09-13-2019,16:00:00,1005.84,33.6,0.00,51,26.51,16.7,330,1004.46,10.00,0.00
48457,PILOT STATION,นำร่อง,สมุทรปราการ,13.39389,100.59944,26.3,09-13-2019,16:00:00,1006.23,30.5,0.00,78,34.22,14.8,210,1004.58,12.00,0.00
48458,CHACHOENGSAO,ฉะเชิงเทรา,ฉะเชิงเทรา,13.51556,101.45833,24.0,09-13-2019,16:00:00,1007.22,32.9,0.00,60,29.91,3.7,270,999.37,15.00,0.00
48459,CHON BURI,ชลบุรี,ชลบุรี,13.36667,100.98333,23.9,09-13-2019,16:00:00,1005.88,32.5,0.00,61,29.66,0.0,000,1005.61,10.00,0.00
48460,KO SICHANG,เกาะสีชัง,ชลบุรี,13.16167,100.80194,24.3,09-13-2019,16:00:00,1006.35,30.7,0.00,69,30.29,9.3,270,1003.26,10.00,0.00
48461,PHATTHAYA,พัทยา,ชลบุรี,12.92000,100.86944,24.0,09-13-2019,16:00:00,1006.49,30.6,3.50,68,29.81,7.4,260,999.64,12.00,0.00
48462,ARANYA PRATHET,อรัญประเทศ,สระแก้ว,13.70000,102.58333,25.0,09-13-2019,16:00:00,1005.34,33.3,0.00,62,31.62,20.4,260,999.87,8.00,0.00
48463,LAEM CHABANG,แหลมฉบัง,ชลบุรี,13.07694,100.87583,23.4,09-13-2019,16:00:00,1007.06,33.2,0.00,57,28.80,11.1,260,997.94,10.00,0.00
48464,RATCHA BURI,ราชบุรี,ราชบุรี,13.48931,99.79239,23.3,09-13-2019,16:00:00,1006.96,33.5,0.00,55,28.56,11.1,270,1005.72,14.00,0.00
48465,PHETCHA BURI,เพชรบุรี,เพชรบุรี,12.99944,100.06056,26.8,09-13-2019,16:00:00,1006.17,33.0,0.01,70,35.19,7.4,150,1005.75,11.00,0.00
48474,NONG PHLUB AGROMET.,หนองพลับ สกษ.,ประจวบคีรีขันธ์,12.58333,99.73333,22.2,09-13-2019,16:00:00,1006.96,31.7,0.00,57,26.69,7.4,230,994.90,10.00,0.00
48475,HUA HIN,หัวหิน,ประจวบคีรีขันธ์,12.58611,99.96250,25.3,09-13-2019,16:00:00,1006.48,30.8,0.00,73,32.22,9.3,100,1005.77,10.00,0.00
48477,SATTAHIP,สัตหีบ,ชลบุรี,12.68333,100.98333,23.7,09-13-2019,16:00:00,1006.88,33.0,0.00,58,29.25,11.1,220,1004.49,10.00,0.00
48478,RAYONG,ระยอง,ระยอง,12.63222,101.34361,23.8,09-13-2019,16:00:00,1006.45,30.0,0.00,69,29.47,13.0,270,1005.93,10.00,0.00
48479,HUAI PONG AGROMET.,ห้วยโป่ง สกษ.,ระยอง,12.73333,101.13333,20.7,09-13-2019,16:00:00,1006.11,33.2,0.00,48,24.38,13.0,280,1001.06,12.00,0.00
48480,CHANTHA BURI,จันทบุรี,จันทบุรี,12.61667,102.11333,24.2,09-13-2019,16:00:00,1006.69,30.2,0.00,70,30.14,7.4,210,1006.28,10.00,0.00
48481,PHLIU  AGROMET.,พลิ้ว สกษ.,จันทบุรี,12.50861,102.17305,26.6,09-13-2019,16:00:00,1006.79,29.8,0.00,83,34.80,11.1,210,1004.04,8.00,0.00
48500,PRACHUAP KHIRIKHAN,ประจวบคีรีขันธ์,ประจวบคีรีขันธ์,11.83333,99.83333,22.4,09-13-2019,16:00:00,1008.48,30.0,0.00,64,27.01,0.0,000,1007.70,10.00,0.00
48501,TRAD,ตราด,ตราด,11.76667,102.88333,26.2,09-13-2019,16:00:00,1006.59,29.0,20.10,85,33.99,9.3,260,1006.14,8.00,2.70
48517,CHUMPHON,ชุมพร,ชุมพร,10.49875,99.18847,22.1,09-13-2019,16:00:00,1009.00,29.5,0.00,65,26.62,5.6,280,1008.32,9.00,0.00
48520,SAWI AGROMET.,สวี สกษ.,ชุมพร,10.33333,99.10000,22.6,09-13-2019,16:00:00,1010.03,28.8,0.00,69,27.46,7.4,270,1008.51,10.00,0.00
48532,RANONG,ระนอง,ระนอง,9.98333,98.61667,23.5,09-13-2019,16:00:00,1011.25,26.0,4.10,86,28.97,7.4,190,1010.32,10.00,3.00
48550,KO SAMUI,เกาะสมุย,สุราษฎร์ธานี,9.46667,100.05000,25.5,09-13-2019,16:00:00,1009.02,31.7,0.00,70,32.64,13.0,260,1008.34,10.00,0.00
48551,SURAT THANI,สุราษฎร์ธานี,สุราษฎร์ธานี,9.13556,99.15194,22.6,09-13-2019,16:00:00,1010.46,27.5,0.80,75,27.47,5.6,260,1009.67,10.00,0.01
48552,NAKHONSI THAMMARAT,นครศรีธรรมราช,นครศรีธรรมราช,8.53778,99.96389,22.8,09-13-2019,16:00:00,1009.17,24.9,13.00,88,27.79,7.4,320,1008.53,7.00,7.90
48554,NAKHONSI THAMMARAT AGROMET.,นครศรีธรรมราช สกษ.,นครศรีธรรมราช,8.35931,100.00000,22.4,09-13-2019,16:00:00,1010.23,24.2,9.00,90,27.09,25.9,340,1009.82,8.00,8.70
48555,SURAT THANI AGROMET.,สุราษฎร์ธานี สกษ.,สุราษฎร์ธานี,9.10000,99.63333,23.5,09-13-2019,16:00:00,1012.08,28.2,0.60,76,29.03,7.4,240,1007.87,7.00,0.60
48556,PHRA SANG,พระแสง สอท.,สุราษฎร์ธานี,8.57022,99.25825,23.5,09-13-2019,16:00:00,1009.77,24.5,11.80,94,28.89,0.0,000,1008.14,10.00,11.80
48557,CHAWANG,ฉวาง,นครศรีธรรมราช,8.43194,99.51194,23.8,09-13-2019,16:00:00,1011.22,26.0,44.50,88,29.50,0.0,000,1007.72,8.00,1.50
48560,PHATTHALUNG AGROMET.,พัทลุง สกษ.,พัทลุง,7.58333,100.16667,21.1,09-13-2019,16:00:00,1008.65,33.7,3.30,48,25.05,16.7,300,1007.32,10.00,0.00
48561,TAKUA PA,ตะกั่วป่า,พังงา,8.68417,98.25222,23.5,09-13-2019,16:00:00,1011.33,25.0,1.60,92,29.00,0.0,000,1010.44,8.00,1.60
48563,KRABI,กระบี่,กระบี่,8.10361,98.97528,22.5,09-13-2019,16:00:00,1005.90,23.3,9.40,96,27.33,11.1,030,1002.30,10.00,9.40
48564,PHUKET,ภูเก็ต,ภูเก็ต,7.88333,98.40000,24.7,09-13-2019,16:00:00,1010.10,30.8,0.00,70,31.06,11.1,330,1009.66,10.00,0.00
48565,PHUKET AIRPORT,ภูเก็ต (ศูนย์ฯ),ภูเก็ต,8.14500,98.31444,23.6,09-13-2019,16:00:00,1011.18,28.0,0.01,77,29.19,5.6,240,1010.18,10.00,0.01
48566,KO LANTA,เกาะลันตา,กระบี่,7.53333,99.05000,23.7,09-13-2019,16:00:00,1010.48,29.1,0.00,73,29.38,14.8,280,1009.67,10.00,0.00
48567,TRANG AIRPORT,ตรัง,ตรัง,7.51667,99.61667,23.4,09-13-2019,16:00:00,1009.70,33.5,0.00,56,28.84,5.6,290,1007.93,10.00,0.00
48568,SONGKHLA,สงขลา,สงขลา,7.18211,100.60769,24.3,09-13-2019,16:00:00,1008.73,32.0,0.00,64,30.36,5.6,030,1007.99,10.00,0.00
48569,HAT YAI AIRPORT,หาดใหญ่,สงขลา,6.91667,100.43333,21.5,09-13-2019,16:00:00,1008.97,33.0,0.20,51,25.63,22.2,250,1005.05,10.00,0.00
48570,SATUN,สตูล,สตูล,6.65000,100.08333,24.1,09-13-2019,16:00:00,1009.94,30.7,1.40,68,30.01,7.4,260,1009.26,10.00,0.00
48571,KHO HONG AGROMET.,คอหงษ์ สกษ.,สงขลา,7.00000,100.50000,23.8,09-13-2019,16:00:00,1008.54,33.8,29.40,56,29.46,7.4,280,1007.45,10.00,0.00
48574,SA DAO,สะเดา,สงขลา,6.79806,100.39056,24.3,09-13-2019,16:00:00,1009.34,31.7,1.50,65,30.32,11.1,270,1006.46,12.00,0.00
48580,PATTANI AIRPORT,ปัตตานี,ปัตตานี,6.78333,101.15000,24.7,09-13-2019,16:00:00,1008.77,26.3,5.70,91,31.13,0.0,000,1008.08,6.00,2.40
48581,YALA AGROMET.,ยะลา สกษ.,ยะลา,6.51667,101.28333,23.7,09-13-2019,16:00:00,1009.76,26.5,3.30,85,29.35,0.0,000,1005.62,5.00,2.00
48583,NARATHIWAT,นราธิวาส,นราธิวาส,6.41667,101.81667,22.6,09-13-2019,16:00:00,1009.10,25.4,0.60,84,27.38,22.2,260,1008.50,6.00,0.60
