WmoStationNumber,StationNameEnglish,StationNameThai,Province,Latitude,Longitude,Rainfall,Date,Time,WindSpeed,Rainfall24Hr,MeanSeaLevelPressure,VaporPressure,WindDirection,LandVisibility,AirTemperature,DewPoint,RelativeHumidity,StationPressure
48300,MAE HONG SON,แม่ฮ่องสอน,แม่ฮ่องสอน,19.29897,97.97578,0.00,09-28-2019,13:00:00,0.0,1.00,1013.03,30.61,000,12.00,31.0,24.4,68,982.43
48302,DOI ANG KANG,ดอยอ่างขาง,เชียงใหม่,19.93139,99.04833,0.00,09-28-2019,13:00:00,9.3,0.00,1014.75,19.28,180,8.00,18.1,16.9,93,851.90
48303,CHIANG RAI,เชียงราย,เชียงราย,19.96139,99.88139,0.00,09-28-2019,13:00:00,9.3,0.00,1013.70,24.15,070,10.00,30.9,20.5,54,970.54
48304,CHAING RAI AGROMET.,เชียงราย สกษ.,เชียงราย,19.87083,99.78278,0.00,09-28-2019,13:00:00,3.7,0.00,1013.62,24.48,080,9.00,30.5,20.8,56,968.51
48307,THUNG CHANG,ทุ่งช้าง,น่าน,19.41194,100.88353,0.00,09-28-2019,13:00:00,0.0,0.00,1013.02,27.44,000,10.00,28.5,22.6,71,975.51
48310,PHAYAO,พะเยา,พะเยา,19.13333,99.90000,0.00,09-28-2019,13:00:00,0.0,0.00,1014.73,26.21,000,10.00,30.0,21.9,62,969.95
48315,THA WANGPHA,ท่าวังผา,น่าน,19.11056,100.80250,0.00,09-28-2019,13:00:00,3.7,0.00,1014.24,27.68,040,10.00,31.5,22.8,60,987.80
48324,THOEN,เถิน,ลำปาง,17.63661,99.24475,0.00,09-28-2019,13:00:00,1.9,0.00,1013.56,30.14,050,7.00,30.2,24.2,70,991.94
48325,MAE SARIANG,แม่สะเรียง,แม่ฮ่องสอน,18.16667,97.93333,0.00,09-28-2019,13:00:00,0.0,0.00,1012.50,29.07,000,10.00,31.5,23.6,63,988.67
48327,CHIANG MAI,เชียงใหม่,เชียงใหม่,18.79000,98.97694,0.00,09-28-2019,13:00:00,3.7,0.00,1013.83,23.47,010,10.00,31.1,20.1,52,979.66
48328,LAMPANG,ลำปาง,ลำปาง,18.28333,99.51667,0.00,09-28-2019,13:00:00,0.0,0.00,1013.62,28.33,000,10.00,32.4,23.1,58,986.46
48329,LAMPHUN,ลำพูน,ลำพูน,18.56722,99.03389,0.00,09-28-2019,13:00:00,5.6,1.70,1014.01,26.04,050,10.00,30.2,21.8,61,980.66
48330,PHRAE,แพร่,แพร่,18.16667,100.16667,0.00,09-28-2019,13:00:00,3.7,0.00,1013.14,27.38,300,5.00,32.2,22.6,57,994.87
48331,NAN,น่าน,น่าน,18.77972,100.77778,0.00,09-28-2019,13:00:00,5.6,0.00,1013.73,26.15,360,10.00,31.7,21.8,56,991.15
48333,NAN AGROMET.,น่าน สกษ.,น่าน,18.86667,100.75000,0.00,09-28-2019,13:00:00,3.7,0.00,1013.67,25.55,210,12.00,30.8,21.4,58,984.03
48334,LAMPANG AGROMET.,ลำปาง สกษ.,ลำปาง,18.31667,99.28333,0.00,09-28-2019,13:00:00,0.0,1.20,1013.86,27.93,000,8.00,30.2,22.9,65,978.58
48350,LOEI AGROMET.,เลย สกษ.,เลย,17.40000,101.73333,0.00,09-28-2019,13:00:00,3.7,0.00,1012.96,27.85,050,8.00,30.3,22.9,65,983.46
48351,UTTARADIT,อุตรดิตถ์,อุตรดิตถ์,17.61667,100.10000,0.00,09-28-2019,13:00:00,0.0,0.60,1012.80,23.74,000,8.00,33.0,20.3,47,1005.60
48352,NONG KHAI,หนองคาย,หนองคาย,17.86717,102.73303,0.00,09-28-2019,13:00:00,9.3,0.00,1013.09,24.52,050,6.00,32.7,20.8,50,993.46
48353,LOEI,เลย,เลย,17.45000,101.73333,0.00,09-28-2019,13:00:00,5.6,0.00,1012.87,23.74,130,5.00,33.0,20.3,47,984.64
48354,UDON THANI,อุดรธานี,อุดรธานี,17.38333,102.80000,0.00,09-28-2019,13:00:00,5.6,0.00,1013.90,19.12,040,8.00,32.7,16.8,39,993.98
48355,SAKON NAKHON AGROMET.,สกลนคร สกษ.,สกลนคร,17.12503,104.06100,0.00,09-28-2019,13:00:00,7.4,0.00,1013.79,24.07,060,7.00,31.0,20.5,54,992.22
48356,SAKON NAKHON,สกลนคร,สกลนคร,17.15000,104.13333,0.00,09-28-2019,13:00:00,3.7,0.00,1013.02,21.02,280,8.00,31.3,18.3,46,993.70
48357,NAKHON PHANOM,นครพนม,นครพนม,17.41083,104.78250,0.00,09-28-2019,13:00:00,1.9,0.00,1012.81,21.40,130,7.00,33.0,18.6,43,996.30
48358,NAKHON PHANOM AGROMET.,นครพนม สกษ.,นครพนม,17.44306,104.77361,0.00,09-28-2019,13:00:00,5.6,0.00,1013.51,23.66,080,7.00,31.5,20.2,51,996.26
48360,NONG BUA LAM PHU,หนองบัวลำภู,หนองบัวลำภู,17.23250,102.42944,0.00,09-28-2019,13:00:00,3.7,0.00,1012.39,24.57,010,7.00,32.0,20.8,52,986.91
48372,SUKHOTHAI*,สุโขทัย,สุโขทัย,17.10611,99.80000,0.00,09-28-2019,13:00:00,0.0,0.00,1014.52,32.99,000,8.00,32.0,25.7,69,1008.79
48373,SI SAMRONG AGROMET.,ศรีสำโรง สกษ.,สุโขทัย,17.16136,99.86167,0.00,09-28-2019,13:00:00,0.0,1.00,1013.73,30.07,000,8.00,32.7,24.1,61,1007.61
48374,LOM SAK,หล่มสัก,เพชรบูรณ์,16.77361,101.24944,0.00,09-28-2019,13:00:00,0.0,0.00,1014.35,24.67,000,12.00,33.5,20.9,48,998.14
48375,MAE SOT,แม่สอด,ตาก,16.65917,98.55083,0.00,09-28-2019,13:00:00,11.1,6.60,1010.87,25.91,010,10.00,32.0,21.7,54,988.83
48376,TAK,ตาก,ตาก,16.87833,99.14333,0.00,09-28-2019,13:00:00,5.6,0.00,1014.25,29.32,120,6.00,31.2,23.7,65,999.96
48377,BHUMIBOL DAM,เขื่อนภูมิพล,ตาก,17.24389,99.00250,0.00,09-28-2019,13:00:00,0.0,0.00,1013.37,28.42,000,8.00,30.6,23.2,65,997.08
48378,PHITSANULOK,พิษณุโลก,พิษณุโลก,16.79481,100.27930,0.00,09-28-2019,13:00:00,5.6,6.00,1013.49,28.12,240,10.00,33.0,23.0,56,1008.34
48379,PHETCHABUN,เพชรบูรณ์,เพชรบูรณ์,16.43333,101.15000,0.00,09-28-2019,13:00:00,0.0,2.20,1011.87,25.93,000,10.00,34.3,21.7,48,998.93
48380,KAMPHAENG PHET,กำแพงเพชร,กำแพงเพชร,16.48681,99.52697,0.00,09-28-2019,13:00:00,1.9,0.00,1013.32,26.34,230,8.00,31.8,21.9,56,1004.09
48381,KHON KAEN,ขอนแก่น,ขอนแก่น,16.46111,102.78972,0.00,09-28-2019,13:00:00,5.6,0.00,1012.92,22.84,090,10.00,32.5,19.6,47,991.50
48382,MAHASARAKHAM,มหาสารคาม,มหาสารคาม,16.24722,103.06805,0.00,09-28-2019,13:00:00,0.0,0.00,1012.05,26.45,000,12.00,33.0,22.0,53,994.81
48383,MUKDAHAN,มุกดาหาร,มุกดาหาร,16.54139,104.72889,0.00,09-28-2019,13:00:00,3.7,0.00,1012.04,26.06,070,12.00,32.8,21.8,52,996.43
48384,THA PHRA AGROMET.,ท่าพระ สกษ.,ขอนแก่น,16.33333,102.81667,0.00,09-28-2019,13:00:00,3.7,0.00,1012.13,28.00,030,10.00,32.8,23.0,56,993.51
48385,UMPHANG,อุ้มผาง,ตาก,16.02472,98.86444,0.00,09-28-2019,13:00:00,0.0,0.00,1012.97,25.18,000,11.00,31.9,21.2,53,962.47
48386,PICHIT AGROMET.,พิจิตร สกษ.,พิจิตร,16.43806,100.29250,0.00,09-28-2019,13:00:00,3.7,0.00,1012.81,27.25,230,4.00,32.7,22.5,55,1008.90
48387,DOI MU SOE AGROMET.,ดอยมูเซอร์ สกษ.,ตาก,16.75000,98.93333,0.00,09-28-2019,13:00:00,9.3,0.80,1012.97,24.53,010,7.00,26.1,20.8,73,918.70
48390,KALASIN,กาฬสินธุ์,กาฬสินธุ์,16.33250,103.58833,0.00,09-28-2019,13:00:00,7.4,0.00,1013.11,25.64,090,10.00,32.0,21.5,54,997.29
48400,NAKHON SAWAN,นครสวรรค์ ,นครสวรรค์,15.67183,100.13236,0.00,09-28-2019,13:00:00,1.9,0.00,1013.39,28.92,070,9.00,33.4,23.5,56,1009.41
48401,TAKFA AGROMET.,ตากฟ้า สกษ.,นครสวรรค์,15.34944,100.53028,0.00,09-28-2019,13:00:00,7.4,0.00,1013.55,23.20,030,9.00,32.7,19.9,47,1003.00
48402,CHAINAT AGROMET.,ชัยนาท สกษ.,ชัยนาท,15.15000,100.18333,0.00,09-28-2019,13:00:00,3.7,0.00,1013.33,25.08,130,10.00,33.0,21.1,50,1011.42
48403,CHAIYAPHUM,ชัยภูมิ,ชัยภูมิ,15.80000,102.03333,0.00,09-28-2019,13:00:00,14.8,0.00,1012.45,23.17,070,8.00,32.1,19.9,48,991.82
48404,ROI ET AGROMET.,ร้อยเอ็ด สกษ.,ร้อยเอ็ด,16.07322,103.60844,0.00,09-28-2019,13:00:00,11.1,0.00,1012.54,22.45,070,10.00,31.4,19.4,49,995.03
48405,ROI ET,ร้อยเอ็ด,ร้อยเอ็ด,16.02000,103.74389,0.00,09-28-2019,13:00:00,7.4,0.00,1012.44,23.05,080,10.00,33.2,19.8,45,996.52
48407,UBON RATCHATHANI,อุบลราชธานี (ศูนย์ฯ),อุบลราชธานี,15.25000,104.86667,0.00,09-28-2019,13:00:00,0.0,0.00,1012.02,23.77,000,10.00,32.0,20.3,50,998.15
48408,UBON RATCHATHANI AGROMET.,อุบลราชธานี สกษ.,อุบลราชธานี,15.23914,105.02350,0.00,09-28-2019,13:00:00,0.0,0.00,1012.34,25.10,000,10.00,32.0,21.2,53,997.68
48409,SI SAKET AGROMET.,ศรีสะเกษ,ศรีสะเกษ,15.00000,104.05000,0.00,09-28-2019,13:00:00,7.4,0.00,1012.63,28.58,050,10.00,32.1,23.3,60,998.12
48410,UTHAITHANI,อุทัยธานี,อุทัยธานี,15.37417,100.03889,0.00,09-28-2019,13:00:00,0.0,0.00,1012.71,26.67,"{'@attributes': {'Unit': 'degree'}, '0': '   '}",10.00,33.4,22.1,52,1009.74
48413,WICHIAN BURI,วิเชียรบุรี,เพชรบูรณ์,15.65700,101.10800,0.00,09-28-2019,13:00:00,7.4,0.00,1012.37,22.92,020,10.00,34.0,19.7,43,1004.56
48415,AYUTTHAYA,พระนครศรีอยุธยา,พระนครศรีอยุธยา,14.53472,100.72500,0.00,09-28-2019,13:00:00,14.8,0.00,1012.29,27.06,050,9.00,33.6,22.4,52,1011.20
48416,THA TUM,ท่าตูม,สุรินทร์,15.31667,103.68333,0.00,09-28-2019,13:00:00,3.7,0.00,1012.92,31.23,110,9.00,31.3,24.8,68,998.35
48417,NAKORNNAYOK,นครนายก,นครนายก,14.36222,101.39278,0.00,09-28-2019,13:00:00,3.7,0.00,1010.42,18.37,060,9.00,26.1,16.2,54,877.71
48418,BUA CHUM,บัวชุม  ,ลพบุรี,15.26667,101.18736,0.00,09-28-2019,13:00:00,5.6,0.00,1012.84,23.66,060,9.00,33.1,20.2,47,1007.04
48419,PATHUMTHANI,ปทุมธานี สกษ.,ปทุมธานี,14.10000,100.61667,0.00,09-28-2019,13:00:00,11.1,0.00,1012.51,26.59,030,8.00,35.2,22.1,47,1011.72
48420,Samut Prakarn,สมุทรปราการ สกษ.,สมุทรปราการ,13.51667,100.76167,0.00,09-28-2019,13:00:00,14.8,0.00,1011.77,24.78,120,10.00,33.7,20.9,47,1011.33
48421,THONG PHAPHUM,ทองผาภูมิ,กาญจนบุรี,14.74222,98.63639,0.00,09-28-2019,13:00:00,5.6,0.00,1012.34,28.84,180,7.00,33.5,23.4,56,1001.22
48425,SUPHAN BURI,สุพรรณบุรี,สุพรรณบุรี,14.47444,100.13889,0.00,09-28-2019,13:00:00,11.1,0.00,1013.02,24.70,030,10.00,33.8,20.9,47,1012.02
48426,LOP BURI,ลพบุรี,ลพบุรี,14.79972,100.64500,0.00,09-28-2019,13:00:00,18.5,0.00,1012.72,23.17,020,13.00,33.7,19.9,44,1010.93
48427,U THONG AGROMET.,อู่ทอง สกษ.,สุพรรณบุรี,14.30361,99.86472,0.00,09-28-2019,13:00:00,3.7,0.00,1012.69,27.28,040,11.00,33.0,22.5,54,1011.94
48429,SUVARNABHUMI AIRPORT,สนามบินสุวรรณภูมิ,สมุทรปราการ,13.68639,100.76750,0.00,09-28-2019,13:00:00,9.3,0.00,1011.74,27.34,020,9.00,33.6,22.6,53,1011.05
48430,PRACHIN BURI,ปราจีนบุรี,ปราจีนบุรี,14.05842,101.36930,0.00,09-28-2019,13:00:00,3.7,0.00,1011.61,24.94,060,8.00,35.5,21.1,43,1010.92
48431,NAKHON RATCHASIMA,นครราชสีมา,นครราชสีมา,14.96830,102.08603,0.00,09-28-2019,13:00:00,11.1,0.00,1012.55,23.25,100,9.00,32.0,19.9,49,991.63
48432,SURIN,สุรินทร์,สุรินทร์,14.88333,103.50000,0.00,09-28-2019,13:00:00,5.6,0.00,1012.69,27.85,040,12.00,31.3,22.9,61,996.11
48433,SURIN AGROMET.,สุรินทร์ สกษ.,สุรินทร์,14.88333,103.45000,0.00,09-28-2019,13:00:00,5.6,0.00,1013.21,27.93,040,10.00,31.2,22.9,61,996.90
48434,CHOK CHAI,โชคชัย,นครราชสีมา,14.71889,102.16861,0.00,09-28-2019,13:00:00,5.6,0.00,1012.46,26.34,030,10.00,32.8,21.9,53,990.90
48435,PAKCHONG AGROMET.,ปากช่อง สกษ.,นครราชสีมา,14.64389,101.33194,0.00,09-28-2019,13:00:00,18.5,0.00,1012.50,20.76,030,10.00,30.4,18.1,48,969.50
48436,NANG RONG,นางรอง,บุรีรัมย์,14.58333,102.80000,0.00,09-28-2019,13:00:00,9.3,0.00,1012.64,25.91,100,11.00,32.0,21.7,54,992.30
48437,BURIRUM,บุรีรัมย์,บุรีรัมย์,15.22575,103.24808,0.00,09-28-2019,13:00:00,13.0,0.00,1014.61,30.54,050,8.00,30.4,24.4,70,993.87
48438,SAMUTSONGKRAM,สมุทรสงคราม,สมุทรสงคราม,13.40778,100.03222,0.00,09-28-2019,13:00:00,0.0,0.00,1012.22,27.75,"{'@attributes': {'Unit': 'degree'}, '0': '   '}",10.00,33.1,22.8,55,1011.79
48439,KABIN BURI,กบินทร์บุรี,ปราจีนบุรี,13.98333,101.70722,0.00,09-28-2019,13:00:00,0.0,0.00,1011.62,26.12,000,11.00,33.4,21.8,51,1010.23
48440,SA KAEW,สระแก้ว,สระแก้ว,13.78889,102.03472,0.00,09-28-2019,13:00:00,0.0,15.00,1011.82,29.66,000,8.00,33.2,23.9,58,1006.96
48450,KANCHANA BURI,กาญจนบุรี,กาญจนบุรี,14.02250,99.53583,0.00,09-28-2019,13:00:00,7.4,0.00,1012.74,26.34,040,8.00,32.8,21.9,53,1009.49
48451,NAKHONPATHOM,นครปฐม,นครปฐม,14.01167,99.97000,0.00,09-28-2019,13:00:00,7.4,0.00,1012.73,27.97,040,10.00,32.5,22.9,57,1011.63
48453,BANG NA AGROMET.,กรุงเทพฯ บางนา สกษ.,กรุงเทพมหานคร,13.66639,100.60611,0.00,09-28-2019,13:00:00,11.1,0.00,1011.73,26.68,030,10.00,34.4,22.2,49,1011.43
48454,BANGKOK PORT (KLONG TOEI),กรุงเทพฯ ท่าเรือคลองเตย,กรุงเทพมหานคร,13.70694,100.56805,0.00,09-28-2019,13:00:00,5.6,0.01,1011.56,26.60,040,10.00,34.5,22.1,49,1010.89
48455,BANGKOK METROPOLIS,กรุงเทพมหานคร,กรุงเทพมหานคร,13.72639,100.56000,0.00,09-28-2019,13:00:00,5.6,0.00,1013.32,30.11,120,10.00,33.0,24.2,60,1012.84
48456,DON MUANG AIRPORT,สนามบินดอนเมือง,กรุงเทพมหานคร,13.91917,100.60500,0.00,09-28-2019,13:00:00,13.0,0.01,1012.37,27.03,020,10.00,33.3,22.4,53,1010.98
48457,PILOT STATION,นำร่อง,สมุทรปราการ,13.39389,100.59944,0.00,09-28-2019,13:00:00,5.6,0.00,1012.34,29.60,090,5.00,31.2,23.9,65,1010.67
48458,CHACHOENGSAO,ฉะเชิงเทรา,ฉะเชิงเทรา,13.51556,101.45833,0.00,09-28-2019,13:00:00,3.7,0.00,1013.54,25.63,360,15.00,34.0,21.5,48,1005.66
48459,CHON BURI,ชลบุรี,ชลบุรี,13.36667,100.98333,0.00,09-28-2019,13:00:00,11.1,4.70,1011.79,25.77,090,10.00,34.5,21.6,47,1011.52
48460,KO SICHANG,เกาะสีชัง,ชลบุรี,13.16167,100.80194,0.00,09-28-2019,13:00:00,7.4,14.30,1011.74,28.25,320,10.00,32.5,23.1,58,1008.65
48461,PHATTHAYA,พัทยา,ชลบุรี,12.92000,100.86944,0.00,09-28-2019,13:00:00,7.4,13.80,1012.08,30.32,330,8.00,31.7,24.3,65,1005.21
48462,ARANYA PRATHET,อรัญประเทศ,สระแก้ว,13.70000,102.58333,0.00,09-28-2019,13:00:00,5.6,18.00,1012.41,30.53,090,10.00,33.2,24.4,60,1006.90
48463,LAEM CHABANG,แหลมฉบัง,ชลบุรี,13.07694,100.87583,0.00,09-28-2019,13:00:00,5.6,1.80,1012.77,30.57,340,3.00,33.5,24.4,59,1003.60
48464,RATCHA BURI,ราชบุรี,ราชบุรี,13.48931,99.79239,0.00,09-28-2019,13:00:00,11.1,4.50,1012.90,30.04,360,8.00,31.7,24.1,64,1011.65
48465,PHETCHA BURI,เพชรบุรี,เพชรบุรี,12.99944,100.06056,0.00,09-28-2019,13:00:00,14.8,3.20,1012.35,30.28,350,11.00,33.5,24.2,59,1011.93
48474,NONG PHLUB AGROMET.,หนองพลับ สกษ.,ประจวบคีรีขันธ์,12.58333,99.73333,0.00,09-28-2019,13:00:00,7.4,1.00,1005.77,28.78,030,10.00,30.5,23.4,66,993.67
48475,HUA HIN,หัวหิน,ประจวบคีรีขันธ์,12.58611,99.96250,0.00,09-28-2019,13:00:00,9.3,0.00,1012.72,30.82,040,7.00,32.5,24.5,63,1012.02
48477,SATTAHIP,สัตหีบ,ชลบุรี,12.68333,100.98333,0.00,09-28-2019,13:00:00,5.6,3.10,1012.34,27.64,360,6.00,35.3,22.7,48,1009.96
48478,RAYONG,ระยอง,ระยอง,12.63222,101.34361,0.00,09-28-2019,13:00:00,11.1,0.00,1011.84,26.60,100,8.00,34.5,22.1,49,1011.33
48479,HUAI PONG AGROMET.,ห้วยโป่ง สกษ.,ระยอง,12.73333,101.13333,0.00,09-28-2019,13:00:00,9.3,1.40,1011.41,23.81,330,12.00,33.9,20.3,45,1006.35
48480,CHANTHA BURI,จันทบุรี,จันทบุรี,12.61667,102.11333,0.00,09-28-2019,13:00:00,0.0,0.00,1011.42,30.85,000,9.00,34.6,24.6,56,1011.01
48481,PHLIU  AGROMET.,พลิ้ว สกษ.,จันทบุรี,12.50861,102.17305,0.00,09-28-2019,13:00:00,3.7,0.00,1011.42,34.05,040,10.00,31.8,26.2,72,1008.68
48500,PRACHUAP KHIRIKHAN,ประจวบคีรีขันธ์,ประจวบคีรีขันธ์,11.83333,99.83333,0.00,09-28-2019,13:00:00,22.2,1.20,1012.50,33.66,070,10.00,33.0,26.0,67,1011.72
48501,TRAD,ตราด,ตราด,11.76667,102.88333,0.01,09-28-2019,13:00:00,5.6,0.01,1011.89,33.88,260,6.00,30.2,26.1,79,1011.44
48517,CHUMPHON,ชุมพร,ชุมพร,10.49875,99.18847,0.00,09-28-2019,13:00:00,11.1,0.00,1012.19,29.54,100,10.00,33.0,23.8,59,1011.51
48520,SAWI AGROMET.,สวี สกษ.,ชุมพร,10.33333,99.10000,0.00,09-28-2019,13:00:00,7.4,0.20,1011.71,30.94,050,10.00,32.0,24.6,65,1010.20
48532,RANONG,ระนอง,ระนอง,9.98333,98.61667,0.00,09-28-2019,13:00:00,7.4,0.00,1011.39,31.46,050,10.00,33.5,24.9,61,1010.49
48550,KO SAMUI,เกาะสมุย,สุราษฎร์ธานี,9.46667,100.05000,0.00,09-28-2019,13:00:00,16.7,0.00,1011.35,33.37,080,9.00,28.7,25.9,85,1010.67
48551,SURAT THANI,สุราษฎร์ธานี,สุราษฎร์ธานี,9.13556,99.15194,8.90,09-28-2019,13:00:00,5.6,8.90,1012.58,31.22,060,8.00,27.2,24.8,87,1011.78
48552,NAKHONSI THAMMARAT,นครศรีธรรมราช,นครศรีธรรมราช,8.53778,99.96389,35.30,09-28-2019,13:00:00,0.0,37.70,1012.09,31.79,000,7.00,25.5,25.1,97,1011.45
48554,NAKHONSI THAMMARAT AGROMET.,นครศรีธรรมราช สกษ.,นครศรีธรรมราช,8.35931,100.00000,13.90,09-28-2019,13:00:00,0.0,17.50,1012.23,31.79,000,10.00,25.5,25.1,97,1011.82
48555,SURAT THANI AGROMET.,สุราษฎร์ธานี สกษ.,สุราษฎร์ธานี,9.10000,99.63333,8.20,09-28-2019,13:00:00,0.0,8.20,1014.75,32.02,000,5.00,26.9,25.2,90,1010.51
48556,PHRA SANG,พระแสง สอท.,สุราษฎร์ธานี,8.57022,99.25825,0.00,09-28-2019,13:00:00,0.0,3.20,1010.17,27.84,000,10.00,33.0,22.9,55,1008.59
48557,CHAWANG,ฉวาง,นครศรีธรรมราช,8.43194,99.51194,1.10,09-28-2019,13:00:00,0.0,1.10,1012.12,31.66,000,8.00,27.0,25.0,89,1008.63
48560,PHATTHALUNG AGROMET.,พัทลุง สกษ.,พัทลุง,7.58333,100.16667,0.30,09-28-2019,13:00:00,0.0,1.00,1012.56,31.38,000,10.00,27.0,24.8,88,1011.20
48561,TAKUA PA,ตะกั่วป่า,พังงา,8.68417,98.25222,0.00,09-28-2019,13:00:00,9.3,25.90,1011.70,32.18,240,10.00,31.2,25.3,71,1010.82
48563,KRABI,กระบี่,กระบี่,8.10361,98.97528,0.01,09-28-2019,13:00:00,22.2,0.01,1011.95,25.05,120,10.00,27.0,21.1,70,1008.37
48564,PHUKET,ภูเก็ต,ภูเก็ต,7.88333,98.40000,0.00,09-28-2019,13:00:00,0.0,8.00,1010.89,30.69,000,10.00,33.0,24.5,61,1010.46
48565,PHUKET AIRPORT,ภูเก็ต (ศูนย์ฯ),ภูเก็ต,8.14500,98.31444,0.00,09-28-2019,13:00:00,11.1,0.01,1011.14,29.54,060,10.00,33.0,23.8,59,1010.17
48566,KO LANTA,เกาะลันตา,กระบี่,7.53333,99.05000,0.40,09-28-2019,13:00:00,18.5,0.40,1011.61,31.19,350,10.00,30.3,24.7,72,1010.80
48567,TRANG AIRPORT,ตรัง,ตรัง,7.51667,99.61667,0.70,09-28-2019,13:00:00,14.8,0.70,1011.55,31.05,040,10.00,29.1,24.7,77,1009.74
48568,SONGKHLA,สงขลา,สงขลา,7.18211,100.60769,0.50,09-28-2019,13:00:00,13.0,6.90,1011.72,30.82,070,12.00,28.7,24.5,78,1010.97
48569,HAT YAI AIRPORT,หาดใหญ่,สงขลา,6.91667,100.43333,0.60,09-28-2019,13:00:00,14.8,1.20,1011.60,29.30,050,10.00,30.2,23.7,68,1007.63
48570,SATUN,สตูล,สตูล,6.65000,100.08333,0.00,09-28-2019,13:00:00,0.0,0.00,1011.99,29.42,000,10.00,32.8,23.8,59,1011.32
48571,KHO HONG AGROMET.,คอหงษ์ สกษ.,สงขลา,7.00000,100.50000,0.00,09-28-2019,13:00:00,11.1,0.60,1011.54,31.13,030,12.00,29.0,24.7,78,1010.43
48574,SA DAO,สะเดา,สงขลา,6.79806,100.39056,0.60,09-28-2019,13:00:00,3.7,2.20,1012.01,33.25,050,8.00,29.9,25.8,79,1009.10
48580,PATTANI AIRPORT,ปัตตานี,ปัตตานี,6.78333,101.15000,0.00,09-28-2019,13:00:00,0.0,0.70,1011.65,32.39,000,9.00,28.5,25.4,83,1010.97
48581,YALA AGROMET.,ยะลา สกษ.,ยะลา,6.51667,101.28333,1.50,09-28-2019,13:00:00,0.0,1.50,1012.28,31.41,000,8.00,29.0,24.9,78,1008.17
48583,NARATHIWAT,นราธิวาส,นราธิวาส,6.41667,101.81667,0.00,09-28-2019,13:00:00,0.0,1.00,1011.57,30.14,000,10.00,30.2,24.2,70,1010.99
