WmoStationNumber,StationNameEnglish,StationNameThai,Province,Latitude,Longitude,DewPoint,Date,Time,WindSpeed,Rainfall24Hr,RelativeHumidity,LandVisibility,Rainfall,VaporPressure,MinimumTemperature,AirTemperature,WindDirection,StationPressure,MeanSeaLevelPressure
48300,MAE HONG SON,แม่ฮ่องสอน,แม่ฮ่องสอน,19.29897,97.97578,23.1,09-22-2019,07:00:00,0.0,2.10,93,8.00,0.00,28.28,22.6,24.3,000,980.78,1012.02
48302,DOI ANG KANG,ดอยอ่างขาง,เชียงใหม่,19.93139,99.04833,16.7,09-22-2019,07:00:00,18.5,0.00,98,8.00,0.00,18.95,16.9,17.0,120,849.01,1011.97
48303,CHIANG RAI,เชียงราย,เชียงราย,19.96139,99.88139,20.4,09-22-2019,07:00:00,14.8,0.00,81,10.00,0.00,23.90,23.2,23.9,040,969.41,1013.56
48304,CHAING RAI AGROMET.,เชียงราย สกษ.,เชียงราย,19.87083,99.78278,21.3,09-22-2019,07:00:00,0.0,0.00,95,13.00,0.00,25.37,21.3,22.1,000,966.92,1013.25
48307,THUNG CHANG,ทุ่งช้าง,น่าน,19.41194,100.88353,21.3,09-22-2019,07:00:00,0.0,0.00,99,8.00,0.00,25.38,21.0,21.5,000,974.85,1013.24
48310,PHAYAO,พะเยา,พะเยา,19.13333,99.90000,23.6,09-22-2019,07:00:00,1.9,8.80,97,7.00,0.00,29.04,23.3,24.0,320,967.94,1013.56
48315,THA WANGPHA,ท่าวังผา,น่าน,19.11056,100.80250,23.2,09-22-2019,07:00:00,0.0,0.50,94,9.00,0.00,28.36,23.7,24.2,000,986.83,1013.91
48324,THOEN,เถิน,ลำปาง,17.63661,99.24475,23.3,09-22-2019,07:00:00,0.0,33.30,95,4.00,0.00,28.62,24.1,24.2,000,990.38,1012.41
48325,MAE SARIANG,แม่สะเรียง,แม่ฮ่องสอน,18.16667,97.93333,23.6,09-22-2019,07:00:00,0.0,0.00,93,8.00,0.00,29.16,22.5,24.8,000,987.90,1012.25
48327,CHIANG MAI,เชียงใหม่,เชียงใหม่,18.79000,98.97694,22.7,09-22-2019,07:00:00,0.0,12.60,92,8.00,0.00,27.51,23.3,24.0,000,977.67,1012.60
48328,LAMPANG,ลำปาง,ลำปาง,18.28333,99.51667,23.5,09-22-2019,07:00:00,0.0,25.80,97,5.00,0.00,28.86,23.0,23.9,000,986.60,1014.55
48329,LAMPHUN,ลำพูน,ลำพูน,18.56722,99.03389,23.0,09-22-2019,07:00:00,0.0,14.80,96,7.00,0.00,28.09,23.0,23.6,000,978.28,1012.29
48330,PHRAE,แพร่,แพร่,18.16667,100.16667,24.5,09-22-2019,07:00:00,0.0,15.40,96,5.00,0.00,30.69,24.4,25.2,000,993.55,1012.23
48331,NAN,น่าน,น่าน,18.77972,100.77778,24.2,09-22-2019,07:00:00,0.0,15.70,98,10.00,0.00,30.20,23.8,24.5,000,988.62,1011.69
48333,NAN AGROMET.,น่าน สกษ.,น่าน,18.86667,100.75000,22.7,09-22-2019,07:00:00,0.0,0.00,92,10.00,0.00,27.51,23.8,24.0,000,982.31,1012.59
48334,LAMPANG AGROMET.,ลำปาง สกษ.,ลำปาง,18.31667,99.28333,22.2,09-22-2019,07:00:00,0.0,12.80,96,6.00,0.00,26.83,22.5,23.0,000,976.91,1013.00
48350,LOEI AGROMET.,เลย สกษ.,เลย,17.40000,101.73333,22.7,09-22-2019,07:00:00,0.0,0.00,99,.05,0.00,27.65,22.4,22.9,000,982.53,1012.75
48351,UTTARADIT,อุตรดิตถ์,อุตรดิตถ์,17.61667,100.10000,24.0,09-22-2019,07:00:00,0.0,0.00,92,8.00,0.00,29.91,25.3,25.5,000,1004.22,1011.60
48352,NONG KHAI,หนองคาย,หนองคาย,17.86717,102.73303,24.6,09-22-2019,07:00:00,0.0,0.00,92,5.00,0.00,30.84,25.5,26.0,000,992.54,1012.60
48353,LOEI,เลย,เลย,17.45000,101.73333,22.5,09-22-2019,07:00:00,0.0,0.00,91,.80,0.00,27.25,23.9,24.0,000,983.77,1012.83
48354,UDON THANI,อุดรธานี,อุดรธานี,17.38333,102.80000,24.5,09-22-2019,07:00:00,0.0,0.00,95,7.00,0.00,30.79,24.4,25.4,000,992.34,1012.71
48355,SAKON NAKHON AGROMET.,สกลนคร สกษ.,สกลนคร,17.12503,104.06100,22.6,09-22-2019,07:00:00,0.0,0.00,97,8.00,0.00,27.49,22.5,23.1,000,990.19,1012.30
48356,SAKON NAKHON,สกลนคร,สกลนคร,17.15000,104.13333,21.9,09-22-2019,07:00:00,3.7,0.00,82,6.00,0.00,26.27,23.4,25.2,110,992.25,1011.94
48357,NAKHON PHANOM,นครพนม,นครพนม,17.41083,104.78250,22.1,09-22-2019,07:00:00,0.0,0.00,85,5.00,0.00,26.60,23.7,24.8,000,995.81,1012.77
48358,NAKHON PHANOM AGROMET.,นครพนม สกษ.,นครพนม,17.44306,104.77361,22.3,09-22-2019,07:00:00,0.0,0.00,87,7.00,0.00,26.84,21.5,24.5,000,995.34,1012.99
48360,NONG BUA LAM PHU,หนองบัวลำภู,หนองบัวลำภู,17.23250,102.42944,22.8,09-22-2019,07:00:00,0.0,0.00,96,8.00,0.00,27.66,23.0,23.5,000,985.47,1011.65
48372,SUKHOTHAI*,สุโขทัย,สุโขทัย,17.10611,99.80000,25.1,09-22-2019,07:00:00,0.0,16.80,99,8.00,0.00,31.96,24.2,25.3,000,1005.92,1011.77
48373,SI SAMRONG AGROMET.,ศรีสำโรง สกษ.,สุโขทัย,17.16136,99.86167,24.6,09-22-2019,07:00:00,0.0,6.60,97,12.00,0.00,30.85,24.5,25.0,000,1005.64,1011.90
48374,LOM SAK,หล่มสัก,เพชรบูรณ์,16.77361,101.24944,23.1,09-22-2019,07:00:00,0.0,0.00,89,10.00,0.00,28.22,24.5,25.0,000,996.02,1012.66
48375,MAE SOT,แม่สอด,ตาก,16.65917,98.55083,23.5,09-22-2019,07:00:00,3.7,9.30,94,10.00,0.00,28.89,23.8,24.5,090,987.23,1009.79
48376,TAK,ตาก,ตาก,16.87833,99.14333,23.8,09-22-2019,07:00:00,0.0,7.10,96,5.00,0.00,29.41,23.6,24.5,000,998.51,1013.11
48377,BHUMIBOL DAM,เขื่อนภูมิพล,ตาก,17.24389,99.00250,23.4,09-22-2019,07:00:00,0.0,16.80,99,6.00,0.00,28.85,23.4,23.6,000,995.64,1012.29
48378,PHITSANULOK,พิษณุโลก,พิษณุโลก,16.79481,100.27930,24.1,09-22-2019,07:00:00,0.0,11.00,95,10.00,0.00,30.05,24.6,25.0,000,1006.83,1012.11
48379,PHETCHABUN,เพชรบูรณ์,เพชรบูรณ์,16.43333,101.15000,23.5,09-22-2019,07:00:00,0.0,0.00,92,10.00,0.00,29.00,24.5,25.0,000,995.53,1008.84
48380,KAMPHAENG PHET,กำแพงเพชร,กำแพงเพชร,16.48681,99.52697,23.6,09-22-2019,07:00:00,3.7,14.70,97,7.00,7.00,29.04,23.8,24.0,220,1002.68,1012.14
48381,KHON KAEN,ขอนแก่น,ขอนแก่น,16.46111,102.78972,23.6,09-22-2019,07:00:00,1.9,1.80,92,6.00,0.00,29.18,23.7,25.1,040,990.55,1012.48
48382,MAHASARAKHAM,มหาสารคาม,มหาสารคาม,16.24722,103.06805,24.1,09-22-2019,07:00:00,9.3,8.70,84,10.00,0.00,30.02,24.7,27.0,070,994.64,1012.23
48383,MUKDAHAN,มุกดาหาร,มุกดาหาร,16.54139,104.72889,22.1,09-22-2019,07:00:00,3.7,0.00,83,10.00,0.00,26.52,25.0,25.2,030,995.09,1011.08
48384,THA PHRA AGROMET.,ท่าพระ สกษ.,ขอนแก่น,16.33333,102.81667,23.8,09-22-2019,07:00:00,0.0,8.60,95,7.00,0.00,29.51,23.8,24.7,000,992.38,1011.48
48385,UMPHANG,อุ้มผาง,ตาก,16.02472,98.86444,21.6,09-22-2019,07:00:00,0.0,20.80,93,7.00,16.00,25.76,22.0,22.8,000,959.29,1011.21
48386,PICHIT AGROMET.,พิจิตร สกษ.,พิจิตร,16.43806,100.29250,24.1,09-22-2019,07:00:00,0.0,8.30,96,5.00,0.60,29.95,24.6,24.8,000,1007.60,1011.60
48387,DOI MU SOE AGROMET.,ดอยมูเซอร์ สกษ.,ตาก,16.75000,98.93333,20.0,09-22-2019,07:00:00,14.8,3.50,97,.05,0.00,23.41,19.6,20.5,070,916.55,1012.46
48390,KALASIN,กาฬสินธุ์,กาฬสินธุ์,16.33250,103.58833,22.8,09-22-2019,07:00:00,0.0,2.00,91,9.00,0.00,27.69,23.7,24.4,000,995.80,1012.00
48400,NAKHON SAWAN,นครสวรรค์ ,นครสวรรค์,15.67183,100.13236,24.6,09-22-2019,07:00:00,0.0,25.60,97,4.00,0.00,30.85,24.5,25.0,000,1008.00,1012.08
48401,TAKFA AGROMET.,ตากฟ้า สกษ.,นครสวรรค์,15.34944,100.53028,24.3,09-22-2019,07:00:00,0.0,9.80,96,6.00,0.00,30.32,24.5,25.0,000,1001.84,1012.65
48402,CHAINAT AGROMET.,ชัยนาท สกษ.,ชัยนาท,15.15000,100.18333,24.1,09-22-2019,07:00:00,0.0,19.00,94,3.00,0.00,29.97,25.0,25.1,000,1010.19,1012.14
48403,CHAIYAPHUM,ชัยภูมิ,ชัยภูมิ,15.80000,102.03333,22.2,09-22-2019,07:00:00,13.0,2.60,81,10.00,0.00,26.70,24.7,25.6,040,991.19,1012.25
48404,ROI ET AGROMET.,ร้อยเอ็ด สกษ.,ร้อยเอ็ด,16.07322,103.60844,22.4,09-22-2019,07:00:00,5.6,0.00,81,10.00,0.00,27.05,24.2,25.8,050,994.03,1011.85
48405,ROI ET,ร้อยเอ็ด,ร้อยเอ็ด,16.02000,103.74389,22.9,09-22-2019,07:00:00,0.0,0.50,87,8.00,0.00,27.97,25.2,25.3,000,995.14,1011.46
48407,UBON RATCHATHANI,อุบลราชธานี (ศูนย์ฯ),อุบลราชธานี,15.25000,104.86667,23.5,09-22-2019,07:00:00,0.0,5.10,92,10.00,0.00,29.00,24.6,25.0,000,997.70,1011.89
48408,UBON RATCHATHANI AGROMET.,อุบลราชธานี สกษ.,อุบลราชธานี,15.23914,105.02350,23.3,09-22-2019,07:00:00,0.0,0.40,93,8.00,0.00,28.63,24.0,24.5,000,997.39,1012.42
48409,SI SAKET AGROMET.,ศรีสะเกษ,ศรีสะเกษ,15.00000,104.05000,24.8,09-22-2019,07:00:00,5.6,28.40,99,7.00,0.00,31.39,24.1,25.0,140,997.26,1012.10
48410,UTHAITHANI,อุทัยธานี,อุทัยธานี,15.37417,100.03889,25.1,09-22-2019,07:00:00,0.0,9.60,99,7.00,0.00,31.96,23.9,25.3,"{'0': '   ', '@attributes': {'Unit': 'degree'}}",1008.24,1011.28
48413,WICHIAN BURI,วิเชียรบุรี,เพชรบูรณ์,15.65700,101.10800,24.0,09-22-2019,07:00:00,0.0,2.20,91,10.00,0.00,29.82,25.0,25.6,000,1003.56,1011.59
48415,AYUTTHAYA,พระนครศรีอยุธยา,พระนครศรีอยุธยา,14.53472,100.72500,24.0,09-22-2019,07:00:00,0.0,6.40,96,8.00,0.00,29.77,23.5,24.7,000,1009.81,1010.93
48416,THA TUM,ท่าตูม,สุรินทร์,15.31667,103.68333,24.8,09-22-2019,07:00:00,0.0,0.00,96,8.00,0.00,31.25,23.2,25.5,000,997.39,1012.22
48417,NAKORNNAYOK,นครนายก,นครนายก,14.36222,101.39278,18.3,09-22-2019,07:00:00,7.4,37.00,99,.10,8.60,21.06,18.0,18.5,050,876.01,1012.11
48418,BUA CHUM,บัวชุม  ,ลพบุรี,15.26667,101.18736,24.3,09-22-2019,07:00:00,0.0,9.60,96,7.00,0.00,30.32,24.1,25.0,000,1005.74,1011.68
48419,PATHUMTHANI,ปทุมธานี สกษ.,ปทุมธานี,14.10000,100.61667,25.3,09-22-2019,07:00:00,0.0,41.80,99,5.00,0.80,32.34,25.0,25.5,000,1010.40,1011.21
48420,Samut Prakarn,สมุทรปราการ สกษ.,สมุทรปราการ,13.51667,100.76167,24.8,09-22-2019,07:00:00,0.0,6.50,93,10.00,0.00,31.38,26.0,26.0,000,1010.26,1010.71
48421,THONG PHAPHUM,ทองผาภูมิ,กาญจนบุรี,14.74222,98.63639,23.3,09-22-2019,07:00:00,0.0,24.90,96,3.00,0.00,28.53,23.4,24.0,000,1000.34,1011.81
48425,SUPHAN BURI,สุพรรณบุรี,สุพรรณบุรี,14.47444,100.13889,24.4,09-22-2019,07:00:00,0.0,37.10,97,6.00,1.30,30.48,24.2,24.8,000,1010.70,1011.73
48426,LOP BURI,ลพบุรี,ลพบุรี,14.79972,100.64500,24.6,09-22-2019,07:00:00,0.0,88.70,97,6.00,0.00,30.96,24.1,25.2,000,1009.68,1011.52
48427,U THONG AGROMET.,อู่ทอง สกษ.,สุพรรณบุรี,14.30361,99.86472,23.6,09-22-2019,07:00:00,0.0,37.50,97,6.00,24.70,29.04,23.7,24.0,000,1009.89,1010.66
48429,SUVARNABHUMI AIRPORT,สนามบินสุวรรณภูมิ,สมุทรปราการ,13.68639,100.76750,24.4,09-22-2019,07:00:00,13.0,31.60,93,9.00,0.00,30.63,23.9,25.6,050,1010.65,1011.36
48430,PRACHIN BURI,ปราจีนบุรี,ปราจีนบุรี,14.05842,101.36930,23.7,09-22-2019,07:00:00,3.7,31.00,94,6.00,18.50,29.25,23.8,24.7,080,1010.15,1010.86
48431,NAKHON RATCHASIMA,นครราชสีมา,นครราชสีมา,14.96830,102.08603,24.5,09-22-2019,07:00:00,0.0,33.40,97,7.00,0.10,30.77,23.9,25.1,000,990.40,1011.78
48432,SURIN,สุรินทร์,สุรินทร์,14.88333,103.50000,22.8,09-22-2019,07:00:00,0.0,21.50,96,6.00,14.10,27.66,22.1,23.5,000,995.01,1012.00
48433,SURIN AGROMET.,สุรินทร์ สกษ.,สุรินทร์,14.88333,103.45000,21.8,09-22-2019,07:00:00,5.6,25.10,92,2.00,19.50,26.17,22.2,23.2,080,995.60,1012.33
48434,CHOK CHAI,โชคชัย,นครราชสีมา,14.71889,102.16861,22.4,09-22-2019,07:00:00,27.8,27.30,91,6.00,0.60,27.00,23.5,24.0,060,989.71,1011.89
48435,PAKCHONG AGROMET.,ปากช่อง สกษ.,นครราชสีมา,14.64389,101.33194,22.6,09-22-2019,07:00:00,5.6,12.50,96,3.00,0.00,27.49,22.5,23.4,090,967.70,1011.65
48436,NANG RONG,นางรอง,บุรีรัมย์,14.58333,102.80000,22.6,09-22-2019,07:00:00,14.8,56.60,100,6.00,10.00,27.40,22.3,22.6,070,990.32,1011.27
48437,BURIRUM,บุรีรัมย์,บุรีรัมย์,15.22575,103.24808,24.6,09-22-2019,07:00:00,5.6,19.60,100,7.00,0.00,30.91,23.8,24.6,090,992.46,1013.58
48438,SAMUTSONGKRAM,สมุทรสงคราม,สมุทรสงคราม,13.40778,100.03222,25.1,09-22-2019,07:00:00,5.6,10.50,97,9.00,0.00,31.79,24.9,25.5,310,1006.66,1007.10
48439,KABIN BURI,กบินทร์บุรี,ปราจีนบุรี,13.98333,101.70722,23.6,09-22-2019,07:00:00,0.0,106.90,97,6.00,3.10,29.04,23.6,24.0,000,1009.09,1010.52
48440,SA KAEW,สระแก้ว,สระแก้ว,13.78889,102.03472,23.6,09-22-2019,07:00:00,0.0,18.30,99,7.00,3.50,29.20,23.7,23.8,000,1005.99,1011.00
48450,KANCHANA BURI,กาญจนบุรี,กาญจนบุรี,14.02250,99.53583,24.4,09-22-2019,07:00:00,0.0,33.30,96,2.00,0.60,30.50,22.8,25.1,000,1007.95,1011.27
48451,NAKHONPATHOM,นครปฐม,นครปฐม,14.01167,99.97000,24.8,09-22-2019,07:00:00,0.0,15.60,98,8.00,0.00,31.31,24.4,25.1,000,1010.05,1011.17
48453,BANG NA AGROMET.,กรุงเทพฯ บางนา สกษ.,กรุงเทพมหานคร,13.66639,100.60611,24.8,09-22-2019,07:00:00,0.0,38.90,93,7.00,0.01,31.38,25.5,26.0,000,1010.70,1011.01
48454,BANGKOK PORT (KLONG TOEI),กรุงเทพฯ ท่าเรือคลองเตย,กรุงเทพมหานคร,13.70694,100.56805,25.1,09-22-2019,07:00:00,0.0,23.70,97,7.00,1.40,31.79,24.8,25.5,000,1009.91,1010.60
48455,BANGKOK METROPOLIS,กรุงเทพมหานคร,กรุงเทพมหานคร,13.72639,100.56000,25.1,09-22-2019,07:00:00,0.0,19.60,97,10.00,0.00,31.79,25.0,25.5,000,1010.40,1010.89
48456,DON MUANG AIRPORT,สนามบินดอนเมือง,กรุงเทพมหานคร,13.91917,100.60500,25.5,09-22-2019,07:00:00,0.0,4.20,98,4.00,0.00,32.65,25.0,25.8,000,1009.63,1011.05
48457,PILOT STATION,นำร่อง,สมุทรปราการ,13.39389,100.59944,25.7,09-22-2019,07:00:00,9.3,7.50,95,5.00,4.80,33.10,25.5,26.6,340,1009.22,1010.91
48458,CHACHOENGSAO,ฉะเชิงเทรา,ฉะเชิงเทรา,13.51556,101.45833,24.2,09-22-2019,07:00:00,0.0,8.90,99,.80,5.50,30.28,24.3,24.4,000,1004.16,1012.28
48459,CHON BURI,ชลบุรี,ชลบุรี,13.36667,100.98333,25.5,09-22-2019,07:00:00,0.0,42.20,99,8.00,0.00,32.73,24.5,25.7,000,1010.44,1010.73
48460,KO SICHANG,เกาะสีชัง,ชลบุรี,13.16167,100.80194,24.6,09-22-2019,07:00:00,0.0,44.50,92,8.00,2.50,30.84,23.5,26.0,000,1007.43,1010.58
48461,PHATTHAYA,พัทยา,ชลบุรี,12.92000,100.86944,24.0,09-22-2019,07:00:00,0.0,5.40,92,10.00,0.00,29.91,24.0,25.5,000,1004.17,1011.18
48462,ARANYA PRATHET,อรัญประเทศ,สระแก้ว,13.70000,102.58333,24.0,09-22-2019,07:00:00,3.7,70.50,97,7.00,16.40,29.75,23.9,24.4,200,1005.58,1011.26
48463,LAEM CHABANG,แหลมฉบัง,ชลบุรี,13.07694,100.87583,25.3,09-22-2019,07:00:00,0.0,31.00,96,8.00,15.80,32.20,25.4,26.0,000,1002.96,1012.35
48464,RATCHA BURI,ราชบุรี,ราชบุรี,13.48931,99.79239,24.6,09-22-2019,07:00:00,0.0,3.20,96,8.00,0.20,30.87,25.1,25.3,000,1010.47,1011.75
48465,PHETCHA BURI,เพชรบุรี,เพชรบุรี,12.99944,100.06056,24.8,09-22-2019,07:00:00,0.0,15.70,97,11.00,1.70,31.22,24.8,25.2,000,1010.42,1010.86
48474,NONG PHLUB AGROMET.,หนองพลับ สกษ.,ประจวบคีรีขันธ์,12.58333,99.73333,23.9,09-22-2019,07:00:00,0.0,44.20,99,8.00,0.10,29.74,23.6,24.1,000,998.97,1011.39
48475,HUA HIN,หัวหิน,ประจวบคีรีขันธ์,12.58611,99.96250,24.9,09-22-2019,07:00:00,0.0,37.00,99,10.00,0.50,31.58,24.7,25.1,000,1010.28,1011.00
48477,SATTAHIP,สัตหีบ,ชลบุรี,12.68333,100.98333,23.9,09-22-2019,07:00:00,0.0,4.50,90,10.00,0.00,29.74,25.2,25.7,000,1008.57,1011.02
48478,RAYONG,ระยอง,ระยอง,12.63222,101.34361,24.8,09-22-2019,07:00:00,0.0,1.00,96,10.00,0.00,31.25,25.2,25.5,000,1010.47,1010.99
48479,HUAI PONG AGROMET.,ห้วยโป่ง สกษ.,ระยอง,12.73333,101.13333,24.6,09-22-2019,07:00:00,1.9,3.10,96,10.00,0.00,30.87,24.9,25.3,190,1005.59,1010.79
48480,CHANTHA BURI,จันทบุรี,จันทบุรี,12.61667,102.11333,24.8,09-22-2019,07:00:00,0.0,44.90,97,8.00,0.00,31.22,24.8,25.2,000,1010.71,1011.13
48481,PHLIU  AGROMET.,พลิ้ว สกษ.,จันทบุรี,12.50861,102.17305,23.9,09-22-2019,07:00:00,0.0,34.20,97,8.00,7.50,29.57,24.0,24.3,000,1008.76,1011.57
48500,PRACHUAP KHIRIKHAN,ประจวบคีรีขันธ์,ประจวบคีรีขันธ์,11.83333,99.83333,24.6,09-22-2019,07:00:00,0.0,7.90,97,8.00,2.20,30.96,23.7,25.2,000,1010.24,1011.04
48501,TRAD,ตราด,ตราด,11.76667,102.88333,24.0,09-22-2019,07:00:00,5.6,12.20,97,6.00,8.20,29.75,23.9,24.4,050,1010.74,1011.21
48517,CHUMPHON,ชุมพร,ชุมพร,10.49875,99.18847,24.2,09-22-2019,07:00:00,0.0,1.20,95,8.00,0.00,30.23,24.9,25.1,000,1009.73,1010.42
48520,SAWI AGROMET.,สวี สกษ.,ชุมพร,10.33333,99.10000,23.6,09-22-2019,07:00:00,0.0,5.60,97,8.00,0.00,29.13,24.2,24.2,000,1009.11,1010.65
48532,RANONG,ระนอง,ระนอง,9.98333,98.61667,22.7,09-22-2019,07:00:00,1.9,2.20,90,10.00,0.00,27.60,24.0,24.5,060,1009.40,1010.33
48550,KO SAMUI,เกาะสมุย,สุราษฎร์ธานี,9.46667,100.05000,25.3,09-22-2019,07:00:00,0.0,1.70,97,10.00,0.00,32.18,23.8,25.7,000,1009.89,1010.59
48551,SURAT THANI,สุราษฎร์ธานี,สุราษฎร์ธานี,9.13556,99.15194,23.3,09-22-2019,07:00:00,0.0,0.00,96,7.00,0.00,28.53,23.8,24.0,000,1010.07,1010.88
48552,NAKHONSI THAMMARAT,นครศรีธรรมราช,นครศรีธรรมราช,8.53778,99.96389,23.8,09-22-2019,07:00:00,0.0,0.20,96,7.00,0.00,29.41,24.2,24.5,000,1009.87,1010.52
48554,NAKHONSI THAMMARAT AGROMET.,นครศรีธรรมราช สกษ.,นครศรีธรรมราช,8.35931,100.00000,24.4,09-22-2019,07:00:00,0.0,0.10,97,8.00,0.00,30.58,24.7,25.0,000,1009.40,1009.81
48555,SURAT THANI AGROMET.,สุราษฎร์ธานี สกษ.,สุราษฎร์ธานี,9.10000,99.63333,23.6,09-22-2019,07:00:00,0.0,15.40,98,5.00,0.00,29.12,23.0,23.9,000,1008.48,1012.76
48556,PHRA SANG,พระแสง สอท.,สุราษฎร์ธานี,8.57022,99.25825,23.6,09-22-2019,07:00:00,0.0,0.00,97,6.00,0.00,29.13,23.0,24.2,000,1007.52,1009.14
48557,CHAWANG,ฉวาง,นครศรีธรรมราช,8.43194,99.51194,23.7,09-22-2019,07:00:00,0.0,0.70,97,5.00,0.00,29.31,24.0,24.3,000,1006.98,1010.49
48560,PHATTHALUNG AGROMET.,พัทลุง สกษ.,พัทลุง,7.58333,100.16667,24.4,09-22-2019,07:00:00,0.0,0.60,97,8.00,0.00,30.48,24.5,24.8,000,1009.36,1010.73
48561,TAKUA PA,ตะกั่วป่า,พังงา,8.68417,98.25222,23.7,09-22-2019,07:00:00,0.0,0.00,94,10.00,0.00,29.25,24.3,24.7,000,1009.10,1009.99
48563,KRABI,กระบี่,กระบี่,8.10361,98.97528,23.7,09-22-2019,07:00:00,0.0,0.00,95,10.00,0.00,29.33,23.0,24.6,000,1006.44,1010.04
48564,PHUKET,ภูเก็ต,ภูเก็ต,7.88333,98.40000,24.9,09-22-2019,07:00:00,0.0,0.00,92,10.00,0.00,31.41,26.0,26.3,000,1009.31,1009.75
48565,PHUKET AIRPORT,ภูเก็ต (ศูนย์ฯ),ภูเก็ต,8.14500,98.31444,24.3,09-22-2019,07:00:00,0.0,0.00,97,9.00,0.00,30.40,22.5,24.9,000,1007.75,1008.75
48566,KO LANTA,เกาะลันตา,กระบี่,7.53333,99.05000,24.8,09-22-2019,07:00:00,5.6,0.00,92,8.00,0.00,31.22,25.0,26.2,050,1009.02,1009.84
48567,TRANG AIRPORT,ตรัง,ตรัง,7.51667,99.61667,24.9,09-22-2019,07:00:00,0.0,0.00,98,.80,0.00,31.49,24.8,25.2,000,1008.44,1010.27
48568,SONGKHLA,สงขลา,สงขลา,7.18211,100.60769,24.9,09-22-2019,07:00:00,1.9,1.20,90,5.00,0.00,31.55,26.2,26.8,250,1009.66,1010.41
48569,HAT YAI AIRPORT,หาดใหญ่,สงขลา,6.91667,100.43333,24.8,09-22-2019,07:00:00,5.6,0.00,95,2.50,0.00,31.36,23.3,25.7,060,1006.49,1010.52
48570,SATUN,สตูล,สตูล,6.65000,100.08333,24.7,09-22-2019,07:00:00,0.0,0.00,94,4.00,0.00,31.08,24.0,25.7,000,1009.87,1010.56
48571,KHO HONG AGROMET.,คอหงษ์ สกษ.,สงขลา,7.00000,100.50000,24.5,09-22-2019,07:00:00,0.0,0.00,90,7.00,0.00,30.67,24.7,26.2,000,1009.09,1010.22
48574,SA DAO,สะเดา,สงขลา,6.79806,100.39056,25.0,09-22-2019,07:00:00,0.0,3.00,98,.50,3.00,31.68,23.6,25.3,000,1007.58,1010.53
48580,PATTANI AIRPORT,ปัตตานี,ปัตตานี,6.78333,101.15000,24.3,09-22-2019,07:00:00,0.0,0.00,97,5.00,0.00,30.40,24.1,24.9,000,1009.07,1009.76
48581,YALA AGROMET.,ยะลา สกษ.,ยะลา,6.51667,101.28333,23.2,09-22-2019,07:00:00,5.6,0.01,97,4.00,0.00,28.43,23.2,23.8,230,1006.55,1010.73
48583,NARATHIWAT,นราธิวาส,นราธิวาส,6.41667,101.81667,22.4,09-22-2019,07:00:00,5.6,80.00,93,8.00,0.00,27.08,.0,23.6,200,1009.24,1009.83
