WmoStationNumber,StationNameEnglish,StationNameThai,Province,Latitude,Longitude,Rainfall24Hr,Date,Time,WindSpeed,MeanSeaLevelPressure,StationPressure,Rainfall,WindDirection,DewPoint,RelativeHumidity,VaporPressure,LandVisibility,AirTemperature
48300,MAE HONG SON,แม่ฮ่องสอน,แม่ฮ่องสอน,19.29897,97.97578,0.00,09-26-2019,22:00:00,0.0,1015.67,984.45,0.00,000,23.9,90,29.74,10.00,25.7
48302,DOI ANG KANG,ดอยอ่างขาง,เชียงใหม่,19.93139,99.04833,0.00,09-26-2019,22:00:00,14.8,1015.79,852.32,0.00,130,14.2,83,16.21,8.00,17.2
48303,CHIANG RAI,เชียงราย,เชียงราย,19.96139,99.88139,0.00,09-26-2019,22:00:00,0.0,1016.06,972.08,0.00,000,19.8,69,23.06,10.00,25.8
48304,CHAING RAI AGROMET.,เชียงราย สกษ.,เชียงราย,19.87083,99.78278,0.00,09-26-2019,22:00:00,0.0,1016.30,970.26,0.00,000,19.9,73,23.24,10.00,25.0
48307,THUNG CHANG,ทุ่งช้าง,น่าน,19.41194,100.88353,0.00,09-26-2019,22:00:00,0.0,1016.12,977.95,0.00,000,23.0,93,28.10,6.00,24.2
48310,PHAYAO,พะเยา,พะเยา,19.13333,99.90000,0.00,09-26-2019,22:00:00,0.0,1015.55,970.15,0.00,000,23.5,86,28.97,12.00,26.0
48315,THA WANGPHA,ท่าวังผา,น่าน,19.11056,100.80250,0.00,09-26-2019,22:00:00,0.0,1015.76,988.77,0.00,000,23.2,85,28.34,8.00,25.8
48324,THOEN,เถิน,ลำปาง,17.63661,99.24475,0.00,09-26-2019,22:00:00,1.9,1015.57,993.55,0.00,090,23.1,88,28.31,7.00,25.2
48325,MAE SARIANG,แม่สะเรียง,แม่ฮ่องสอน,18.16667,97.93333,8.80,09-26-2019,22:00:00,0.0,1016.00,991.52,0.30,000,23.6,96,29.05,6.00,24.3
48327,CHIANG MAI,เชียงใหม่,เชียงใหม่,18.79000,98.97694,0.00,09-26-2019,22:00:00,0.0,1015.14,980.50,0.00,000,21.9,73,26.33,10.00,27.3
48328,LAMPANG,ลำปาง,ลำปาง,18.28333,99.51667,0.00,09-26-2019,22:00:00,0.0,1015.65,987.84,0.00,000,22.7,83,27.56,10.00,25.8
48329,LAMPHUN,ลำพูน,ลำพูน,18.56722,99.03389,0.00,09-26-2019,22:00:00,0.0,1015.05,981.32,0.00,000,24.1,84,30.02,10.00,27.0
48330,PHRAE,แพร่,แพร่,18.16667,100.16667,0.00,09-26-2019,22:00:00,1.9,1015.08,996.40,0.00,170,23.8,88,29.50,5.00,26.0
48331,NAN,น่าน,น่าน,18.77972,100.77778,0.00,09-26-2019,22:00:00,0.0,1015.35,992.31,0.00,000,22.8,83,27.74,10.00,25.9
48333,NAN AGROMET.,น่าน สกษ.,น่าน,18.86667,100.75000,0.00,09-26-2019,22:00:00,0.0,1015.77,985.32,0.00,000,21.3,89,25.35,8.00,23.3
48334,LAMPANG AGROMET.,ลำปาง สกษ.,ลำปาง,18.31667,99.28333,0.00,09-26-2019,22:00:00,0.0,1014.94,979.08,0.00,000,24.5,94,30.71,8.00,25.5
48350,LOEI AGROMET.,เลย สกษ.,เลย,17.40000,101.73333,0.00,09-26-2019,22:00:00,0.0,1015.19,984.95,0.00,000,22.0,92,26.50,2.00,23.4
48351,UTTARADIT,อุตรดิตถ์,อุตรดิตถ์,17.61667,100.10000,0.00,09-26-2019,22:00:00,0.0,1014.35,1007.02,0.00,000,23.6,77,29.19,9.00,28.0
48352,NONG KHAI,หนองคาย,หนองคาย,17.86717,102.73303,0.00,09-26-2019,22:00:00,0.0,1014.83,994.91,0.00,000,24.0,76,29.90,5.00,28.8
48353,LOEI,เลย,เลย,17.45000,101.73333,0.00,09-26-2019,22:00:00,0.0,1015.45,986.43,0.00,000,22.2,84,26.78,5.00,25.2
48354,UDON THANI,อุดรธานี,อุดรธานี,17.38333,102.80000,0.00,09-26-2019,22:00:00,1.9,1014.95,994.69,0.00,270,22.9,75,27.83,5.00,27.7
48355,SAKON NAKHON AGROMET.,สกลนคร สกษ.,สกลนคร,17.12503,104.06100,0.00,09-26-2019,22:00:00,0.0,1016.57,994.53,0.00,000,21.8,81,26.11,7.00,25.4
48356,SAKON NAKHON,สกลนคร,สกลนคร,17.15000,104.13333,0.00,09-26-2019,22:00:00,5.6,1015.27,995.61,0.00,120,20.9,71,24.70,10.00,26.5
48357,NAKHON PHANOM,นครพนม,นครพนม,17.41083,104.78250,0.00,09-26-2019,22:00:00,9.3,1016.00,999.12,0.00,080,18.3,59,21.04,10.00,27.1
48358,NAKHON PHANOM AGROMET.,นครพนม สกษ.,นครพนม,17.44306,104.77361,0.00,09-26-2019,22:00:00,0.0,1016.24,998.67,0.00,000,20.4,68,23.96,10.00,26.8
48360,NONG BUA LAM PHU,หนองบัวลำภู,หนองบัวลำภู,17.23250,102.42944,0.00,09-26-2019,22:00:00,0.0,1013.62,987.57,0.00,000,20.9,75,24.69,8.00,25.6
48372,SUKHOTHAI*,สุโขทัย,สุโขทัย,17.10611,99.80000,0.00,09-26-2019,22:00:00,0.0,1014.11,1008.31,0.00,000,26.9,91,35.36,7.00,28.4
48373,SI SAMRONG AGROMET.,ศรีสำโรง สกษ.,สุโขทัย,17.16136,99.86167,0.00,09-26-2019,22:00:00,0.0,1014.06,1007.86,0.00,000,24.9,81,31.54,7.00,28.5
48374,LOM SAK,หล่มสัก,เพชรบูรณ์,16.77361,101.24944,0.00,09-26-2019,22:00:00,0.0,1015.37,998.86,0.00,000,22.1,70,26.54,10.00,28.0
48375,MAE SOT,แม่สอด,ตาก,16.65917,98.55083,0.00,09-26-2019,22:00:00,0.0,1012.14,989.72,0.00,000,22.5,75,27.19,10.00,27.2
48376,TAK,ตาก,ตาก,16.87833,99.14333,0.00,09-26-2019,22:00:00,0.0,1015.58,1001.07,0.00,000,25.0,89,31.66,5.00,27.0
48377,BHUMIBOL DAM,เขื่อนภูมิพล,ตาก,17.24389,99.00250,0.00,09-26-2019,22:00:00,0.0,1015.50,998.87,0.00,000,23.0,90,28.13,7.00,24.8
48378,PHITSANULOK,พิษณุโลก,พิษณุโลก,16.79481,100.27930,0.00,09-26-2019,22:00:00,0.0,1014.60,1009.35,0.00,000,25.1,85,31.95,10.00,28.0
48379,PHETCHABUN,เพชรบูรณ์,เพชรบูรณ์,16.43333,101.15000,0.00,09-26-2019,22:00:00,0.0,1013.25,999.99,0.00,000,24.2,83,30.23,10.00,27.4
48380,KAMPHAENG PHET,กำแพงเพชร,กำแพงเพชร,16.48681,99.52697,0.00,09-26-2019,22:00:00,0.0,1014.64,1005.27,0.00,000,25.3,87,32.20,7.00,27.7
48381,KHON KAEN,ขอนแก่น,ขอนแก่น,16.46111,102.78972,0.00,09-26-2019,22:00:00,3.7,1014.87,993.07,0.00,070,22.5,74,27.31,8.00,27.7
48382,MAHASARAKHAM,มหาสารคาม,มหาสารคาม,16.24722,103.06805,0.00,09-26-2019,22:00:00,0.0,1015.51,997.93,0.00,000,25.1,84,31.87,10.00,28.1
48383,MUKDAHAN,มุกดาหาร,มุกดาหาร,16.54139,104.72889,0.00,09-26-2019,22:00:00,3.7,1015.09,999.10,0.00,040,20.9,71,24.70,10.00,26.5
48384,THA PHRA AGROMET.,ท่าพระ สกษ.,ขอนแก่น,16.33333,102.81667,0.00,09-26-2019,22:00:00,0.0,1014.03,994.98,0.00,000,24.2,88,30.24,8.00,26.4
48385,UMPHANG,อุ้มผาง,ตาก,16.02472,98.86444,0.00,09-26-2019,22:00:00,0.0,1016.14,964.00,0.00,000,20.4,85,23.92,7.00,23.0
48386,PICHIT AGROMET.,พิจิตร สกษ.,พิจิตร,16.43806,100.29250,0.00,09-26-2019,22:00:00,0.0,1013.97,1010.01,0.00,000,26.2,85,33.99,3.00,29.0
48387,DOI MU SOE AGROMET.,ดอยมูเซอร์ สกษ.,ตาก,16.75000,98.93333,0.00,09-26-2019,22:00:00,0.0,1016.78,920.36,0.00,000,19.1,93,22.07,6.00,20.2
48390,KALASIN,กาฬสินธุ์,กาฬสินธุ์,16.33250,103.58833,0.00,09-26-2019,22:00:00,18.5,1014.88,998.77,0.00,080,21.8,73,26.06,10.00,27.0
48400,NAKHON SAWAN,นครสวรรค์ ,นครสวรรค์,15.67183,100.13236,0.00,09-26-2019,22:00:00,0.0,1014.10,1010.05,0.00,000,25.1,85,31.95,6.00,28.0
48401,TAKFA AGROMET.,ตากฟ้า สกษ.,นครสวรรค์,15.34944,100.53028,0.00,09-26-2019,22:00:00,0.0,1015.58,1004.83,0.00,000,23.6,81,29.04,8.00,27.2
48402,CHAINAT AGROMET.,ชัยนาท สกษ.,ชัยนาท,15.15000,100.18333,0.00,09-26-2019,22:00:00,0.0,1014.21,1012.28,0.00,000,23.9,79,29.74,6.00,28.0
48403,CHAIYAPHUM,ชัยภูมิ,ชัยภูมิ,15.80000,102.03333,0.00,09-26-2019,22:00:00,5.6,1014.84,993.83,0.00,350,22.8,78,27.80,10.00,27.1
48404,ROI ET AGROMET.,ร้อยเอ็ด สกษ.,ร้อยเอ็ด,16.07322,103.60844,0.00,09-26-2019,22:00:00,7.4,1014.72,996.87,0.00,050,23.7,86,29.33,10.00,26.2
48405,ROI ET,ร้อยเอ็ด,ร้อยเอ็ด,16.02000,103.74389,0.00,09-26-2019,22:00:00,7.4,1014.27,998.05,0.00,030,22.1,70,26.54,10.00,28.0
48407,UBON RATCHATHANI,อุบลราชธานี (ศูนย์ฯ),อุบลราชธานี,15.25000,104.86667,0.00,09-26-2019,22:00:00,0.0,1014.54,1000.40,0.00,000,21.0,70,24.79,10.00,27.0
48408,UBON RATCHATHANI AGROMET.,อุบลราชธานี สกษ.,อุบลราชธานี,15.23914,105.02350,0.00,09-26-2019,22:00:00,7.4,1014.84,999.88,0.00,360,21.1,72,25.04,10.00,26.7
48409,SI SAKET AGROMET.,ศรีสะเกษ,ศรีสะเกษ,15.00000,104.05000,0.00,09-26-2019,22:00:00,11.1,1014.87,1000.11,0.00,080,21.3,69,25.32,8.00,27.6
48410,UTHAITHANI,อุทัยธานี,อุทัยธานี,15.37417,100.03889,0.00,09-26-2019,22:00:00,0.0,1013.68,1010.66,0.00,"{'0': '   ', '@attributes': {'Unit': 'degree'}}",26.1,87,33.82,8.00,28.5
48413,WICHIAN BURI,วิเชียรบุรี,เพชรบูรณ์,15.65700,101.10800,0.00,09-26-2019,22:00:00,0.0,1014.33,1006.34,0.00,000,24.1,81,29.98,8.00,27.7
48415,AYUTTHAYA,พระนครศรีอยุธยา,พระนครศรีอยุธยา,14.53472,100.72500,0.00,09-26-2019,22:00:00,7.4,1013.77,1012.67,0.00,070,25.2,79,32.10,6.00,29.2
48416,THA TUM,ท่าตูม,สุรินทร์,15.31667,103.68333,0.00,09-26-2019,22:00:00,7.4,1015.05,1000.23,0.00,090,22.0,77,26.47,8.00,26.5
48417,NAKORNNAYOK,นครนายก,นครนายก,14.36222,101.39278,0.00,09-26-2019,22:00:00,1.9,1017.13,880.23,0.00,060,17.5,96,20.03,8.00,18.2
48418,BUA CHUM,บัวชุม  ,ลพบุรี,15.26667,101.18736,0.00,09-26-2019,22:00:00,0.0,1014.34,1008.40,0.00,000,23.8,86,29.43,10.00,26.4
48419,PATHUMTHANI,ปทุมธานี สกษ.,ปทุมธานี,14.10000,100.61667,0.00,09-26-2019,22:00:00,0.0,1013.51,1012.71,0.00,000,25.1,76,31.89,9.00,29.8
48420,Samut Prakarn,สมุทรปราการ สกษ.,สมุทรปราการ,13.51667,100.76167,0.00,09-26-2019,22:00:00,9.3,1013.21,1012.77,0.00,120,23.8,72,29.49,10.00,29.3
48421,THONG PHAPHUM,ทองผาภูมิ,กาญจนบุรี,14.74222,98.63639,0.00,09-26-2019,22:00:00,0.0,1014.72,1003.29,0.00,000,23.5,87,28.87,4.00,25.8
48425,SUPHAN BURI,สุพรรณบุรี,สุพรรณบุรี,14.47444,100.13889,0.00,09-26-2019,22:00:00,0.0,1013.93,1012.92,0.00,000,24.4,76,30.57,8.00,29.0
48426,LOP BURI,ลพบุรี,ลพบุรี,14.79972,100.64500,0.00,09-26-2019,22:00:00,0.0,1014.06,1012.24,0.00,000,23.2,71,28.37,8.00,29.0
48427,U THONG AGROMET.,อู่ทอง สกษ.,สุพรรณบุรี,14.30361,99.86472,0.00,09-26-2019,22:00:00,0.0,1013.68,1012.91,0.00,000,23.7,78,29.28,6.00,27.9
48429,SUVARNABHUMI AIRPORT,สนามบินสุวรรณภูมิ,สมุทรปราการ,13.68639,100.76750,0.00,09-26-2019,22:00:00,9.3,1013.27,1012.56,0.00,090,24.9,73,31.48,9.00,30.3
48430,PRACHIN BURI,ปราจีนบุรี,ปราจีนบุรี,14.05842,101.36930,0.00,09-26-2019,22:00:00,0.0,1013.22,1012.52,0.00,000,24.1,72,29.99,7.00,29.7
48431,NAKHON RATCHASIMA,นครราชสีมา,นครราชสีมา,14.96830,102.08603,0.00,09-26-2019,22:00:00,3.7,1014.82,993.57,0.00,050,23.8,79,29.55,8.00,27.9
48432,SURIN,สุรินทร์,สุรินทร์,14.88333,103.50000,0.00,09-26-2019,22:00:00,0.0,1014.38,997.60,0.00,000,25.0,85,31.75,7.00,27.9
48433,SURIN AGROMET.,สุรินทร์ สกษ.,สุรินทร์,14.88333,103.45000,0.00,09-26-2019,22:00:00,0.0,1014.86,998.26,0.00,000,24.8,92,31.22,7.00,26.2
48434,CHOK CHAI,โชคชัย,นครราชสีมา,14.71889,102.16861,0.00,09-26-2019,22:00:00,0.0,1014.75,992.74,0.00,000,23.9,82,29.58,10.00,27.2
48435,PAKCHONG AGROMET.,ปากช่อง สกษ.,นครราชสีมา,14.64389,101.33194,0.00,09-26-2019,22:00:00,7.4,1014.68,970.97,0.00,130,21.6,77,25.87,8.00,26.0
48436,NANG RONG,นางรอง,บุรีรัมย์,14.58333,102.80000,0.00,09-26-2019,22:00:00,3.7,1014.87,994.11,0.00,040,24.4,89,30.59,10.00,26.3
48437,BURIRUM,บุรีรัมย์,บุรีรัมย์,15.22575,103.24808,0.00,09-26-2019,22:00:00,0.0,1016.17,995.03,0.00,000,25.1,100,31.85,7.00,25.1
48438,SAMUTSONGKRAM,สมุทรสงคราม,สมุทรสงคราม,13.40778,100.03222,13.00,09-26-2019,22:00:00,3.7,1013.57,1013.13,0.00,350,25.5,86,32.72,10.00,28.1
48439,KABIN BURI,กบินทร์บุรี,ปราจีนบุรี,13.98333,101.70722,0.00,09-26-2019,22:00:00,0.0,1013.29,1011.87,0.00,000,24.9,80,31.46,6.00,28.6
48440,SA KAEW,สระแก้ว,สระแก้ว,13.78889,102.03472,0.00,09-26-2019,22:00:00,0.0,1014.30,1009.34,0.00,000,25.9,91,33.50,7.00,27.5
48450,KANCHANA BURI,กาญจนบุรี,กาญจนบุรี,14.02250,99.53583,0.00,09-26-2019,22:00:00,0.0,1014.00,1010.71,0.00,000,24.3,77,30.46,8.00,28.8
48451,NAKHONPATHOM,นครปฐม,นครปฐม,14.01167,99.97000,0.00,09-26-2019,22:00:00,0.0,1013.90,1012.79,0.00,000,25.9,88,33.37,10.00,28.0
48453,BANG NA AGROMET.,กรุงเทพฯ บางนา สกษ.,กรุงเทพมหานคร,13.66639,100.60611,0.00,09-26-2019,22:00:00,0.0,1013.50,1013.20,0.00,000,25.1,76,31.89,10.00,29.8
48455,BANGKOK METROPOLIS,กรุงเทพมหานคร,กรุงเทพมหานคร,13.72639,100.56000,0.00,09-26-2019,22:00:00,0.0,1013.45,1012.96,0.00,000,25.2,79,32.01,10.00,29.3
48456,DON MUANG AIRPORT,สนามบินดอนเมือง,กรุงเทพมหานคร,13.91917,100.60500,0.00,09-26-2019,22:00:00,24.1,1013.59,1012.19,0.00,350,24.9,72,31.51,10.00,30.6
48458,CHACHOENGSAO,ฉะเชิงเทรา,ฉะเชิงเทรา,13.51556,101.45833,0.00,09-26-2019,22:00:00,0.0,1015.31,1007.23,0.00,000,25.1,92,31.79,10.00,26.5
48459,CHON BURI,ชลบุรี,ชลบุรี,13.36667,100.98333,0.00,09-26-2019,22:00:00,0.0,1012.99,1012.71,0.00,000,24.9,73,31.48,10.00,30.3
48460,KO SICHANG,เกาะสีชัง,ชลบุรี,13.16167,100.80194,0.00,09-26-2019,22:00:00,0.0,1013.37,1010.22,0.00,000,25.4,88,32.36,10.00,27.5
48461,PHATTHAYA,พัทยา,ชลบุรี,12.92000,100.86944,11.20,09-26-2019,22:00:00,0.0,1013.07,1006.09,0.00,000,25.6,93,32.86,10.00,26.9
48462,ARANYA PRATHET,อรัญประเทศ,สระแก้ว,13.70000,102.58333,0.20,09-26-2019,22:00:00,3.7,1014.37,1008.75,0.20,110,25.4,88,32.36,9.00,27.5
48464,RATCHA BURI,ราชบุรี,ราชบุรี,13.48931,99.79239,0.00,09-26-2019,22:00:00,7.4,1014.18,1012.92,0.00,300,25.2,80,31.98,8.00,29.0
48474,NONG PHLUB AGROMET.,หนองพลับ สกษ.,ประจวบคีรีขันธ์,12.58333,99.73333,0.00,09-26-2019,22:00:00,3.7,1014.38,1001.95,0.00,270,22.5,86,27.19,8.00,25.0
48475,HUA HIN,หัวหิน,ประจวบคีรีขันธ์,12.58611,99.96250,0.00,09-26-2019,22:00:00,0.0,1013.78,1013.06,0.00,000,22.7,69,27.65,8.00,28.9
48477,SATTAHIP,สัตหีบ,ชลบุรี,12.68333,100.98333,0.01,09-26-2019,22:00:00,0.0,1013.40,1010.96,0.00,000,25.1,85,31.95,4.00,28.0
48478,RAYONG,ระยอง,ระยอง,12.63222,101.34361,0.00,09-26-2019,22:00:00,0.0,1013.52,1013.00,0.00,000,24.3,85,30.29,10.00,27.0
48479,HUAI PONG AGROMET.,ห้วยโป่ง สกษ.,ระยอง,12.73333,101.13333,0.00,09-26-2019,22:00:00,5.6,1013.51,1008.34,0.00,080,25.1,85,31.84,8.00,27.8
48480,CHANTHA BURI,จันทบุรี,จันทบุรี,12.61667,102.11333,0.00,09-26-2019,22:00:00,0.0,1014.12,1013.71,0.00,000,25.6,85,32.84,7.00,28.3
48481,PHLIU  AGROMET.,พลิ้ว สกษ.,จันทบุรี,12.50861,102.17305,8.90,09-26-2019,22:00:00,0.0,1014.12,1011.32,0.00,000,25.4,97,32.48,8.00,26.0
48500,PRACHUAP KHIRIKHAN,ประจวบคีรีขันธ์,ประจวบคีรีขันธ์,11.83333,99.83333,0.00,09-26-2019,22:00:00,3.7,1013.40,1012.61,0.00,330,22.7,78,27.52,6.00,26.8
48501,TRAD,ตราด,ตราด,11.76667,102.88333,0.01,09-26-2019,22:00:00,5.6,1013.87,1013.41,0.00,100,25.4,93,32.35,6.00,26.5
48517,CHUMPHON,ชุมพร,ชุมพร,10.49875,99.18847,0.00,09-26-2019,22:00:00,0.0,1013.99,1013.30,0.00,000,25.5,91,32.69,7.00,27.1
48520,SAWI AGROMET.,สวี สกษ.,ชุมพร,10.33333,99.10000,0.40,09-26-2019,22:00:00,0.0,1012.95,1011.41,0.00,000,24.6,92,30.84,7.00,26.0
48532,RANONG,ระนอง,ระนอง,9.98333,98.61667,0.00,09-26-2019,22:00:00,0.0,1013.85,1012.92,0.00,000,23.3,88,28.67,10.00,25.4
48550,KO SAMUI,เกาะสมุย,สุราษฎร์ธานี,9.46667,100.05000,8.50,09-26-2019,22:00:00,0.0,1014.19,1013.50,0.00,000,25.4,93,32.35,9.00,26.5
48551,SURAT THANI,สุราษฎร์ธานี,สุราษฎร์ธานี,9.13556,99.15194,1.30,09-26-2019,22:00:00,0.0,1013.89,1013.09,0.00,000,24.7,94,31.08,8.00,25.7
48552,NAKHONSI THAMMARAT,นครศรีธรรมราช,นครศรีธรรมราช,8.53778,99.96389,23.70,09-26-2019,22:00:00,0.0,1013.73,1013.09,0.50,000,25.5,95,32.71,10.00,26.4
48554,NAKHONSI THAMMARAT AGROMET.,นครศรีธรรมราช สกษ.,นครศรีธรรมราช,8.35931,100.00000,13.00,09-26-2019,22:00:00,0.0,1012.47,1012.06,0.00,000,25.5,95,32.71,10.00,26.4
48555,SURAT THANI AGROMET.,สุราษฎร์ธานี สกษ.,สุราษฎร์ธานี,9.10000,99.63333,16.10,09-26-2019,22:00:00,0.0,1015.55,1011.28,0.00,000,24.5,96,30.69,6.00,25.2
48556,PHRA SANG,พระแสง สอท.,สุราษฎร์ธานี,8.57022,99.25825,0.00,09-26-2019,22:00:00,0.0,1012.74,1011.11,0.00,000,24.0,89,29.76,10.00,26.0
48557,CHAWANG,ฉวาง,นครศรีธรรมราช,8.43194,99.51194,0.00,09-26-2019,22:00:00,0.0,1013.35,1009.83,0.00,000,24.5,94,30.71,7.00,25.5
48560,PHATTHALUNG AGROMET.,พัทลุง สกษ.,พัทลุง,7.58333,100.16667,0.01,09-26-2019,22:00:00,0.0,1013.41,1012.04,0.00,000,25.0,93,31.76,7.00,26.2
48561,TAKUA PA,ตะกั่วป่า,พังงา,8.68417,98.25222,0.00,09-26-2019,22:00:00,0.0,1012.79,1011.90,0.00,000,25.3,92,32.18,10.00,26.7
48563,KRABI,กระบี่,กระบี่,8.10361,98.97528,0.00,09-26-2019,22:00:00,0.0,1013.53,1009.93,0.00,000,23.5,88,28.95,10.00,25.7
48564,PHUKET,ภูเก็ต,ภูเก็ต,7.88333,98.40000,3.20,09-26-2019,22:00:00,0.0,1012.66,1012.23,0.00,000,25.1,85,31.95,10.00,28.0
48565,PHUKET AIRPORT,ภูเก็ต (ศูนย์ฯ),ภูเก็ต,8.14500,98.31444,0.00,09-26-2019,22:00:00,0.0,1012.59,1011.59,0.00,000,24.4,91,30.57,8.00,26.0
48566,KO LANTA,เกาะลันตา,กระบี่,7.53333,99.05000,0.00,09-26-2019,22:00:00,5.6,1013.24,1012.42,0.00,100,22.7,82,27.66,10.00,26.0
48567,TRANG AIRPORT,ตรัง,ตรัง,7.51667,99.61667,2.40,09-26-2019,22:00:00,0.0,1013.22,1011.39,0.00,000,24.3,87,30.34,10.00,26.6
48568,SONGKHLA,สงขลา,สงขลา,7.18211,100.60769,15.50,09-26-2019,22:00:00,1.9,1013.43,1012.67,0.00,200,24.1,85,30.10,10.00,26.9
48569,HAT YAI AIRPORT,หาดใหญ่,สงขลา,6.91667,100.43333,0.60,09-26-2019,22:00:00,3.7,1013.90,1009.85,0.00,990,24.3,93,30.36,10.00,25.6
48570,SATUN,สตูล,สตูล,6.65000,100.08333,10.90,09-26-2019,22:00:00,0.0,1012.68,1011.99,0.00,000,24.6,92,30.84,10.00,26.0
48571,KHO HONG AGROMET.,คอหงษ์ สกษ.,สงขลา,7.00000,100.50000,7.00,09-26-2019,22:00:00,0.0,1013.39,1012.27,0.00,000,24.2,87,30.16,10.00,26.5
48574,SA DAO,สะเดา,สงขลา,6.79806,100.39056,11.80,09-26-2019,22:00:00,0.0,1013.77,1010.82,0.00,000,25.0,97,31.60,10.00,25.4
48580,PATTANI AIRPORT,ปัตตานี,ปัตตานี,6.78333,101.15000,0.80,09-26-2019,22:00:00,0.0,1013.62,1012.93,0.00,000,25.3,96,32.20,9.00,26.0
48581,YALA AGROMET.,ยะลา สกษ.,ยะลา,6.51667,101.28333,5.30,09-26-2019,22:00:00,0.0,1014.18,1010.02,0.00,000,24.5,90,30.67,7.00,26.2
48583,NARATHIWAT,นราธิวาส,นราธิวาส,6.41667,101.81667,14.80,09-26-2019,22:00:00,0.0,1013.09,1012.50,0.00,000,24.2,89,30.22,10.00,26.1
