WmoStationNumber,StationNameEnglish,StationNameThai,Province,Latitude,Longitude,StationPressure,Date,Time,Rainfall24Hr,AirTemperature,VaporPressure,MeanSeaLevelPressure,WindDirection,RelativeHumidity,LandVisibility,DewPoint,Rainfall,MinimumTemperature,WindSpeed
48300,MAE HONG SON,แม่ฮ่องสอน,แม่ฮ่องสอน,19.29897,97.97578,976.82,09-25-2019,07:00:00,0.00,24.0,27.51,1007.97,000,92,8.00,22.7,0.00,22.5,0.0
48302,DOI ANG KANG,ดอยอ่างขาง,เชียงใหม่,19.93139,99.04833,852.20,09-25-2019,07:00:00,0.00,17.9,14.67,1015.22,180,72,8.00,12.7,0.00,17.5,14.8
48303,CHIANG RAI,เชียงราย,เชียงราย,19.96139,99.88139,973.08,09-25-2019,07:00:00,0.00,20.7,22.79,1017.89,000,93,10.00,19.6,0.00,20.5,0.0
48304,CHAING RAI AGROMET.,เชียงราย สกษ.,เชียงราย,19.87083,99.78278,970.82,09-25-2019,07:00:00,0.00,20.0,22.24,1017.69,000,95,12.00,19.2,0.00,18.0,0.0
48307,THUNG CHANG,ทุ่งช้าง,น่าน,19.41194,100.88353,979.24,09-25-2019,07:00:00,0.00,21.0,23.69,1017.87,000,95,9.00,20.2,0.00,20.6,0.0
48310,PHAYAO,พะเยา,พะเยา,19.13333,99.90000,971.73,09-25-2019,07:00:00,0.00,23.0,26.33,1017.67,000,94,8.00,21.9,0.00,22.0,0.0
48315,THA WANGPHA,ท่าวังผา,น่าน,19.11056,100.80250,990.48,09-25-2019,07:00:00,0.00,22.0,25.21,1017.86,000,95,5.00,21.2,0.00,21.6,0.0
48324,THOEN,เถิน,ลำปาง,17.63661,99.24475,993.66,09-25-2019,07:00:00,0.00,23.8,27.42,1015.79,000,93,5.00,22.6,0.00,23.5,0.0
48325,MAE SARIANG,แม่สะเรียง,แม่ฮ่องสอน,18.16667,97.93333,991.61,09-25-2019,07:00:00,0.00,23.5,27.66,1016.15,000,96,6.00,22.8,0.00,21.6,0.0
48327,CHIANG MAI,เชียงใหม่,เชียงใหม่,18.79000,98.97694,981.71,09-25-2019,07:00:00,0.50,25.0,26.69,1016.67,000,84,8.00,22.2,0.01,24.9,0.0
48328,LAMPANG,ลำปาง,ลำปาง,18.28333,99.51667,989.57,09-25-2019,07:00:00,0.50,24.1,27.93,1017.59,000,93,10.00,22.9,0.00,23.2,0.0
48329,LAMPHUN,ลำพูน,ลำพูน,18.56722,99.03389,982.38,09-25-2019,07:00:00,0.00,24.1,28.44,1016.48,000,95,8.00,23.2,0.00,24.1,0.0
48330,PHRAE,แพร่,แพร่,18.16667,100.16667,997.39,09-25-2019,07:00:00,0.00,23.7,25.76,1016.24,000,88,4.00,21.6,0.00,23.5,0.0
48331,NAN,น่าน,น่าน,18.77972,100.77778,993.85,09-25-2019,07:00:00,0.00,23.5,25.68,1017.12,000,89,10.00,21.5,0.00,23.0,0.0
48333,NAN AGROMET.,น่าน สกษ.,น่าน,18.86667,100.75000,986.55,09-25-2019,07:00:00,0.00,22.4,24.89,1017.12,000,92,10.00,21.0,0.00,22.0,0.0
48334,LAMPANG AGROMET.,ลำปาง สกษ.,ลำปาง,18.31667,99.28333,980.41,09-25-2019,07:00:00,1.80,23.0,27.32,1016.62,000,97,6.00,22.5,0.00,23.0,0.0
48350,LOEI AGROMET.,เลย สกษ.,เลย,17.40000,101.73333,986.40,09-25-2019,07:00:00,0.00,21.5,24.44,1016.89,000,95,2.00,20.7,0.00,20.8,0.0
48351,UTTARADIT,อุตรดิตถ์,อุตรดิตถ์,17.61667,100.10000,1008.10,09-25-2019,07:00:00,0.00,24.0,26.01,1015.54,000,87,8.00,21.7,0.00,23.9,0.0
48352,NONG KHAI,หนองคาย,หนองคาย,17.86717,102.73303,996.35,09-25-2019,07:00:00,0.00,23.7,22.64,1016.65,010,77,6.00,19.5,0.00,23.3,3.7
48353,LOEI,เลย,เลย,17.45000,101.73333,987.58,09-25-2019,07:00:00,0.00,22.5,23.86,1016.91,000,88,3.00,20.3,0.00,22.3,0.0
48354,UDON THANI,อุดรธานี,อุดรธานี,17.38333,102.80000,996.46,09-25-2019,07:00:00,0.00,23.4,20.81,1017.06,000,72,8.00,18.1,0.00,21.8,0.0
48355,SAKON NAKHON AGROMET.,สกลนคร สกษ.,สกลนคร,17.12503,104.06100,994.27,09-25-2019,07:00:00,0.00,21.5,23.51,1016.59,000,92,5.00,20.1,0.00,20.6,0.0
48356,SAKON NAKHON,สกลนคร,สกลนคร,17.15000,104.13333,996.12,09-25-2019,07:00:00,0.00,22.8,23.61,1016.04,290,85,8.00,20.2,0.00,21.6,3.7
48357,NAKHON PHANOM,นครพนม,นครพนม,17.41083,104.78250,999.79,09-25-2019,07:00:00,0.00,23.3,21.80,1016.90,000,76,7.00,18.9,0.00,21.6,0.0
48358,NAKHON PHANOM AGROMET.,นครพนม สกษ.,นครพนม,17.44306,104.77361,998.92,09-25-2019,07:00:00,0.00,22.1,23.95,1016.78,000,90,6.00,20.4,0.00,19.1,0.0
48360,NONG BUA LAM PHU,หนองบัวลำภู,หนองบัวลำภู,17.23250,102.42944,989.84,09-25-2019,07:00:00,0.00,24.5,20.82,1016.04,100,68,9.00,18.2,0.00,23.3,5.6
48372,SUKHOTHAI*,สุโขทัย,สุโขทัย,17.10611,99.80000,1008.93,09-25-2019,07:00:00,0.01,25.7,32.45,1014.79,000,98,4.00,25.4,0.00,24.7,0.0
48373,SI SAMRONG AGROMET.,ศรีสำโรง สกษ.,สุโขทัย,17.16136,99.86167,1009.34,09-25-2019,07:00:00,0.00,25.0,30.85,1015.63,000,97,10.00,24.6,0.00,24.5,0.0
48374,LOM SAK,หล่มสัก,เพชรบูรณ์,16.77361,101.24944,999.79,09-25-2019,07:00:00,0.00,23.5,22.80,1016.58,000,79,12.00,19.6,0.00,22.3,0.0
48375,MAE SOT,แม่สอด,ตาก,16.65917,98.55083,990.99,09-25-2019,07:00:00,0.00,22.5,24.80,1013.79,000,91,10.00,21.0,0.00,22.0,0.0
48376,TAK,ตาก,ตาก,16.87833,99.14333,1001.40,09-25-2019,07:00:00,3.00,24.2,29.13,1016.04,000,97,4.00,23.6,0.00,23.7,0.0
48377,BHUMIBOL DAM,เขื่อนภูมิพล,ตาก,17.24389,99.00250,999.21,09-25-2019,07:00:00,0.00,25.0,29.00,1015.84,000,92,7.00,23.5,0.00,24.0,0.0
48378,PHITSANULOK,พิษณุโลก,พิษณุโลก,16.79481,100.27930,1010.21,09-25-2019,07:00:00,0.00,24.8,27.61,1015.52,050,88,8.00,22.7,0.00,24.5,5.6
48379,PHETCHABUN,เพชรบูรณ์,เพชรบูรณ์,16.43333,101.15000,1001.12,09-25-2019,07:00:00,0.00,23.2,24.23,1014.58,000,85,8.00,20.6,0.00,22.6,0.0
48380,KAMPHAENG PHET,กำแพงเพชร,กำแพงเพชร,16.48681,99.52697,1005.88,09-25-2019,07:00:00,0.00,24.4,28.97,1015.36,000,95,6.00,23.5,0.00,23.7,0.0
48381,KHON KAEN,ขอนแก่น,ขอนแก่น,16.46111,102.78972,994.07,09-25-2019,07:00:00,0.00,23.6,25.60,1016.20,350,88,6.00,21.5,0.00,23.1,5.6
48382,MAHASARAKHAM,มหาสารคาม,มหาสารคาม,16.24722,103.06805,998.44,09-25-2019,07:00:00,0.00,24.5,25.60,1016.25,330,83,8.00,21.5,0.00,22.7,9.3
48383,MUKDAHAN,มุกดาหาร,มุกดาหาร,16.54139,104.72889,999.33,09-25-2019,07:00:00,0.00,23.6,25.11,1015.48,000,86,10.00,21.2,0.00,22.5,0.0
48384,THA PHRA AGROMET.,ท่าพระ สกษ.,ขอนแก่น,16.33333,102.81667,996.23,09-25-2019,07:00:00,0.00,22.7,24.16,1015.55,000,88,6.00,20.5,0.00,21.6,0.0
48385,UMPHANG,อุ้มผาง,ตาก,16.02472,98.86444,964.42,09-25-2019,07:00:00,0.00,19.4,21.19,1017.24,000,94,.20,18.4,0.00,18.6,0.0
48386,PICHIT AGROMET.,พิจิตร สกษ.,พิจิตร,16.43806,100.29250,1011.05,09-25-2019,07:00:00,0.00,26.0,32.20,1015.05,000,96,3.00,25.3,0.00,24.5,0.0
48387,DOI MU SOE AGROMET.,ดอยมูเซอร์ สกษ.,ตาก,16.75000,98.93333,919.71,09-25-2019,07:00:00,0.00,19.5,21.54,1016.30,000,95,7.00,18.7,0.00,17.6,0.0
48390,KALASIN,กาฬสินธุ์,กาฬสินธุ์,16.33250,103.58833,999.19,09-25-2019,07:00:00,0.00,23.2,24.71,1015.52,000,87,8.00,20.9,0.00,22.0,0.0
48400,NAKHON SAWAN,นครสวรรค์ ,นครสวรรค์,15.67183,100.13236,1011.07,09-25-2019,07:00:00,0.00,24.7,30.03,1015.17,000,97,4.00,24.1,0.00,24.1,0.0
48401,TAKFA AGROMET.,ตากฟ้า สกษ.,นครสวรรค์,15.34944,100.53028,1004.95,09-25-2019,07:00:00,0.00,24.7,26.18,1015.80,000,84,8.00,21.8,0.00,23.2,0.0
48402,CHAINAT AGROMET.,ชัยนาท สกษ.,ชัยนาท,15.15000,100.18333,1013.38,09-25-2019,07:00:00,0.00,25.0,29.79,1015.34,330,94,9.00,24.0,0.00,25.0,5.6
48403,CHAIYAPHUM,ชัยภูมิ,ชัยภูมิ,15.80000,102.03333,995.39,09-25-2019,07:00:00,0.00,24.0,24.78,1016.66,000,83,8.00,20.9,0.00,22.4,0.0
48404,ROI ET AGROMET.,ร้อยเอ็ด สกษ.,ร้อยเอ็ด,16.07322,103.60844,997.20,09-25-2019,07:00:00,0.00,23.5,25.68,1015.22,020,89,8.00,21.5,0.00,22.5,7.4
48405,ROI ET,ร้อยเอ็ด,ร้อยเอ็ด,16.02000,103.74389,998.76,09-25-2019,07:00:00,0.00,24.0,24.78,1015.22,000,83,10.00,20.9,0.00,23.1,0.0
48407,UBON RATCHATHANI,อุบลราชธานี (ศูนย์ฯ),อุบลราชธานี,15.25000,104.86667,1000.53,09-25-2019,07:00:00,0.00,24.0,24.78,1014.81,020,83,10.00,20.9,0.00,23.3,9.3
48408,UBON RATCHATHANI AGROMET.,อุบลราชธานี สกษ.,อุบลราชธานี,15.23914,105.02350,999.98,09-25-2019,07:00:00,0.00,24.0,24.78,1015.08,000,83,8.00,20.9,0.00,23.2,0.0
48409,SI SAKET AGROMET.,ศรีสะเกษ,ศรีสะเกษ,15.00000,104.05000,1000.20,09-25-2019,07:00:00,0.00,24.4,26.93,1015.12,050,88,10.00,22.3,0.00,23.5,9.3
48410,UTHAITHANI,อุทัยธานี,อุทัยธานี,15.37417,100.03889,1011.24,09-25-2019,07:00:00,0.00,25.2,30.15,1014.30,"{'0': '   ', '@attributes': {'Unit': 'degree'}}",94,3.00,24.2,0.00,23.8,0.0
48413,WICHIAN BURI,วิเชียรบุรี,เพชรบูรณ์,15.65700,101.10800,1007.24,09-25-2019,07:00:00,0.00,24.3,26.01,1015.33,000,86,10.00,21.7,0.00,23.6,0.0
48415,AYUTTHAYA,พระนครศรีอยุธยา,พระนครศรีอยุธยา,14.53472,100.72500,1012.96,09-25-2019,07:00:00,0.00,25.2,27.28,1014.09,030,85,6.00,22.5,0.00,24.2,5.6
48416,THA TUM,ท่าตูม,สุรินทร์,15.31667,103.68333,998.82,09-25-2019,07:00:00,0.00,25.5,28.07,1013.67,080,86,8.00,23.0,0.00,24.3,3.7
48417,NAKORNNAYOK,นครนายก,นครนายก,14.36222,101.39278,879.05,09-25-2019,07:00:00,0.00,19.5,18.14,1015.13,090,80,8.00,16.0,0.00,17.1,11.1
48418,BUA CHUM,บัวชุม  ,ลพบุรี,15.26667,101.18736,1009.29,09-25-2019,07:00:00,0.00,23.3,27.83,1015.30,000,97,5.00,22.8,0.00,22.1,0.0
48419,PATHUMTHANI,ปทุมธานี สกษ.,ปทุมธานี,14.10000,100.61667,1013.07,09-25-2019,07:00:00,0.00,26.0,27.66,1013.88,040,82,9.00,22.7,0.00,25.6,5.6
48420,Samut Prakarn,สมุทรปราการ สกษ.,สมุทรปราการ,13.51667,100.76167,1012.94,09-25-2019,07:00:00,0.00,27.5,29.60,1013.39,000,81,10.00,23.9,0.00,27.5,0.0
48421,THONG PHAPHUM,ทองผาภูมิ,กาญจนบุรี,14.74222,98.63639,1003.62,09-25-2019,07:00:00,0.50,22.5,26.01,1015.18,000,95,4.00,21.7,0.00,22.3,0.0
48425,SUPHAN BURI,สุพรรณบุรี,สุพรรณบุรี,14.47444,100.13889,1013.49,09-25-2019,07:00:00,0.01,25.6,28.51,1014.52,010,87,8.00,23.2,0.00,25.0,3.7
48426,LOP BURI,ลพบุรี,ลพบุรี,14.79972,100.64500,1013.16,09-25-2019,07:00:00,0.00,26.0,26.37,1015.01,000,78,8.00,22.0,0.00,24.6,0.0
48427,U THONG AGROMET.,อู่ทอง สกษ.,สุพรรณบุรี,14.30361,99.86472,1013.50,09-25-2019,07:00:00,0.00,26.8,27.52,1014.27,040,78,8.00,22.7,0.00,24.8,3.7
48429,SUVARNABHUMI AIRPORT,สนามบินสุวรรณภูมิ,สมุทรปราการ,13.68639,100.76750,1013.17,09-25-2019,07:00:00,0.00,26.5,30.70,1013.88,360,89,6.00,24.5,0.00,25.2,3.7
48430,PRACHIN BURI,ปราจีนบุรี,ปราจีนบุรี,14.05842,101.36930,1012.48,09-25-2019,07:00:00,0.00,27.1,26.75,1013.19,000,75,7.00,22.2,0.00,25.3,0.0
48431,NAKHON RATCHASIMA,นครราชสีมา,นครราชสีมา,14.96830,102.08603,994.02,09-25-2019,07:00:00,0.00,24.3,25.76,1015.55,000,85,8.00,21.6,0.00,23.6,0.0
48432,SURIN,สุรินทร์,สุรินทร์,14.88333,103.50000,998.27,09-25-2019,07:00:00,0.00,23.5,25.19,1015.32,000,87,6.00,21.2,0.00,22.1,0.0
48433,SURIN AGROMET.,สุรินทร์ สกษ.,สุรินทร์,14.88333,103.45000,998.91,09-25-2019,07:00:00,0.00,23.7,28.01,1015.66,030,96,9.00,23.0,0.00,21.7,5.6
48434,CHOK CHAI,โชคชัย,นครราชสีมา,14.71889,102.16861,993.14,09-25-2019,07:00:00,0.00,23.2,26.66,1015.45,000,94,4.00,22.1,0.00,22.7,0.0
48435,PAKCHONG AGROMET.,ปากช่อง สกษ.,นครราชสีมา,14.64389,101.33194,971.33,09-25-2019,07:00:00,0.00,24.0,22.63,1015.35,010,76,8.00,19.5,0.00,23.0,11.1
48436,NANG RONG,นางรอง,บุรีรัมย์,14.58333,102.80000,994.11,09-25-2019,07:00:00,0.00,23.5,26.42,1015.07,350,91,9.00,22.0,0.00,22.7,3.7
48437,BURIRUM,บุรีรัมย์,บุรีรัมย์,15.22575,103.24808,995.51,09-25-2019,07:00:00,0.00,23.6,28.34,1016.77,030,97,4.00,23.2,0.00,21.9,9.3
48438,SAMUTSONGKRAM,สมุทรสงคราม,สมุทรสงคราม,13.40778,100.03222,1013.00,09-25-2019,07:00:00,2.00,25.8,30.19,1013.44,140,91,8.00,24.2,0.00,24.9,9.3
48439,KABIN BURI,กบินทร์บุรี,ปราจีนบุรี,13.98333,101.70722,1005.60,09-25-2019,07:00:00,0.80,25.8,25.78,1007.02,080,78,8.00,21.6,0.00,25.0,3.7
48440,SA KAEW,สระแก้ว,สระแก้ว,13.78889,102.03472,1008.86,09-25-2019,07:00:00,0.00,25.1,30.23,1013.86,000,95,6.00,24.2,0.00,24.8,0.0
48450,KANCHANA BURI,กาญจนบุรี,กาญจนบุรี,14.02250,99.53583,1011.12,09-25-2019,07:00:00,0.00,25.2,28.31,1014.46,000,88,6.00,23.1,0.00,23.0,0.0
48451,NAKHONPATHOM,นครปฐม,นครปฐม,14.01167,99.97000,1013.13,09-25-2019,07:00:00,0.30,25.6,30.90,1014.25,000,94,7.00,24.6,0.00,25.1,0.0
48453,BANG NA AGROMET.,กรุงเทพฯ บางนา สกษ.,กรุงเทพมหานคร,13.66639,100.60611,1013.08,09-25-2019,07:00:00,0.00,27.0,30.56,1013.38,060,86,9.00,24.4,0.00,26.1,3.7
48454,BANGKOK PORT (KLONG TOEI),กรุงเทพฯ ท่าเรือคลองเตย,กรุงเทพมหานคร,13.70694,100.56805,1012.61,09-25-2019,07:00:00,0.00,27.8,32.12,1013.30,000,86,9.00,25.2,0.00,26.7,0.0
48455,BANGKOK METROPOLIS,กรุงเทพมหานคร,กรุงเทพมหานคร,13.72639,100.56000,1012.74,09-25-2019,07:00:00,0.00,26.5,30.43,1013.23,310,88,10.00,24.3,0.00,26.5,3.7
48456,DON MUANG AIRPORT,สนามบินดอนเมือง,กรุงเทพมหานคร,13.91917,100.60500,1012.97,09-25-2019,07:00:00,0.00,26.8,27.52,1014.39,010,78,8.00,22.7,0.00,26.2,11.1
48457,PILOT STATION,นำร่อง,สมุทรปราการ,13.39389,100.59944,1011.78,09-25-2019,07:00:00,0.00,28.6,32.88,1013.47,040,84,8.00,25.6,0.00,28.0,22.2
48458,CHACHOENGSAO,ฉะเชิงเทรา,ฉะเชิงเทรา,13.51556,101.45833,1007.07,09-25-2019,07:00:00,0.00,24.4,29.49,1015.21,000,97,8.00,23.8,0.00,24.0,0.0
48459,CHON BURI,ชลบุรี,ชลบุรี,13.36667,100.98333,1012.77,09-25-2019,07:00:00,0.00,27.0,30.56,1013.06,060,86,8.00,24.4,0.00,25.7,3.7
48460,KO SICHANG,เกาะสีชัง,ชลบุรี,13.16167,100.80194,1010.04,09-25-2019,07:00:00,0.00,27.5,32.36,1013.18,000,88,10.00,25.4,0.00,25.5,0.0
48461,PHATTHAYA,พัทยา,ชลบุรี,12.92000,100.86944,1006.03,09-25-2019,07:00:00,20.70,26.8,27.52,1013.02,060,78,10.00,22.7,0.00,25.0,5.6
48462,ARANYA PRATHET,อรัญประเทศ,สระแก้ว,13.70000,102.58333,1008.76,09-25-2019,07:00:00,0.00,25.8,26.54,1014.42,000,80,8.00,22.1,0.00,24.8,0.0
48463,LAEM CHABANG,แหลมฉบัง,ชลบุรี,13.07694,100.87583,1004.95,09-25-2019,07:00:00,12.80,26.5,27.77,1014.34,000,80,8.00,22.8,0.00,26.0,0.0
48464,RATCHA BURI,ราชบุรี,ราชบุรี,13.48931,99.79239,1012.82,09-25-2019,07:00:00,0.20,25.8,29.66,1014.10,320,89,5.00,23.9,0.00,24.3,3.7
48465,PHETCHA BURI,เพชรบุรี,เพชรบุรี,12.99944,100.06056,1012.75,09-25-2019,07:00:00,0.40,25.7,30.28,1013.19,350,92,11.00,24.2,0.40,25.2,9.3
48474,NONG PHLUB AGROMET.,หนองพลับ สกษ.,ประจวบคีรีขันธ์,12.58333,99.73333,1001.62,09-25-2019,07:00:00,2.50,24.5,29.41,1014.07,000,96,7.00,23.8,2.50,24.0,0.0
48475,HUA HIN,หัวหิน,ประจวบคีรีขันธ์,12.58611,99.96250,1012.54,09-25-2019,07:00:00,0.00,26.1,29.95,1013.26,000,89,8.00,24.1,0.00,25.8,0.0
48477,SATTAHIP,สัตหีบ,ชลบุรี,12.68333,100.98333,1010.71,09-25-2019,07:00:00,6.30,25.1,29.18,1013.17,360,92,6.00,23.6,0.00,24.6,7.4
48478,RAYONG,ระยอง,ระยอง,12.63222,101.34361,1012.06,09-25-2019,07:00:00,0.00,26.0,26.88,1012.59,070,80,10.00,22.3,0.00,25.4,5.6
48479,HUAI PONG AGROMET.,ห้วยโป่ง สกษ.,ระยอง,12.73333,101.13333,1007.47,09-25-2019,07:00:00,17.20,25.5,27.04,1012.68,010,83,11.00,22.4,0.00,24.8,7.4
48480,CHANTHA BURI,จันทบุรี,จันทบุรี,12.61667,102.11333,1012.40,09-25-2019,07:00:00,0.00,26.2,27.49,1012.81,040,81,7.00,22.6,0.00,25.3,9.3
48481,PHLIU  AGROMET.,พลิ้ว สกษ.,จันทบุรี,12.50861,102.17305,1010.54,09-25-2019,07:00:00,0.00,25.5,31.25,1013.34,000,96,8.00,24.8,0.00,25.0,0.0
48500,PRACHUAP KHIRIKHAN,ประจวบคีรีขันธ์,ประจวบคีรีขันธ์,11.83333,99.83333,1012.10,09-25-2019,07:00:00,0.00,26.7,29.45,1012.89,000,84,10.00,23.8,0.00,23.5,0.0
48501,TRAD,ตราด,ตราด,11.76667,102.88333,1011.73,09-25-2019,07:00:00,0.00,24.6,29.07,1012.19,100,94,7.00,23.6,0.00,23.7,7.4
48517,CHUMPHON,ชุมพร,ชุมพร,10.49875,99.18847,1011.79,09-25-2019,07:00:00,0.00,25.0,30.32,1012.48,000,96,8.00,24.3,0.00,24.8,0.0
48520,SAWI AGROMET.,สวี สกษ.,ชุมพร,10.33333,99.10000,1010.75,09-25-2019,07:00:00,0.00,25.0,30.58,1012.29,000,97,8.00,24.4,0.00,24.8,0.0
48532,RANONG,ระนอง,ระนอง,9.98333,98.61667,1011.41,09-25-2019,07:00:00,0.00,25.0,29.00,1012.34,000,92,10.00,23.5,0.00,24.8,0.0
48550,KO SAMUI,เกาะสมุย,สุราษฎร์ธานี,9.46667,100.05000,1011.64,09-25-2019,07:00:00,5.00,27.7,33.33,1012.33,350,90,9.00,25.9,0.00,26.0,9.3
48551,SURAT THANI,สุราษฎร์ธานี,สุราษฎร์ธานี,9.13556,99.15194,1011.61,09-25-2019,07:00:00,8.30,24.5,29.67,1012.42,000,97,7.00,23.9,5.60,24.5,0.0
48552,NAKHONSI THAMMARAT,นครศรีธรรมราช,นครศรีธรรมราช,8.53778,99.96389,1011.50,09-25-2019,07:00:00,14.70,24.7,30.30,1012.14,330,97,10.00,24.3,10.10,24.4,7.4
48554,NAKHONSI THAMMARAT AGROMET.,นครศรีธรรมราช สกษ.,นครศรีธรรมราช,8.35931,100.00000,1012.06,09-25-2019,07:00:00,34.60,24.8,30.48,1012.47,000,97,8.00,24.4,10.50,24.2,0.0
48555,SURAT THANI AGROMET.,สุราษฎร์ธานี สกษ.,สุราษฎร์ธานี,9.10000,99.63333,1009.94,09-25-2019,07:00:00,7.70,24.6,30.38,1014.21,000,98,4.00,24.3,0.00,23.8,0.0
48556,PHRA SANG,พระแสง สอท.,สุราษฎร์ธานี,8.57022,99.25825,1010.63,09-25-2019,07:00:00,1.40,25.0,31.12,1012.25,000,98,4.00,24.7,1.40,23.6,0.0
48557,CHAWANG,ฉวาง,นครศรีธรรมราช,8.43194,99.51194,1008.60,09-25-2019,07:00:00,2.90,24.7,30.30,1012.12,000,97,10.00,24.3,2.60,24.5,0.0
48560,PHATTHALUNG AGROMET.,พัทลุง สกษ.,พัทลุง,7.58333,100.16667,1010.13,09-25-2019,07:00:00,14.80,24.9,30.40,1011.50,300,97,7.00,24.3,6.40,24.9,3.7
48561,TAKUA PA,ตะกั่วป่า,พังงา,8.68417,98.25222,1010.28,09-25-2019,07:00:00,14.80,23.7,28.77,1011.18,000,98,8.00,23.4,0.00,23.4,0.0
48563,KRABI,กระบี่,กระบี่,8.10361,98.97528,1008.88,09-25-2019,07:00:00,2.60,25.0,30.05,1012.48,070,95,8.00,24.1,0.00,24.0,9.3
48564,PHUKET,ภูเก็ต,ภูเก็ต,7.88333,98.40000,1010.87,09-25-2019,07:00:00,0.10,26.9,31.19,1011.30,030,88,9.00,24.7,0.00,26.3,7.4
48565,PHUKET AIRPORT,ภูเก็ต (ศูนย์ฯ),ภูเก็ต,8.14500,98.31444,1010.19,09-25-2019,07:00:00,11.90,25.5,30.44,1011.20,000,93,9.00,24.3,0.00,22.4,0.0
48566,KO LANTA,เกาะลันตา,กระบี่,7.53333,99.05000,1010.81,09-25-2019,07:00:00,0.00,26.0,29.50,1011.63,000,88,8.00,23.8,0.00,25.6,0.0
48567,TRANG AIRPORT,ตรัง,ตรัง,7.51667,99.61667,1009.65,09-25-2019,07:00:00,1.50,25.5,30.44,1011.48,020,93,7.00,24.3,0.01,25.2,7.4
48568,SONGKHLA,สงขลา,สงขลา,7.18211,100.60769,1010.98,09-25-2019,07:00:00,4.10,27.9,31.47,1011.73,100,84,9.00,24.9,1.40,26.7,1.9
48569,HAT YAI AIRPORT,หาดใหญ่,สงขลา,6.91667,100.43333,1007.91,09-25-2019,07:00:00,4.20,25.7,31.63,1011.95,000,96,7.00,25.0,0.01,23.5,0.0
48570,SATUN,สตูล,สตูล,6.65000,100.08333,1010.30,09-25-2019,07:00:00,0.00,27.6,29.52,1010.98,080,80,8.00,23.8,0.00,26.5,5.6
48571,KHO HONG AGROMET.,คอหงษ์ สกษ.,สงขลา,7.00000,100.50000,1010.27,09-25-2019,07:00:00,0.00,26.7,31.63,1011.39,000,90,10.00,25.0,0.00,25.0,0.0
48574,SA DAO,สะเดา,สงขลา,6.79806,100.39056,1008.82,09-25-2019,07:00:00,1.00,25.0,31.12,1011.77,000,98,6.00,24.7,0.00,22.6,0.0
48580,PATTANI AIRPORT,ปัตตานี,ปัตตานี,6.78333,101.15000,1009.96,09-25-2019,07:00:00,5.60,25.4,29.99,1010.66,000,92,7.00,24.1,0.00,24.8,0.0
48581,YALA AGROMET.,ยะลา สกษ.,ยะลา,6.51667,101.28333,1007.81,09-25-2019,07:00:00,10.90,24.4,29.49,1011.99,000,97,3.00,23.8,0.00,23.8,0.0
48583,NARATHIWAT,นราธิวาส,นราธิวาส,6.41667,101.81667,1010.30,09-25-2019,07:00:00,4.10,25.2,28.83,1010.90,000,90,9.00,23.4,0.00,.0,0.0
