WmoStationNumber,StationNameEnglish,StationNameThai,Province,Latitude,Longitude,Rainfall24Hr,Date,Time,AirTemperature,DewPoint,WindDirection,StationPressure,VaporPressure,WindSpeed,LandVisibility,RelativeHumidity,MeanSeaLevelPressure,Rainfall
48300,MAE HONG SON,แม่ฮ่องสอน,แม่ฮ่องสอน,19.29897,97.97578,0.00,09-29-2019,22:00:00,25.5,23.4,000,982.21,28.85,0.0,10.00,88,1013.37,0.00
48302,DOI ANG KANG,ดอยอ่างขาง,เชียงใหม่,19.93139,99.04833,0.00,09-29-2019,22:00:00,18.2,16.9,200,851.27,19.20,11.1,8.00,92,1013.95,0.00
48303,CHIANG RAI,เชียงราย,เชียงราย,19.96139,99.88139,0.00,09-29-2019,22:00:00,24.2,20.5,000,968.48,24.13,0.0,{'@attributes': {'Unit': 'km'}},80,1012.55,0.00
48304,CHAING RAI AGROMET.,เชียงราย สกษ.,เชียงราย,19.87083,99.78278,0.00,09-29-2019,22:00:00,23.0,20.9,000,966.44,24.63,0.0,8.00,88,1012.60,0.00
48307,THUNG CHANG,ทุ่งช้าง,น่าน,19.41194,100.88353,0.00,09-29-2019,22:00:00,23.0,19.9,000,977.26,23.21,0.0,6.00,83,1015.55,0.00
48310,PHAYAO,พะเยา,พะเยา,19.13333,99.90000,0.00,09-29-2019,22:00:00,23.0,21.0,000,967.99,24.87,0.0,8.00,89,1013.76,0.00
48315,THA WANGPHA,ท่าวังผา,น่าน,19.11056,100.80250,0.00,09-29-2019,22:00:00,24.7,22.6,000,986.19,27.44,0.0,7.00,88,1013.20,0.00
48324,THOEN,เถิน,ลำปาง,17.63661,99.24475,0.00,09-29-2019,22:00:00,26.0,24.3,080,990.91,30.30,5.6,10.00,90,1012.82,0.00
48325,MAE SARIANG,แม่สะเรียง,แม่ฮ่องสอน,18.16667,97.93333,0.00,09-29-2019,22:00:00,25.5,24.0,000,989.17,29.91,0.0,8.00,92,1013.48,0.00
48327,CHIANG MAI,เชียงใหม่,เชียงใหม่,18.79000,98.97694,0.00,09-29-2019,22:00:00,26.7,22.7,000,978.05,27.60,0.0,9.00,79,1012.68,0.00
48328,LAMPANG,ลำปาง,ลำปาง,18.28333,99.51667,0.00,09-29-2019,22:00:00,26.0,23.4,000,985.41,28.70,0.0,10.00,85,1013.13,0.00
48329,LAMPHUN,ลำพูน,ลำพูน,18.56722,99.03389,0.00,09-29-2019,22:00:00,26.7,23.9,000,979.04,29.72,0.0,10.00,85,1012.72,0.00
48330,PHRAE,แพร่,แพร่,18.16667,100.16667,0.00,09-29-2019,22:00:00,26.2,23.0,000,993.68,28.01,0.0,4.00,82,1012.30,0.00
48331,NAN,น่าน,น่าน,18.77972,100.77778,0.00,09-29-2019,22:00:00,26.4,23.9,000,989.54,29.70,0.0,10.00,86,1012.49,0.00
48333,NAN AGROMET.,น่าน สกษ.,น่าน,18.86667,100.75000,0.00,09-29-2019,22:00:00,23.5,22.1,000,982.64,26.66,0.0,7.00,92,1012.98,0.00
48334,LAMPANG AGROMET.,ลำปาง สกษ.,ลำปาง,18.31667,99.28333,0.00,09-29-2019,22:00:00,25.0,24.4,000,977.03,30.58,0.0,7.00,97,1012.87,0.00
48350,LOEI AGROMET.,เลย สกษ.,เลย,17.40000,101.73333,0.00,09-29-2019,22:00:00,23.4,21.6,000,982.25,25.76,0.0,5.00,90,1012.41,0.00
48351,UTTARADIT,อุตรดิตถ์,อุตรดิตถ์,17.61667,100.10000,0.00,09-29-2019,22:00:00,28.0,22.9,000,1004.74,27.85,0.0,8.00,74,1012.06,0.00
48352,NONG KHAI,หนองคาย,หนองคาย,17.86717,102.73303,0.00,09-29-2019,22:00:00,28.5,22.9,000,992.07,27.97,0.0,6.00,72,1011.95,0.00
48353,LOEI,เลย,เลย,17.45000,101.73333,0.00,09-29-2019,22:00:00,25.5,22.4,240,983.33,27.04,3.7,4.00,83,1012.23,0.00
48354,UDON THANI,อุดรธานี,อุดรธานี,17.38333,102.80000,0.00,09-29-2019,22:00:00,26.7,22.7,170,992.16,27.60,1.9,7.00,79,1012.44,0.00
48355,SAKON NAKHON AGROMET.,สกลนคร สกษ.,สกลนคร,17.12503,104.06100,0.00,09-29-2019,22:00:00,24.0,21.7,000,990.80,26.01,0.0,6.00,87,1012.85,0.00
48356,SAKON NAKHON,สกลนคร,สกลนคร,17.15000,104.13333,0.00,09-29-2019,22:00:00,26.0,22.3,180,992.69,26.88,3.7,8.00,80,1012.34,0.00
48357,NAKHON PHANOM,นครพนม,นครพนม,17.41083,104.78250,0.00,09-29-2019,22:00:00,26.4,20.5,000,996.20,24.04,0.0,8.00,70,1013.07,0.00
48358,NAKHON PHANOM AGROMET.,นครพนม สกษ.,นครพนม,17.44306,104.77361,0.00,09-29-2019,22:00:00,23.6,21.2,000,995.93,25.11,0.0,7.00,86,1013.64,0.00
48360,NONG BUA LAM PHU,หนองบัวลำภู,หนองบัวลำภู,17.23250,102.42944,0.00,09-29-2019,22:00:00,26.5,21.2,000,985.73,25.20,0.0,7.00,73,1011.65,0.00
48372,SUKHOTHAI*,สุโขทัย,สุโขทัย,17.10611,99.80000,0.00,09-29-2019,22:00:00,28.7,26.3,280,1006.41,34.24,5.6,8.00,87,1012.20,0.00
48373,SI SAMRONG AGROMET.,ศรีสำโรง สกษ.,สุโขทัย,17.16136,99.86167,0.00,09-29-2019,22:00:00,27.5,25.4,000,1006.12,32.36,0.0,7.00,88,1012.33,0.00
48374,LOM SAK,หล่มสัก,เพชรบูรณ์,16.77361,101.24944,0.00,09-29-2019,22:00:00,28.0,22.9,000,996.37,27.85,0.0,8.00,74,1012.84,0.00
48375,MAE SOT,แม่สอด,ตาก,16.65917,98.55083,0.00,09-29-2019,22:00:00,26.5,22.8,120,989.12,27.77,3.7,10.00,80,1011.57,0.00
48376,TAK,ตาก,ตาก,16.87833,99.14333,0.00,09-29-2019,22:00:00,27.5,25.7,000,998.70,32.93,0.0,6.00,90,1013.14,0.00
48377,BHUMIBOL DAM,เขื่อนภูมิพล,ตาก,17.24389,99.00250,0.00,09-29-2019,22:00:00,25.5,21.7,000,996.38,26.02,0.0,7.00,80,1012.94,0.00
48378,PHITSANULOK,พิษณุโลก,พิษณุโลก,16.79481,100.27930,0.00,09-29-2019,22:00:00,28.0,25.0,000,1007.13,31.67,0.0,10.00,84,1012.37,0.00
48379,PHETCHABUN,เพชรบูรณ์,เพชรบูรณ์,16.43333,101.15000,0.00,09-29-2019,22:00:00,26.8,22.7,000,997.82,27.52,0.0,10.00,78,1011.08,0.00
48380,KAMPHAENG PHET,กำแพงเพชร,กำแพงเพชร,16.48681,99.52697,0.00,09-29-2019,22:00:00,28.2,25.5,000,1002.59,32.63,0.0,4.00,85,1011.92,0.00
48381,KHON KAEN,ขอนแก่น,ขอนแก่น,16.46111,102.78972,0.00,09-29-2019,22:00:00,26.7,22.2,000,990.61,26.82,0.0,6.00,77,1012.43,0.00
48382,MAHASARAKHAM,มหาสารคาม,มหาสารคาม,16.24722,103.06805,0.00,09-29-2019,22:00:00,27.0,24.1,000,997.25,30.02,0.0,6.00,84,1014.89,0.00
48383,MUKDAHAN,มุกดาหาร,มุกดาหาร,16.54139,104.72889,0.00,09-29-2019,22:00:00,26.5,22.0,000,996.37,26.47,0.0,10.00,77,1012.31,0.00
48384,THA PHRA AGROMET.,ท่าพระ สกษ.,ขอนแก่น,16.33333,102.81667,0.00,09-29-2019,22:00:00,25.4,23.6,000,992.45,29.19,0.0,8.00,90,1011.52,0.00
48385,UMPHANG,อุ้มผาง,ตาก,16.02472,98.86444,0.00,09-29-2019,22:00:00,25.0,22.6,000,962.61,27.45,0.0,7.00,87,1014.32,0.00
48386,PICHIT AGROMET.,พิจิตร สกษ.,พิจิตร,16.43806,100.29250,0.00,09-29-2019,22:00:00,29.1,25.7,000,1007.79,33.04,0.0,4.00,82,1011.74,0.00
48387,DOI MU SOE AGROMET.,ดอยมูเซอร์ สกษ.,ตาก,16.75000,98.93333,0.00,09-29-2019,22:00:00,21.1,19.8,050,918.61,23.14,5.6,2.50,93,1014.53,0.00
48390,KALASIN,กาฬสินธุ์,กาฬสินธุ์,16.33250,103.58833,0.00,09-29-2019,22:00:00,25.6,23.4,000,996.26,28.77,0.0,8.00,88,1012.40,0.00
48400,NAKHON SAWAN,นครสวรรค์ ,นครสวรรค์,15.67183,100.13236,0.00,09-29-2019,22:00:00,28.0,25.6,000,1008.02,32.80,0.0,5.00,87,1012.06,0.00
48401,TAKFA AGROMET.,ตากฟ้า สกษ.,นครสวรรค์,15.34944,100.53028,0.00,09-29-2019,22:00:00,26.0,22.4,000,1003.11,27.14,0.0,6.00,81,1013.89,0.00
48402,CHAINAT AGROMET.,ชัยนาท สกษ.,ชัยนาท,15.15000,100.18333,0.00,09-29-2019,22:00:00,28.0,25.1,000,1010.87,31.95,0.0,9.00,85,1012.80,0.00
48403,CHAIYAPHUM,ชัยภูมิ,ชัยภูมิ,15.80000,102.03333,0.00,09-29-2019,22:00:00,27.2,22.8,000,991.36,27.72,0.0,8.00,77,1012.31,0.00
48404,ROI ET AGROMET.,ร้อยเอ็ด สกษ.,ร้อยเอ็ด,16.07322,103.60844,0.00,09-29-2019,22:00:00,25.2,23.4,000,994.63,28.83,0.0,10.00,90,1012.49,0.00
48405,ROI ET,ร้อยเอ็ด,ร้อยเอ็ด,16.02000,103.74389,0.00,09-29-2019,22:00:00,26.8,23.4,000,995.80,28.84,0.0,10.00,82,1012.05,0.00
48407,UBON RATCHATHANI,อุบลราชธานี (ศูนย์ฯ),อุบลราชธานี,15.25000,104.86667,0.00,09-29-2019,22:00:00,27.7,22.7,000,997.94,27.57,0.0,10.00,74,1012.01,0.00
48408,UBON RATCHATHANI AGROMET.,อุบลราชธานี สกษ.,อุบลราชธานี,15.23914,105.02350,0.00,09-29-2019,22:00:00,26.4,22.9,000,997.49,27.85,0.0,9.00,81,1012.42,0.00
48409,SI SAKET AGROMET.,ศรีสะเกษ,ศรีสะเกษ,15.00000,104.05000,0.00,09-29-2019,22:00:00,27.0,24.3,000,998.39,30.29,0.0,7.00,85,1013.15,0.00
48410,UTHAITHANI,อุทัยธานี,อุทัยธานี,15.37417,100.03889,0.01,09-29-2019,22:00:00,28.4,25.7,"{'0': '   ', '@attributes': {'Unit': 'degree'}}",1008.82,33.04,0.0,6.00,85,1011.84,0.00
48413,WICHIAN BURI,วิเชียรบุรี,เพชรบูรณ์,15.65700,101.10800,0.00,09-29-2019,22:00:00,27.9,24.7,000,1004.34,31.20,0.0,8.00,83,1012.31,0.00
48415,AYUTTHAYA,พระนครศรีอยุธยา,พระนครศรีอยุธยา,14.53472,100.72500,0.00,09-29-2019,22:00:00,28.0,25.1,000,1011.10,31.95,0.0,8.00,85,1012.21,0.00
48416,THA TUM,ท่าตูม,สุรินทร์,15.31667,103.68333,0.00,09-29-2019,22:00:00,26.5,22.5,000,998.00,27.25,0.0,8.00,79,1012.79,0.00
48417,NAKORNNAYOK,นครนายก,นครนายก,14.36222,101.39278,0.00,09-29-2019,22:00:00,18.7,17.0,000,879.07,19.42,0.0,8.00,90,1015.54,0.00
48418,BUA CHUM,บัวชุม  ,ลพบุรี,15.26667,101.18736,0.00,09-29-2019,22:00:00,26.4,23.8,000,1006.74,29.43,0.0,8.00,86,1012.67,0.00
48419,PATHUMTHANI,ปทุมธานี สกษ.,ปทุมธานี,14.10000,100.61667,0.00,09-29-2019,22:00:00,30.0,25.0,100,1011.67,31.72,5.6,7.00,75,1012.47,0.00
48420,Samut Prakarn,สมุทรปราการ สกษ.,สมุทรปราการ,13.51667,100.76167,0.00,09-29-2019,22:00:00,30.3,25.6,210,1011.75,32.92,7.4,10.00,76,1012.20,0.00
48421,THONG PHAPHUM,ทองผาภูมิ,กาญจนบุรี,14.74222,98.63639,0.00,09-29-2019,22:00:00,26.8,23.3,000,1002.10,28.57,0.0,4.00,81,1013.48,0.00
48425,SUPHAN BURI,สุพรรณบุรี,สุพรรณบุรี,14.47444,100.13889,0.00,09-29-2019,22:00:00,29.5,24.5,000,1011.48,30.72,0.0,6.00,75,1012.49,0.00
48426,LOP BURI,ลพบุรี,ลพบุรี,14.79972,100.64500,0.00,09-29-2019,22:00:00,27.5,23.7,000,1010.55,29.33,0.0,8.00,80,1012.38,0.00
48427,U THONG AGROMET.,อู่ทอง สกษ.,สุพรรณบุรี,14.30361,99.86472,0.00,09-29-2019,22:00:00,27.4,25.3,000,1011.52,32.16,0.0,6.00,88,1012.29,0.00
48429,SUVARNABHUMI AIRPORT,สนามบินสุวรรณภูมิ,สมุทรปราการ,13.68639,100.76750,0.00,09-29-2019,22:00:00,30.1,24.7,160,1011.54,31.07,3.7,8.00,73,1012.24,0.00
48430,PRACHIN BURI,ปราจีนบุรี,ปราจีนบุรี,14.05842,101.36930,0.00,09-29-2019,22:00:00,29.6,23.0,000,1011.28,28.15,0.0,7.00,68,1011.98,0.00
48431,NAKHON RATCHASIMA,นครราชสีมา,นครราชสีมา,14.96830,102.08603,0.00,09-29-2019,22:00:00,26.8,22.8,000,991.64,27.78,0.0,7.00,79,1012.93,0.00
48432,SURIN,สุรินทร์,สุรินทร์,14.88333,103.50000,0.00,09-29-2019,22:00:00,26.6,23.8,000,995.58,29.54,0.0,7.00,85,1012.41,0.00
48433,SURIN AGROMET.,สุรินทร์ สกษ.,สุรินทร์,14.88333,103.45000,0.00,09-29-2019,22:00:00,24.8,23.2,000,995.40,28.38,0.0,7.00,91,1012.03,0.00
48434,CHOK CHAI,โชคชัย,นครราชสีมา,14.71889,102.16861,0.00,09-29-2019,22:00:00,27.0,23.3,000,990.94,28.67,0.0,6.00,80,1012.92,0.00
48435,PAKCHONG AGROMET.,ปากช่อง สกษ.,นครราชสีมา,14.64389,101.33194,0.00,09-29-2019,22:00:00,24.4,20.7,050,969.47,24.45,7.4,7.00,80,1013.34,0.00
48436,NANG RONG,นางรอง,บุรีรัมย์,14.58333,102.80000,0.00,09-29-2019,22:00:00,25.3,24.1,000,992.05,30.07,0.0,10.00,93,1012.85,0.00
48437,BURIRUM,บุรีรัมย์,บุรีรัมย์,15.22575,103.24808,0.00,09-29-2019,22:00:00,24.2,23.6,000,992.94,29.13,0.0,5.00,97,1014.10,0.00
48438,SAMUTSONGKRAM,สมุทรสงคราม,สมุทรสงคราม,13.40778,100.03222,0.00,09-29-2019,22:00:00,29.8,25.3,"{'0': '   ', '@attributes': {'Unit': 'degree'}}",1011.89,32.17,0.0,9.00,77,1012.32,0.00
48439,KABIN BURI,กบินทร์บุรี,ปราจีนบุรี,13.98333,101.70722,0.00,09-29-2019,22:00:00,28.5,24.9,000,1011.20,31.54,0.0,6.00,81,1012.62,0.00
48440,SA KAEW,สระแก้ว,สระแก้ว,13.78889,102.03472,0.00,09-29-2019,22:00:00,27.5,25.5,000,1007.88,32.64,0.0,8.00,89,1012.84,0.00
48450,KANCHANA BURI,กาญจนบุรี,กาญจนบุรี,14.02250,99.53583,0.00,09-29-2019,22:00:00,28.5,24.5,000,1009.47,30.70,0.0,6.00,79,1012.77,0.00
48451,NAKHONPATHOM,นครปฐม,นครปฐม,14.01167,99.97000,0.00,09-29-2019,22:00:00,26.5,25.1,130,1011.21,31.79,3.7,10.00,92,1012.33,0.00
48453,BANG NA AGROMET.,กรุงเทพฯ บางนา สกษ.,กรุงเทพมหานคร,13.66639,100.60611,0.00,09-29-2019,22:00:00,30.2,23.7,270,1012.08,29.30,3.7,10.00,68,1012.38,0.00
48455,BANGKOK METROPOLIS,กรุงเทพมหานคร,กรุงเทพมหานคร,13.72639,100.56000,0.00,09-29-2019,22:00:00,29.8,24.0,000,1011.77,29.91,0.0,10.00,71,1012.26,0.00
48456,DON MUANG AIRPORT,สนามบินดอนเมือง,กรุงเทพมหานคร,13.91917,100.60500,0.00,09-29-2019,22:00:00,30.4,23.6,170,1010.95,29.14,11.1,10.00,67,1012.35,0.00
48458,CHACHOENGSAO,ฉะเชิงเทรา,ฉะเชิงเทรา,13.51556,101.45833,0.00,09-29-2019,22:00:00,26.5,24.3,000,1006.18,30.43,0.0,10.00,88,1014.25,0.00
48459,CHON BURI,ชลบุรี,ชลบุรี,13.36667,100.98333,0.00,09-29-2019,22:00:00,29.5,25.2,000,1011.83,32.13,0.0,10.00,78,1012.11,0.00
48460,KO SICHANG,เกาะสีชัง,ชลบุรี,13.16167,100.80194,0.00,09-29-2019,22:00:00,28.5,25.5,000,1009.28,32.67,0.0,10.00,84,1012.41,0.00
48461,PHATTHAYA,พัทยา,ชลบุรี,12.92000,100.86944,0.00,09-29-2019,22:00:00,28.0,25.9,000,1005.71,33.37,0.0,8.00,88,1012.66,0.00
48462,ARANYA PRATHET,อรัญประเทศ,สระแก้ว,13.70000,102.58333,0.00,09-29-2019,22:00:00,28.5,24.3,000,1006.99,30.42,0.0,8.00,78,1012.59,0.00
48464,RATCHA BURI,ราชบุรี,ราชบุรี,13.48931,99.79239,0.00,09-29-2019,22:00:00,26.6,23.5,000,1011.74,29.00,0.0,6.00,83,1013.01,0.00
48465,PHETCHA BURI,เพชรบุรี,เพชรบุรี,12.99944,100.06056,0.00,09-29-2019,22:00:00,29.3,24.7,260,1011.93,31.16,9.3,11.00,76,1012.36,0.00
48474,NONG PHLUB AGROMET.,หนองพลับ สกษ.,ประจวบคีรีขันธ์,12.58333,99.73333,0.00,09-29-2019,22:00:00,24.9,23.3,000,1001.05,28.56,0.0,8.00,91,1013.48,0.00
48475,HUA HIN,หัวหิน,ประจวบคีรีขันธ์,12.58611,99.96250,0.00,09-29-2019,22:00:00,28.1,25.0,000,1012.00,31.59,0.0,6.00,83,1012.72,0.00
48477,SATTAHIP,สัตหีบ,ชลบุรี,12.68333,100.98333,0.00,09-29-2019,22:00:00,27.2,25.2,360,1010.52,32.05,5.6,6.00,89,1012.96,0.00
48478,RAYONG,ระยอง,ระยอง,12.63222,101.34361,0.00,09-29-2019,22:00:00,29.0,25.6,000,1012.35,32.83,0.0,10.00,82,1012.86,0.00
48479,HUAI PONG AGROMET.,ห้วยโป่ง สกษ.,ระยอง,12.73333,101.13333,0.00,09-29-2019,22:00:00,27.6,25.5,000,1007.71,32.56,0.0,7.00,88,1012.89,0.00
48480,CHANTHA BURI,จันทบุรี,จันทบุรี,12.61667,102.11333,1.20,09-29-2019,22:00:00,27.8,25.7,000,1012.23,32.96,0.0,7.00,88,1012.64,0.01
48481,PHLIU  AGROMET.,พลิ้ว สกษ.,จันทบุรี,12.50861,102.17305,0.00,09-29-2019,22:00:00,27.0,26.3,000,1010.14,34.19,0.0,8.00,96,1012.93,0.00
48500,PRACHUAP KHIRIKHAN,ประจวบคีรีขันธ์,ประจวบคีรีขันธ์,11.83333,99.83333,1.40,09-29-2019,22:00:00,26.3,24.4,000,1013.28,30.59,0.0,6.00,89,1014.07,0.00
48501,TRAD,ตราด,ตราด,11.76667,102.88333,0.00,09-29-2019,22:00:00,27.0,26.3,090,1011.83,34.19,7.4,6.00,96,1012.30,0.00
48517,CHUMPHON,ชุมพร,ชุมพร,10.49875,99.18847,0.00,09-29-2019,22:00:00,26.6,25.3,000,1012.76,32.26,0.0,7.00,93,1013.45,0.00
48520,SAWI AGROMET.,สวี สกษ.,ชุมพร,10.33333,99.10000,0.00,09-29-2019,22:00:00,26.6,24.6,000,1011.29,30.89,0.0,7.00,89,1012.83,0.00
48532,RANONG,ระนอง,ระนอง,9.98333,98.61667,0.00,09-29-2019,22:00:00,25.8,23.5,000,1011.59,28.87,0.0,10.00,87,1012.52,0.00
48550,KO SAMUI,เกาะสมุย,สุราษฎร์ธานี,9.46667,100.05000,0.00,09-29-2019,22:00:00,27.5,25.8,000,1012.30,33.21,0.0,10.00,90,1012.99,0.00
48551,SURAT THANI,สุราษฎร์ธานี,สุราษฎร์ธานี,9.13556,99.15194,0.00,09-29-2019,22:00:00,26.2,24.8,000,1012.44,31.22,0.0,8.00,92,1013.24,0.00
48552,NAKHONSI THAMMARAT,นครศรีธรรมราช,นครศรีธรรมราช,8.53778,99.96389,0.00,09-29-2019,22:00:00,26.9,25.8,000,1012.26,33.14,0.0,10.00,94,1012.90,0.00
48554,NAKHONSI THAMMARAT AGROMET.,นครศรีธรรมราช สกษ.,นครศรีธรรมราช,8.35931,100.00000,0.00,09-29-2019,22:00:00,27.0,25.7,000,1012.63,33.06,0.0,10.00,93,1013.04,0.00
48555,SURAT THANI AGROMET.,สุราษฎร์ธานี สกษ.,สุราษฎร์ธานี,9.10000,99.63333,0.00,09-29-2019,22:00:00,26.2,24.9,000,1010.40,31.49,0.0,6.00,93,1014.65,0.00
48556,PHRA SANG,พระแสง สอท.,สุราษฎร์ธานี,8.57022,99.25825,0.60,09-29-2019,22:00:00,25.5,24.5,000,1010.83,30.71,0.0,7.00,94,1012.46,0.00
48557,CHAWANG,ฉวาง,นครศรีธรรมราช,8.43194,99.51194,0.00,09-29-2019,22:00:00,26.0,24.6,000,1009.05,30.84,0.0,8.00,92,1012.56,0.00
48560,PHATTHALUNG AGROMET.,พัทลุง สกษ.,พัทลุง,7.58333,100.16667,0.00,09-29-2019,22:00:00,27.7,25.3,000,1011.14,32.20,0.0,8.00,87,1012.50,0.00
48561,TAKUA PA,ตะกั่วป่า,พังงา,8.68417,98.25222,11.50,09-29-2019,22:00:00,25.8,25.4,000,1011.58,32.37,0.0,10.00,97,1012.47,2.50
48563,KRABI,กระบี่,กระบี่,8.10361,98.97528,4.40,09-29-2019,22:00:00,25.3,24.6,000,1009.34,30.87,0.0,10.00,96,1012.94,0.20
48564,PHUKET,ภูเก็ต,ภูเก็ต,7.88333,98.40000,21.80,09-29-2019,22:00:00,26.2,24.6,240,1011.83,30.94,3.7,10.00,91,1012.27,0.00
48565,PHUKET AIRPORT,ภูเก็ต (ศูนย์ฯ),ภูเก็ต,8.14500,98.31444,23.60,09-29-2019,22:00:00,25.1,23.5,000,1011.06,28.92,0.0,9.00,91,1012.06,0.40
48566,KO LANTA,เกาะลันตา,กระบี่,7.53333,99.05000,0.00,09-29-2019,22:00:00,26.3,24.0,000,1011.88,29.78,0.0,10.00,87,1012.70,0.00
48567,TRANG AIRPORT,ตรัง,ตรัง,7.51667,99.61667,0.00,09-29-2019,22:00:00,27.1,24.5,050,1011.03,30.75,7.4,10.00,86,1012.85,0.00
48568,SONGKHLA,สงขลา,สงขลา,7.18211,100.60769,1.40,09-29-2019,22:00:00,28.2,24.5,340,1012.06,30.67,7.4,10.00,80,1012.82,0.00
48569,HAT YAI AIRPORT,หาดใหญ่,สงขลา,6.91667,100.43333,0.00,09-29-2019,22:00:00,26.4,25.0,000,1009.00,31.60,0.0,10.00,92,1013.03,0.00
48570,SATUN,สตูล,สตูล,6.65000,100.08333,0.70,09-29-2019,22:00:00,26.4,24.4,000,1011.63,30.51,0.0,10.00,89,1012.32,0.00
48571,KHO HONG AGROMET.,คอหงษ์ สกษ.,สงขลา,7.00000,100.50000,2.80,09-29-2019,22:00:00,27.8,24.9,000,1011.51,31.56,0.0,10.00,84,1012.62,0.00
48574,SA DAO,สะเดา,สงขลา,6.79806,100.39056,6.60,09-29-2019,22:00:00,26.3,24.4,000,1009.91,30.59,0.0,10.00,89,1012.86,0.00
48580,PATTANI AIRPORT,ปัตตานี,ปัตตานี,6.78333,101.15000,0.00,09-29-2019,22:00:00,26.6,25.3,000,1011.61,32.26,0.0,8.00,93,1012.30,0.00
48581,YALA AGROMET.,ยะลา สกษ.,ยะลา,6.51667,101.28333,4.40,09-29-2019,22:00:00,25.5,25.1,000,1009.05,31.79,0.0,7.00,97,1013.22,0.00
48583,NARATHIWAT,นราธิวาส,นราธิวาส,6.41667,101.81667,12.30,09-29-2019,22:00:00,27.5,24.6,000,1011.70,30.97,0.0,9.00,84,1012.29,0.80
