WmoStationNumber,StationNameEnglish,StationNameThai,Province,Latitude,Longitude,AirTemperature,Date,Time,StationPressure,Rainfall24Hr,LandVisibility,DewPoint,Rainfall,VaporPressure,MeanSeaLevelPressure,WindDirection,RelativeHumidity,WindSpeed
48300,MAE HONG SON,แม่ฮ่องสอน,แม่ฮ่องสอน,19.29897,97.97578,31.7,09-23-2019,16:00:00,979.63,0.00,15.00,23.5,0.00,28.91,1010.07,000,62,0.0
48302,DOI ANG KANG,ดอยอ่างขาง,เชียงใหม่,19.93139,99.04833,20.5,09-23-2019,16:00:00,850.05,0.00,8.00,15.3,0.00,17.33,1011.13,120,72,22.2
48303,CHIANG RAI,เชียงราย,เชียงราย,19.96139,99.88139,31.7,09-23-2019,16:00:00,968.45,0.00,15.00,18.0,0.00,20.69,1011.41,030,44,3.7
48304,CHAING RAI AGROMET.,เชียงราย สกษ.,เชียงราย,19.87083,99.78278,31.5,09-23-2019,16:00:00,966.79,0.00,15.00,17.4,0.00,19.86,1011.66,000,43,0.0
48307,THUNG CHANG,ทุ่งช้าง,น่าน,19.41194,100.88353,32.9,09-23-2019,16:00:00,974.13,0.00,12.00,20.3,0.00,23.83,1011.05,000,48,0.0
48310,PHAYAO,พะเยา,พะเยา,19.13333,99.90000,31.1,09-23-2019,16:00:00,967.54,0.00,12.00,22.1,0.00,26.65,1012.05,000,59,0.0
48315,THA WANGPHA,ท่าวังผา,น่าน,19.11056,100.80250,32.6,09-23-2019,16:00:00,985.64,0.00,10.00,23.0,0.00,28.17,1011.93,310,57,3.7
48324,THOEN,เถิน,ลำปาง,17.63661,99.24475,30.6,09-23-2019,16:00:00,989.75,15.80,10.00,21.7,0.00,25.98,1011.30,360,59,1.9
48325,MAE SARIANG,แม่สะเรียง,แม่ฮ่องสอน,18.16667,97.93333,33.4,09-23-2019,16:00:00,986.52,0.50,10.00,21.6,0.00,25.84,1010.14,000,50,0.0
48327,CHIANG MAI,เชียงใหม่,เชียงใหม่,18.79000,98.97694,31.7,09-23-2019,16:00:00,977.53,1.00,10.00,20.1,0.00,23.50,1011.56,340,50,5.6
48328,LAMPANG,ลำปาง,ลำปาง,18.28333,99.51667,32.1,09-23-2019,16:00:00,984.40,14.00,10.00,19.9,0.00,23.17,1011.53,030,48,9.3
48329,LAMPHUN,ลำพูน,ลำพูน,18.56722,99.03389,30.9,09-23-2019,16:00:00,977.93,0.00,10.00,20.9,0.00,24.68,1011.11,100,55,7.4
48330,PHRAE,แพร่,แพร่,18.16667,100.16667,31.1,09-23-2019,16:00:00,993.02,0.00,10.00,22.0,0.00,26.38,1011.32,350,58,3.7
48331,NAN,น่าน,น่าน,18.77972,100.77778,31.3,09-23-2019,16:00:00,989.22,3.40,10.00,21.7,0.00,25.94,1011.78,000,57,0.0
48333,NAN AGROMET.,น่าน สกษ.,น่าน,18.86667,100.75000,32.6,09-23-2019,16:00:00,981.61,0.20,12.00,22.7,0.00,27.61,1011.01,000,56,0.0
48334,LAMPANG AGROMET.,ลำปาง สกษ.,ลำปาง,18.31667,99.28333,30.2,09-23-2019,16:00:00,976.43,0.20,8.00,21.8,0.00,26.04,1011.63,000,61,0.0
48350,LOEI AGROMET.,เลย สกษ.,เลย,17.40000,101.73333,31.0,09-23-2019,16:00:00,981.88,0.00,10.00,18.3,0.00,21.01,1011.26,100,47,9.3
48351,UTTARADIT,อุตรดิตถ์,อุตรดิตถ์,17.61667,100.10000,34.4,09-23-2019,16:00:00,1003.67,0.00,9.01,20.7,0.00,24.48,1010.83,000,45,0.0
48352,NONG KHAI,หนองคาย,หนองคาย,17.86717,102.73303,33.0,09-23-2019,16:00:00,991.87,0.00,8.00,19.3,0.00,22.43,1011.45,090,45,9.3
48353,LOEI,เลย,เลย,17.45000,101.73333,31.4,09-23-2019,16:00:00,983.21,0.00,14.00,17.5,0.00,19.94,1011.55,120,43,11.1
48354,UDON THANI,อุดรธานี,อุดรธานี,17.38333,102.80000,32.2,09-23-2019,16:00:00,992.22,0.00,10.00,18.9,0.00,21.80,1012.13,080,45,5.6
48355,SAKON NAKHON AGROMET.,สกลนคร สกษ.,สกลนคร,17.12503,104.06100,30.0,09-23-2019,16:00:00,990.60,0.00,8.00,22.4,0.00,27.01,1012.21,000,64,0.0
48356,SAKON NAKHON,สกลนคร,สกลนคร,17.15000,104.13333,30.6,09-23-2019,16:00:00,992.76,0.00,15.00,21.2,0.00,25.19,1012.10,160,57,3.7
48357,NAKHON PHANOM,นครพนม,นครพนม,17.41083,104.78250,30.7,09-23-2019,16:00:00,996.04,0.00,11.00,18.9,0.00,21.76,1012.67,080,49,13.0
48358,NAKHON PHANOM AGROMET.,นครพนม สกษ.,นครพนม,17.44306,104.77361,30.5,09-23-2019,16:00:00,995.55,0.00,10.00,22.4,0.00,27.14,1012.85,000,62,0.0
48360,NONG BUA LAM PHU,หนองบัวลำภู,หนองบัวลำภู,17.23250,102.42944,30.7,09-23-2019,16:00:00,981.91,0.00,9.00,18.9,0.00,21.76,1007.37,080,49,11.1
48372,SUKHOTHAI*,สุโขทัย,สุโขทัย,17.10611,99.80000,32.7,09-23-2019,16:00:00,1004.97,4.50,12.00,23.8,0.00,29.50,1010.67,000,60,0.0
48373,SI SAMRONG AGROMET.,ศรีสำโรง สกษ.,สุโขทัย,17.16136,99.86167,32.5,09-23-2019,16:00:00,1004.52,0.00,10.00,23.4,0.00,28.81,1010.62,140,59,9.3
48374,LOM SAK,หล่มสัก,เพชรบูรณ์,16.77361,101.24944,33.8,09-23-2019,16:00:00,995.15,0.00,12.00,18.3,0.00,21.00,1011.29,000,40,0.0
48375,MAE SOT,แม่สอด,ตาก,16.65917,98.55083,31.7,09-23-2019,16:00:00,986.45,0.00,10.00,20.1,0.00,23.50,1008.46,090,50,13.0
48376,TAK,ตาก,ตาก,16.87833,99.14333,32.0,09-23-2019,16:00:00,997.24,5.00,6.00,20.6,0.00,24.30,1011.45,070,51,9.3
48377,BHUMIBOL DAM,เขื่อนภูมิพล,ตาก,17.24389,99.00250,29.5,09-23-2019,16:00:00,994.84,4.70,12.00,23.7,0.00,29.33,1011.15,000,71,0.0
48378,PHITSANULOK,พิษณุโลก,พิษณุโลก,16.79481,100.27930,33.1,09-23-2019,16:00:00,1005.49,0.00,10.00,22.0,0.00,26.37,1010.63,150,52,3.7
48379,PHETCHABUN,เพชรบูรณ์,เพชรบูรณ์,16.43333,101.15000,33.8,09-23-2019,16:00:00,996.30,0.00,12.00,19.2,0.00,22.30,1009.23,080,42,3.7
48380,KAMPHAENG PHET,กำแพงเพชร,กำแพงเพชร,16.48681,99.52697,32.0,09-23-2019,16:00:00,1001.78,10.00,10.00,22.5,0.00,27.27,1010.99,050,57,1.9
48381,KHON KAEN,ขอนแก่น,ขอนแก่น,16.46111,102.78972,31.0,09-23-2019,16:00:00,990.19,0.00,10.00,21.3,0.00,25.39,1011.69,100,57,9.3
48382,MAHASARAKHAM,มหาสารคาม,มหาสารคาม,16.24722,103.06805,30.2,09-23-2019,16:00:00,994.82,0.00,10.00,21.9,0.00,26.31,1012.23,000,61,0.0
48383,MUKDAHAN,มุกดาหาร,มุกดาหาร,16.54139,104.72889,30.5,09-23-2019,16:00:00,995.78,0.00,12.00,21.6,0.00,25.80,1011.51,060,59,9.3
48384,THA PHRA AGROMET.,ท่าพระ สกษ.,ขอนแก่น,16.33333,102.81667,31.1,09-23-2019,16:00:00,992.28,0.00,10.00,23.1,0.00,28.29,1010.98,010,63,3.7
48385,UMPHANG,อุ้มผาง,ตาก,16.02472,98.86444,29.5,09-23-2019,16:00:00,960.69,0.00,10.00,20.4,0.00,24.01,1011.51,000,58,0.0
48386,PICHIT AGROMET.,พิจิตร สกษ.,พิจิตร,16.43806,100.29250,32.7,09-23-2019,16:00:00,1006.63,25.50,6.00,25.5,0.00,32.71,1010.53,110,66,5.6
48387,DOI MU SOE AGROMET.,ดอยมูเซอร์ สกษ.,ตาก,16.75000,98.93333,24.9,09-23-2019,16:00:00,916.57,0.50,8.00,19.6,0.01,22.84,1011.01,060,73,13.0
48390,KALASIN,กาฬสินธุ์,กาฬสินธุ์,16.33250,103.58833,30.0,09-23-2019,16:00:00,995.98,0.00,10.00,22.7,0.00,27.55,1011.88,030,65,7.4
48400,NAKHON SAWAN,นครสวรรค์ ,นครสวรรค์,15.67183,100.13236,30.3,09-23-2019,16:00:00,1007.44,0.20,8.00,21.4,0.00,25.43,1011.45,090,59,9.3
48401,TAKFA AGROMET.,ตากฟ้า สกษ.,นครสวรรค์,15.34944,100.53028,29.2,09-23-2019,16:00:00,1001.44,0.80,8.00,20.6,0.00,24.26,1012.09,060,60,7.4
48402,CHAINAT AGROMET.,ชัยนาท สกษ.,ชัยนาท,15.15000,100.18333,29.5,09-23-2019,16:00:00,1009.61,0.80,10.00,21.3,0.00,25.30,1011.53,190,61,5.6
48403,CHAIYAPHUM,ชัยภูมิ,ชัยภูมิ,15.80000,102.03333,28.8,09-23-2019,16:00:00,991.00,0.00,10.00,20.0,0.00,23.32,1011.83,360,59,5.6
48404,ROI ET AGROMET.,ร้อยเอ็ด สกษ.,ร้อยเอ็ด,16.07322,103.60844,30.0,09-23-2019,16:00:00,993.89,0.00,10.00,21.9,0.00,26.21,1011.46,050,62,14.8
48405,ROI ET,ร้อยเอ็ด,ร้อยเอ็ด,16.02000,103.74389,31.6,09-23-2019,16:00:00,995.22,0.00,10.00,21.5,0.00,25.70,1011.20,050,55,11.1
48407,UBON RATCHATHANI,อุบลราชธานี (ศูนย์ฯ),อุบลราชธานี,15.25000,104.86667,31.4,09-23-2019,16:00:00,997.14,25.10,9.00,22.0,0.00,26.40,1011.02,020,57,7.4
48408,UBON RATCHATHANI AGROMET.,อุบลราชธานี สกษ.,อุบลราชธานี,15.23914,105.02350,30.5,09-23-2019,16:00:00,997.66,12.80,10.00,23.2,0.00,28.50,1012.39,000,65,0.0
48409,SI SAKET AGROMET.,ศรีสะเกษ,ศรีสะเกษ,15.00000,104.05000,31.0,09-23-2019,16:00:00,996.93,10.70,10.00,23.8,0.00,29.48,1011.47,040,66,7.4
48410,UTHAITHANI,อุทัยธานี,อุทัยธานี,15.37417,100.03889,29.1,09-23-2019,16:00:00,1008.37,0.90,8.00,21.2,0.00,25.11,1011.38,"{'0': '   ', '@attributes': {'Unit': 'degree'}}",62,0.0
48413,WICHIAN BURI,วิเชียรบุรี,เพชรบูรณ์,15.65700,101.10800,31.0,09-23-2019,16:00:00,1000.47,0.01,10.00,19.8,0.00,23.04,1008.32,040,51,11.1
48415,AYUTTHAYA,พระนครศรีอยุธยา,พระนครศรีอยุธยา,14.53472,100.72500,26.9,09-23-2019,16:00:00,1009.70,2.00,7.00,24.9,0.30,31.46,1010.81,070,89,14.8
48416,THA TUM,ท่าตูม,สุรินทร์,15.31667,103.68333,29.5,09-23-2019,16:00:00,996.62,4.40,8.00,23.2,0.00,28.50,1011.25,000,69,0.0
48417,NAKORNNAYOK,นครนายก,นครนายก,14.36222,101.39278,19.3,09-23-2019,16:00:00,876.24,20.60,1.50,19.0,10.60,21.93,1011.98,150,98,5.6
48418,BUA CHUM,บัวชุม  ,ลพบุรี,15.26667,101.18736,29.6,09-23-2019,16:00:00,1005.43,0.00,8.00,22.9,0.00,27.88,1011.28,080,67,7.4
48419,PATHUMTHANI,ปทุมธานี สกษ.,ปทุมธานี,14.10000,100.61667,28.5,09-23-2019,16:00:00,1009.99,14.40,8.00,24.9,0.00,31.54,1010.80,050,81,14.8
48420,Samut Prakarn,สมุทรปราการ สกษ.,สมุทรปราการ,13.51667,100.76167,26.4,09-23-2019,16:00:00,1009.86,61.70,10.00,24.2,0.80,30.24,1010.31,000,88,0.0
48421,THONG PHAPHUM,ทองผาภูมิ,กาญจนบุรี,14.74222,98.63639,27.0,09-23-2019,16:00:00,999.46,0.00,8.00,23.8,0.00,29.48,1010.81,000,83,0.0
48425,SUPHAN BURI,สุพรรณบุรี,สุพรรณบุรี,14.47444,100.13889,28.4,09-23-2019,16:00:00,1010.12,3.90,12.00,23.5,0.00,28.86,1011.13,040,75,3.7
48426,LOP BURI,ลพบุรี,ลพบุรี,14.79972,100.64500,29.3,09-23-2019,16:00:00,1009.26,2.40,8.00,22.2,0.00,26.78,1011.07,040,66,7.4
48427,U THONG AGROMET.,อู่ทอง สกษ.,สุพรรณบุรี,14.30361,99.86472,28.7,09-23-2019,16:00:00,1010.12,17.00,9.00,22.4,0.00,27.01,1010.89,000,69,0.0
48429,SUVARNABHUMI AIRPORT,สนามบินสุวรรณภูมิ,สมุทรปราการ,13.68639,100.76750,25.2,09-23-2019,16:00:00,1009.76,10.00,8.00,23.4,1.40,28.83,1010.47,140,90,5.6
48430,PRACHIN BURI,ปราจีนบุรี,ปราจีนบุรี,14.05842,101.36930,29.4,09-23-2019,16:00:00,1009.48,11.70,12.00,23.8,0.00,29.41,1010.18,090,72,7.4
48431,NAKHON RATCHASIMA,นครราชสีมา,นครราชสีมา,14.96830,102.08603,27.5,09-23-2019,16:00:00,990.11,31.80,8.00,22.3,0.01,26.95,1011.32,060,73,7.4
48432,SURIN,สุรินทร์,สุรินทร์,14.88333,103.50000,29.3,09-23-2019,16:00:00,994.41,23.10,10.00,23.8,0.00,29.49,1011.06,040,72,9.3
48433,SURIN AGROMET.,สุรินทร์ สกษ.,สุรินทร์,14.88333,103.45000,29.6,09-23-2019,16:00:00,995.27,21.50,9.00,25.5,0.00,32.63,1011.63,010,79,5.6
48434,CHOK CHAI,โชคชัย,นครราชสีมา,14.71889,102.16861,27.7,09-23-2019,16:00:00,989.36,30.70,8.00,23.3,0.00,28.63,1011.26,060,77,11.1
48435,PAKCHONG AGROMET.,ปากช่อง สกษ.,นครราชสีมา,14.64389,101.33194,24.0,09-23-2019,16:00:00,967.90,6.70,4.00,22.5,0.01,27.25,1011.76,050,91,11.1
48436,NANG RONG,นางรอง,บุรีรัมย์,14.58333,102.80000,28.3,09-23-2019,16:00:00,990.48,46.10,10.00,23.5,0.00,28.95,1011.03,050,75,5.6
48437,BURIRUM,บุรีรัมย์,บุรีรัมย์,15.22575,103.24808,28.2,09-23-2019,16:00:00,992.23,4.00,9.00,24.3,0.00,30.40,1013.08,050,80,16.7
48438,SAMUTSONGKRAM,สมุทรสงคราม,สมุทรสงคราม,13.40778,100.03222,27.4,09-23-2019,16:00:00,1009.41,24.20,10.00,24.2,0.00,30.23,1009.84,170,83,11.1
48439,KABIN BURI,กบินทร์บุรี,ปราจีนบุรี,13.98333,101.70722,27.5,09-23-2019,16:00:00,1008.76,6.10,11.00,24.2,1.10,30.15,1010.18,000,82,0.0
48440,SA KAEW,สระแก้ว,สระแก้ว,13.78889,102.03472,30.0,09-23-2019,16:00:00,1006.01,5.50,9.00,24.3,0.00,30.31,1010.92,090,71,3.7
48450,KANCHANA BURI,กาญจนบุรี,กาญจนบุรี,14.02250,99.53583,25.2,09-23-2019,16:00:00,1007.78,25.00,5.00,23.7,0.30,29.36,1011.11,140,92,3.7
48451,NAKHONPATHOM,นครปฐม,นครปฐม,14.01167,99.97000,24.5,09-23-2019,16:00:00,1009.90,23.90,5.00,24.5,3.90,30.73,1011.02,000,100,0.0
48453,BANG NA AGROMET.,กรุงเทพฯ บางนา สกษ.,กรุงเทพมหานคร,13.66639,100.60611,28.0,09-23-2019,16:00:00,1010.01,12.80,7.00,23.6,0.01,29.19,1010.31,180,77,5.6
48454,BANGKOK PORT (KLONG TOEI),กรุงเทพฯ ท่าเรือคลองเตย,กรุงเทพมหานคร,13.70694,100.56805,26.6,09-23-2019,16:00:00,1009.57,14.30,8.00,25.7,9.10,33.10,1010.26,180,95,3.7
48455,BANGKOK METROPOLIS,กรุงเทพมหานคร,กรุงเทพมหานคร,13.72639,100.56000,26.5,09-23-2019,16:00:00,1010.15,20.60,10.00,25.8,11.00,33.19,1010.64,000,96,0.0
48456,DON MUANG AIRPORT,สนามบินดอนเมือง,กรุงเทพมหานคร,13.91917,100.60500,25.2,09-23-2019,16:00:00,1009.66,20.20,4.00,24.6,1.20,30.96,1011.09,190,97,18.5
48457,PILOT STATION,นำร่อง,สมุทรปราการ,13.39389,100.59944,27.1,09-23-2019,16:00:00,1008.57,22.00,10.00,26.2,1.80,34.11,1010.26,140,95,11.1
48458,CHACHOENGSAO,ฉะเชิงเทรา,ฉะเชิงเทรา,13.51556,101.45833,25.5,09-23-2019,16:00:00,1003.91,9.20,10.00,24.0,5.40,29.91,1011.99,230,92,5.6
48459,CHON BURI,ชลบุรี,ชลบุรี,13.36667,100.98333,27.2,09-23-2019,16:00:00,1009.73,35.40,8.00,25.1,24.20,31.77,1010.02,240,88,9.3
48460,KO SICHANG,เกาะสีชัง,ชลบุรี,13.16167,100.80194,27.2,09-23-2019,16:00:00,1007.26,20.30,10.00,24.0,0.00,29.85,1010.40,000,83,0.0
48461,PHATTHAYA,พัทยา,ชลบุรี,12.92000,100.86944,26.4,09-23-2019,16:00:00,1003.21,23.70,10.00,23.6,0.00,29.17,1010.19,000,85,0.0
48462,ARANYA PRATHET,อรัญประเทศ,สระแก้ว,13.70000,102.58333,31.3,09-23-2019,16:00:00,1004.67,84.30,10.00,24.6,0.00,30.94,1010.21,020,68,5.6
48463,LAEM CHABANG,แหลมฉบัง,ชลบุรี,13.07694,100.87583,27.5,09-23-2019,16:00:00,1002.62,25.60,8.00,25.1,0.00,31.80,1011.96,280,87,7.4
48464,RATCHA BURI,ราชบุรี,ราชบุรี,13.48931,99.79239,26.0,09-23-2019,16:00:00,1010.13,55.10,3.00,25.0,12.30,31.65,1011.40,360,94,3.7
48465,PHETCHA BURI,เพชรบุรี,เพชรบุรี,12.99944,100.06056,29.5,09-23-2019,16:00:00,1008.95,4.90,11.00,25.4,0.00,32.42,1009.38,160,79,16.7
48474,NONG PHLUB AGROMET.,หนองพลับ สกษ.,ประจวบคีรีขันธ์,12.58333,99.73333,28.0,09-23-2019,16:00:00,997.64,8.10,10.00,23.5,0.00,28.92,1009.89,190,77,7.4
48475,HUA HIN,หัวหิน,ประจวบคีรีขันธ์,12.58611,99.96250,28.5,09-23-2019,16:00:00,1009.44,33.90,10.00,24.8,0.00,31.26,1010.15,140,80,13.0
48477,SATTAHIP,สัตหีบ,ชลบุรี,12.68333,100.98333,28.0,09-23-2019,16:00:00,1008.21,46.70,10.00,23.6,0.01,29.19,1010.64,180,77,7.4
48478,RAYONG,ระยอง,ระยอง,12.63222,101.34361,27.0,09-23-2019,16:00:00,1009.47,17.50,12.00,24.3,0.00,30.29,1009.99,250,85,9.3
48479,HUAI PONG AGROMET.,ห้วยโป่ง สกษ.,ระยอง,12.73333,101.13333,27.0,09-23-2019,16:00:00,1004.58,15.60,10.00,22.7,0.00,27.62,1009.75,000,77,0.0
48480,CHANTHA BURI,จันทบุรี,จันทบุรี,12.61667,102.11333,30.8,09-23-2019,16:00:00,1009.45,15.70,10.00,23.1,0.00,28.26,1009.86,180,64,7.4
48481,PHLIU  AGROMET.,พลิ้ว สกษ.,จันทบุรี,12.50861,102.17305,30.0,09-23-2019,16:00:00,1007.20,11.00,8.00,26.5,0.00,34.64,1009.95,180,82,7.4
48500,PRACHUAP KHIRIKHAN,ประจวบคีรีขันธ์,ประจวบคีรีขันธ์,11.83333,99.83333,26.5,09-23-2019,16:00:00,1009.62,29.50,10.00,24.3,0.90,30.43,1010.41,000,88,0.0
48501,TRAD,ตราด,ตราด,11.76667,102.88333,29.0,09-23-2019,16:00:00,1010.02,0.60,10.00,24.7,0.00,31.13,1010.48,310,78,5.6
48517,CHUMPHON,ชุมพร,ชุมพร,10.49875,99.18847,28.4,09-23-2019,16:00:00,1009.18,9.20,7.00,24.2,0.00,30.23,1009.86,100,78,7.4
48520,SAWI AGROMET.,สวี สกษ.,ชุมพร,10.33333,99.10000,28.8,09-23-2019,16:00:00,1008.08,6.40,6.00,24.0,0.00,29.90,1009.60,110,76,3.7
48532,RANONG,ระนอง,ระนอง,9.98333,98.61667,31.1,09-23-2019,16:00:00,1008.49,0.00,9.00,24.2,0.00,30.25,1009.40,260,67,5.6
48550,KO SAMUI,เกาะสมุย,สุราษฎร์ธานี,9.46667,100.05000,28.0,09-23-2019,16:00:00,1009.65,4.90,9.00,26.3,0.00,34.23,1010.34,000,91,0.0
48551,SURAT THANI,สุราษฎร์ธานี,สุราษฎร์ธานี,9.13556,99.15194,30.0,09-23-2019,16:00:00,1009.10,22.80,8.00,24.6,0.00,30.87,1009.90,010,73,1.9
48552,NAKHONSI THAMMARAT,นครศรีธรรมราช,นครศรีธรรมราช,8.53778,99.96389,27.3,09-23-2019,16:00:00,1009.19,58.20,10.00,25.3,0.80,32.25,1009.83,320,89,3.7
48554,NAKHONSI THAMMARAT AGROMET.,นครศรีธรรมราช สกษ.,นครศรีธรรมราช,8.35931,100.00000,27.5,09-23-2019,16:00:00,1009.55,9.20,10.00,25.7,2.00,32.93,1009.96,000,90,0.0
48555,SURAT THANI AGROMET.,สุราษฎร์ธานี สกษ.,สุราษฎร์ธานี,9.10000,99.63333,29.5,09-23-2019,16:00:00,1007.23,17.30,7.00,24.8,0.00,31.28,1011.42,000,76,0.0
48556,PHRA SANG,พระแสง สอท.,สุราษฎร์ธานี,8.57022,99.25825,29.5,09-23-2019,16:00:00,1007.94,11.40,8.00,22.9,0.00,27.96,1009.54,000,68,0.0
48557,CHAWANG,ฉวาง,นครศรีธรรมราช,8.43194,99.51194,28.0,09-23-2019,16:00:00,1006.44,5.00,10.00,26.6,0.80,34.81,1009.92,000,92,0.0
48560,PHATTHALUNG AGROMET.,พัทลุง สกษ.,พัทลุง,7.58333,100.16667,28.2,09-23-2019,16:00:00,1008.19,24.30,4.00,25.5,3.40,32.63,1009.55,120,85,9.3
48561,TAKUA PA,ตะกั่วป่า,พังงา,8.68417,98.25222,30.0,09-23-2019,16:00:00,1008.08,0.00,6.00,25.0,0.00,31.72,1008.96,000,75,0.0
48563,KRABI,กระบี่,กระบี่,8.10361,98.97528,28.5,09-23-2019,16:00:00,1005.83,1.80,7.00,24.0,0.00,29.87,1009.38,060,77,5.6
48564,PHUKET,ภูเก็ต,ภูเก็ต,7.88333,98.40000,30.9,09-23-2019,16:00:00,1008.34,0.60,8.00,24.3,0.00,30.41,1008.77,030,68,3.7
48565,PHUKET AIRPORT,ภูเก็ต (ศูนย์ฯ),ภูเก็ต,8.14500,98.31444,30.4,09-23-2019,16:00:00,1007.77,2.80,7.00,24.1,0.00,29.98,1008.75,080,69,5.6
48566,KO LANTA,เกาะลันตา,กระบี่,7.53333,99.05000,29.9,09-23-2019,16:00:00,1008.21,0.00,8.00,24.9,0.00,31.52,1009.02,080,75,14.8
48567,TRANG AIRPORT,ตรัง,ตรัง,7.51667,99.61667,30.2,09-23-2019,16:00:00,1007.02,4.20,4.00,24.5,0.00,30.70,1008.82,030,72,9.3
48568,SONGKHLA,สงขลา,สงขลา,7.18211,100.60769,30.4,09-23-2019,16:00:00,1008.46,9.30,5.00,24.5,0.00,30.82,1009.20,060,71,3.7
48569,HAT YAI AIRPORT,หาดใหญ่,สงขลา,6.91667,100.43333,30.7,09-23-2019,16:00:00,1005.31,0.01,5.00,24.1,0.00,30.01,1009.26,070,68,20.4
48570,SATUN,สตูล,สตูล,6.65000,100.08333,31.8,09-23-2019,16:00:00,1007.29,2.60,3.00,25.0,0.00,31.68,1007.97,280,67,7.4
48571,KHO HONG AGROMET.,คอหงษ์ สกษ.,สงขลา,7.00000,100.50000,30.5,09-23-2019,16:00:00,1008.27,0.80,7.00,24.0,0.00,29.89,1009.37,040,68,7.4
48574,SA DAO,สะเดา,สงขลา,6.79806,100.39056,31.3,09-23-2019,16:00:00,1005.84,4.80,9.00,25.8,0.00,33.27,1008.73,060,73,7.4
48580,PATTANI AIRPORT,ปัตตานี,ปัตตานี,6.78333,101.15000,32.0,09-23-2019,16:00:00,1008.05,0.00,6.00,26.4,0.00,34.49,1008.73,000,73,0.0
48581,YALA AGROMET.,ยะลา สกษ.,ยะลา,6.51667,101.28333,32.4,09-23-2019,16:00:00,1005.52,20.20,3.00,21.5,0.00,25.58,1009.58,070,53,13.0
48583,NARATHIWAT,นราธิวาส,นราธิวาส,6.41667,101.81667,30.5,09-23-2019,16:00:00,1009.04,0.00,7.00,24.8,0.00,31.31,1009.62,120,72,11.1
