WmoStationNumber,StationNameEnglish,StationNameThai,Province,Latitude,Longitude,AirTemperature,Date,Time,Rainfall,WindDirection,MeanSeaLevelPressure,StationPressure,VaporPressure,LandVisibility,WindSpeed,Rainfall24Hr,RelativeHumidity,DewPoint
48300,MAE HONG SON,แม่ฮ่องสอน,แม่ฮ่องสอน,19.29897,97.97578,32.4,10-09-2019,16:00:00,0.00,000,1006.57,976.30,29.18,15.00,0.0,0.00,60,23.6
48302,DOI ANG KANG,ดอยอ่างขาง,เชียงใหม่,19.93139,99.04833,19.8,10-09-2019,16:00:00,0.00,120,1007.30,846.49,21.08,8.00,7.4,0.00,91,18.3
48303,CHIANG RAI,เชียงราย,เชียงราย,19.96139,99.88139,33.5,10-09-2019,16:00:00,0.00,080,1006.69,964.18,20.73,12.00,1.9,0.00,40,18.1
48304,CHAING RAI AGROMET.,เชียงราย สกษ.,เชียงราย,19.87083,99.78278,32.2,10-09-2019,16:00:00,0.00,000,1007.02,962.46,27.11,15.00,0.0,0.00,56,22.4
48307,THUNG CHANG,ทุ่งช้าง,น่าน,19.41194,100.88353,33.0,10-09-2019,16:00:00,0.00,000,1007.61,970.84,29.25,12.00,0.0,0.00,58,23.7
48310,PHAYAO,พะเยา,พะเยา,19.13333,99.90000,32.3,10-09-2019,16:00:00,0.00,180,1006.82,962.71,27.02,10.00,9.3,0.00,56,22.4
48315,THA WANGPHA,ท่าวังผา,น่าน,19.11056,100.80250,34.5,10-09-2019,16:00:00,0.00,000,1008.06,982.03,28.02,12.00,0.0,0.00,51,23.0
48324,THOEN,เถิน,ลำปาง,17.63661,99.24475,32.9,10-09-2019,16:00:00,0.00,080,1007.60,986.29,28.77,7.00,22.2,0.00,58,23.4
48325,MAE SARIANG,แม่สะเรียง,แม่ฮ่องสอน,18.16667,97.93333,33.0,10-09-2019,16:00:00,0.00,000,1006.74,983.17,32.16,10.00,0.0,0.00,64,25.3
48327,CHIANG MAI,เชียงใหม่,เชียงใหม่,18.79000,98.97694,34.0,10-09-2019,16:00:00,0.00,150,1007.65,973.99,26.46,12.00,7.4,0.00,50,22.0
48328,LAMPANG,ลำปาง,ลำปาง,18.28333,99.51667,31.2,10-09-2019,16:00:00,0.00,000,1008.93,981.79,29.88,10.00,0.0,0.60,66,24.0
48329,LAMPHUN,ลำพูน,ลำพูน,18.56722,99.03389,33.0,10-09-2019,16:00:00,0.00,090,1006.86,974.04,25.63,15.00,7.4,0.00,51,21.5
48330,PHRAE,แพร่,แพร่,18.16667,100.16667,33.0,10-09-2019,16:00:00,0.00,250,1007.24,989.12,28.40,10.00,5.6,0.00,56,23.2
48331,NAN,น่าน,น่าน,18.77972,100.77778,34.5,10-09-2019,16:00:00,0.00,260,1007.51,985.27,28.88,10.00,7.4,0.00,53,23.5
48333,NAN AGROMET.,น่าน สกษ.,น่าน,18.86667,100.75000,34.5,10-09-2019,16:00:00,0.00,000,1009.58,980.40,27.17,12.00,0.0,0.00,50,22.5
48334,LAMPANG AGROMET.,ลำปาง สกษ.,ลำปาง,18.31667,99.28333,31.8,10-09-2019,16:00:00,0.00,000,1007.42,972.55,28.82,8.00,0.0,0.00,61,23.4
48350,LOEI AGROMET.,เลย สกษ.,เลย,17.40000,101.73333,30.0,10-09-2019,16:00:00,0.00,000,1007.89,978.50,30.59,17.00,0.0,0.10,72,24.4
48351,UTTARADIT,อุตรดิตถ์,อุตรดิตถ์,17.61667,100.10000,34.6,10-09-2019,16:00:00,0.00,000,1007.51,1000.39,27.65,9.00,0.0,7.70,50,22.7
48352,NONG KHAI,หนองคาย,หนองคาย,17.86717,102.73303,33.5,10-09-2019,16:00:00,0.00,090,1007.67,988.19,30.28,8.00,3.7,10.40,59,24.2
48353,LOEI,เลย,เลย,17.45000,101.73333,30.1,10-09-2019,16:00:00,0.00,000,1008.54,980.17,27.74,15.00,0.0,0.00,65,22.8
48354,UDON THANI,อุดรธานี,อุดรธานี,17.38333,102.80000,33.1,10-09-2019,16:00:00,0.00,010,1007.97,988.20,26.92,18.00,5.6,0.00,53,22.3
48355,SAKON NAKHON AGROMET.,สกลนคร สกษ.,สกลนคร,17.12503,104.06100,33.6,10-09-2019,16:00:00,0.00,100,1008.33,987.06,30.20,12.00,7.4,0.00,58,24.2
48356,SAKON NAKHON,สกลนคร,สกลนคร,17.15000,104.13333,33.0,10-09-2019,16:00:00,0.00,160,1007.47,988.37,27.28,15.00,5.6,0.01,54,22.5
48357,NAKHON PHANOM,นครพนม,นครพนม,17.41083,104.78250,31.0,10-09-2019,16:00:00,0.00,010,1008.71,992.17,27.82,13.00,5.6,0.20,62,22.8
48358,NAKHON PHANOM AGROMET.,นครพนม สกษ.,นครพนม,17.44306,104.77361,32.9,10-09-2019,16:00:00,0.00,090,1008.42,991.33,27.92,12.00,5.6,0.00,56,22.9
48360,NONG BUA LAM PHU,หนองบัวลำภู,หนองบัวลำภู,17.23250,102.42944,32.0,10-09-2019,16:00:00,0.00,040,1007.41,982.06,28.38,12.00,3.7,0.00,60,23.2
48372,SUKHOTHAI*,สุโขทัย,สุโขทัย,17.10611,99.80000,33.4,10-09-2019,16:00:00,0.00,030,1007.23,1001.56,30.37,8.00,3.7,0.00,59,24.3
48373,SI SAMRONG AGROMET.,ศรีสำโรง สกษ.,สุโขทัย,17.16136,99.86167,33.5,10-09-2019,16:00:00,0.00,130,1007.29,1001.23,30.28,8.00,14.8,0.00,59,24.2
48374,LOM SAK,หล่มสัก,เพชรบูรณ์,16.77361,101.24944,27.5,10-09-2019,16:00:00,0.00,000,1010.08,993.62,29.06,10.00,0.0,0.10,79,23.6
48375,MAE SOT,แม่สอด,ตาก,16.65917,98.55083,31.5,10-09-2019,16:00:00,0.00,120,1005.19,983.24,27.13,10.00,3.7,0.00,59,22.4
48376,TAK,ตาก,ตาก,16.87833,99.14333,32.8,10-09-2019,16:00:00,0.00,080,1007.71,993.58,30.86,10.00,3.7,0.00,62,24.6
48377,BHUMIBOL DAM,เขื่อนภูมิพล,ตาก,17.24389,99.00250,33.7,10-09-2019,16:00:00,0.00,000,1006.97,990.95,28.68,7.00,0.0,2.50,55,23.3
48378,PHITSANULOK,พิษณุโลก,พิษณุโลก,16.79481,100.27930,30.4,10-09-2019,16:00:00,1.90,030,1008.35,1003.17,28.86,10.00,7.4,1.90,66,23.5
48379,PHETCHABUN,เพชรบูรณ์,เพชรบูรณ์,16.43333,101.15000,27.3,10-09-2019,16:00:00,0.00,020,1007.80,994.61,28.96,10.00,5.6,0.70,80,23.5
48380,KAMPHAENG PHET,กำแพงเพชร,กำแพงเพชร,16.48681,99.52697,33.0,10-09-2019,16:00:00,0.00,050,1007.81,998.66,31.57,12.00,1.9,0.00,63,24.9
48381,KHON KAEN,ขอนแก่น,ขอนแก่น,16.46111,102.78972,32.4,10-09-2019,16:00:00,0.00,000,1007.47,986.16,27.22,10.00,0.0,0.00,56,22.5
48382,MAHASARAKHAM,มหาสารคาม,มหาสารคาม,16.24722,103.06805,32.7,10-09-2019,16:00:00,0.00,070,1007.56,990.38,30.07,12.00,9.3,0.00,61,24.1
48383,MUKDAHAN,มุกดาหาร,มุกดาหาร,16.54139,104.72889,34.0,10-09-2019,16:00:00,0.00,050,1007.15,991.68,28.72,12.00,9.3,0.01,54,23.4
48384,THA PHRA AGROMET.,ท่าพระ สกษ.,ขอนแก่น,16.33333,102.81667,33.7,10-09-2019,16:00:00,0.00,000,1006.67,988.21,28.68,10.00,0.0,0.00,55,23.3
48385,UMPHANG,อุ้มผาง,ตาก,16.02472,98.86444,26.0,10-09-2019,16:00:00,0.50,000,1009.06,957.79,25.11,8.00,0.0,0.50,75,21.2
48386,PICHIT AGROMET.,พิจิตร สกษ.,พิจิตร,16.43806,100.29250,27.8,10-09-2019,16:00:00,2.40,090,1008.26,1004.31,30.45,7.00,13.0,2.40,82,24.3
48387,DOI MU SOE AGROMET.,ดอยมูเซอร์ สกษ.,ตาก,16.75000,98.93333,25.0,10-09-2019,16:00:00,0.00,000,1007.89,913.77,25.19,7.00,0.0,0.00,80,21.2
48390,KALASIN,กาฬสินธุ์,กาฬสินธุ์,16.33250,103.58833,33.0,10-09-2019,16:00:00,0.00,000,1007.49,991.81,29.25,10.00,0.0,0.00,58,23.7
48400,NAKHON SAWAN,นครสวรรค์ ,นครสวรรค์,15.67183,100.13236,33.3,10-09-2019,16:00:00,0.00,050,1007.99,1004.04,32.51,6.00,5.6,30.00,64,25.4
48401,TAKFA AGROMET.,ตากฟ้า สกษ.,นครสวรรค์,15.34944,100.53028,27.9,10-09-2019,16:00:00,0.00,120,1009.43,998.76,30.64,10.00,13.0,30.00,82,24.4
48402,CHAINAT AGROMET.,ชัยนาท สกษ.,ชัยนาท,15.15000,100.18333,33.5,10-09-2019,16:00:00,0.00,150,1007.93,1006.04,30.28,10.00,1.9,0.01,59,24.2
48403,CHAIYAPHUM,ชัยภูมิ,ชัยภูมิ,15.80000,102.03333,32.6,10-09-2019,16:00:00,0.00,000,1007.49,987.00,29.87,12.00,0.0,0.00,61,24.0
48404,ROI ET AGROMET.,ร้อยเอ็ด สกษ.,ร้อยเอ็ด,16.07322,103.60844,32.1,10-09-2019,16:00:00,0.00,340,1007.23,989.86,29.14,10.00,5.6,0.00,61,23.6
48405,ROI ET,ร้อยเอ็ด,ร้อยเอ็ด,16.02000,103.74389,33.1,10-09-2019,16:00:00,0.00,000,1006.94,991.10,29.46,10.00,0.0,0.00,58,23.8
48407,UBON RATCHATHANI,อุบลราชธานี (ศูนย์ฯ),อุบลราชธานี,15.25000,104.86667,32.8,10-09-2019,16:00:00,0.00,030,1007.25,993.48,28.28,10.00,5.6,0.00,57,23.1
48408,UBON RATCHATHANI AGROMET.,อุบลราชธานี สกษ.,อุบลราชธานี,15.23914,105.02350,32.7,10-09-2019,16:00:00,0.00,000,1007.80,993.24,32.71,10.00,0.0,0.00,66,25.5
48409,SI SAKET AGROMET.,ศรีสะเกษ,ศรีสะเกษ,15.00000,104.05000,33.0,10-09-2019,16:00:00,0.00,000,1007.98,993.59,33.06,10.00,0.0,0.00,66,25.7
48410,UTHAITHANI,อุทัยธานี,อุทัยธานี,15.37417,100.03889,33.3,10-09-2019,16:00:00,0.00,"{'0': '   ', '@attributes': {'Unit': 'degree'}}",1007.20,1004.25,30.45,10.00,0.0,28.10,60,24.3
48413,WICHIAN BURI,วิเชียรบุรี,เพชรบูรณ์,15.65700,101.10800,29.2,10-09-2019,16:00:00,0.01,000,1007.82,999.92,28.21,10.00,0.0,15.30,70,23.1
48415,AYUTTHAYA,พระนครศรีอยุธยา,พระนครศรีอยุธยา,14.53472,100.72500,28.3,10-09-2019,16:00:00,0.00,040,1007.84,1006.73,30.87,8.00,9.3,1.20,80,24.6
48416,THA TUM,ท่าตูม,สุรินทร์,15.31667,103.68333,32.6,10-09-2019,16:00:00,0.00,000,1009.78,995.32,33.99,9.00,0.0,0.00,69,26.2
48417,NAKORNNAYOK,นครนายก,นครนายก,14.36222,101.39278,20.0,10-09-2019,16:00:00,2.00,040,1009.40,874.31,23.13,2.00,3.7,38.80,99,19.8
48418,BUA CHUM,บัวชุม  ,ลพบุรี,15.26667,101.18736,26.0,10-09-2019,16:00:00,14.50,000,1008.24,1002.34,32.20,10.00,0.0,22.20,96,25.3
48419,PATHUMTHANI,ปทุมธานี สกษ.,ปทุมธานี,14.10000,100.61667,31.0,10-09-2019,16:00:00,0.00,050,1007.81,1007.01,30.90,8.00,9.3,0.00,69,24.6
48420,Samut Prakarn,สมุทรปราการ สกษ.,สมุทรปราการ,13.51667,100.76167,31.0,10-09-2019,16:00:00,0.00,120,1007.69,1007.25,32.34,10.00,16.7,6.40,72,25.4
48421,THONG PHAPHUM,ทองผาภูมิ,กาญจนบุรี,14.74222,98.63639,30.3,10-09-2019,16:00:00,2.70,000,1007.21,996.02,32.34,7.00,0.0,2.70,75,25.3
48425,SUPHAN BURI,สุพรรณบุรี,สุพรรณบุรี,14.47444,100.13889,33.6,10-09-2019,16:00:00,0.00,000,1007.46,1006.47,30.78,9.00,0.0,0.00,59,24.5
48426,LOP BURI,ลพบุรี,ลพบุรี,14.79972,100.64500,25.7,10-09-2019,16:00:00,20.20,360,1008.50,1006.67,30.81,7.00,3.7,44.70,93,24.5
48427,U THONG AGROMET.,อู่ทอง สกษ.,สุพรรณบุรี,14.30361,99.86472,33.1,10-09-2019,16:00:00,0.00,000,1007.13,1006.38,30.61,9.00,0.0,0.00,61,24.4
48429,SUVARNABHUMI AIRPORT,สนามบินสุวรรณภูมิ,สมุทรปราการ,13.68639,100.76750,29.5,10-09-2019,16:00:00,0.00,030,1007.89,1007.19,28.78,10.00,14.8,0.60,70,23.4
48430,PRACHIN BURI,ปราจีนบุรี,ปราจีนบุรี,14.05842,101.36930,29.1,10-09-2019,16:00:00,10.30,000,1007.50,1006.81,30.49,10.00,0.0,10.30,76,24.4
48431,NAKHON RATCHASIMA,นครราชสีมา,นครราชสีมา,14.96830,102.08603,30.1,10-09-2019,16:00:00,0.00,090,1008.04,987.08,31.64,9.00,3.7,0.00,74,25.0
48432,SURIN,สุรินทร์,สุรินทร์,14.88333,103.50000,28.8,10-09-2019,16:00:00,0.00,000,1008.04,991.41,29.90,10.00,0.0,0.00,76,24.0
48433,SURIN AGROMET.,สุรินทร์ สกษ.,สุรินทร์,14.88333,103.45000,28.2,10-09-2019,16:00:00,5.60,220,1008.99,992.59,31.23,9.00,5.6,5.60,82,24.8
48434,CHOK CHAI,โชคชัย,นครราชสีมา,14.71889,102.16861,26.5,10-09-2019,16:00:00,0.30,000,1008.81,986.88,30.70,8.00,0.0,8.50,89,24.5
48435,PAKCHONG AGROMET.,ปากช่อง สกษ.,นครราชสีมา,14.64389,101.33194,25.3,10-09-2019,16:00:00,0.00,000,1008.75,965.20,29.01,6.00,0.0,0.40,90,23.5
48436,NANG RONG,นางรอง,บุรีรัมย์,14.58333,102.80000,23.0,10-09-2019,16:00:00,34.60,190,1009.59,988.70,26.83,1.00,13.0,38.50,96,22.2
48437,BURIRUM,บุรีรัมย์,บุรีรัมย์,15.22575,103.24808,29.6,10-09-2019,16:00:00,0.00,340,1009.38,988.69,34.37,10.00,3.7,0.00,83,26.4
48438,SAMUTSONGKRAM,สมุทรสงคราม,สมุทรสงคราม,13.40778,100.03222,32.2,10-09-2019,16:00:00,0.00,"{'0': '   ', '@attributes': {'Unit': 'degree'}}",1007.43,1007.01,30.48,10.00,0.0,0.00,63,24.4
48439,KABIN BURI,กบินทร์บุรี,ปราจีนบุรี,13.98333,101.70722,27.5,10-09-2019,16:00:00,5.20,000,1009.33,1007.91,31.52,11.00,0.0,5.70,86,24.9
48440,SA KAEW,สระแก้ว,สระแก้ว,13.78889,102.03472,30.8,10-09-2019,16:00:00,0.00,000,1007.41,1002.54,33.09,10.00,0.0,0.00,75,25.7
48450,KANCHANA BURI,กาญจนบุรี,กาญจนบุรี,14.02250,99.53583,34.3,10-09-2019,16:00:00,0.00,080,1007.11,1003.90,28.76,12.00,3.7,0.00,53,23.4
48451,NAKHONPATHOM,นครปฐม,นครปฐม,14.01167,99.97000,34.0,10-09-2019,16:00:00,0.00,000,1007.38,1006.30,31.04,10.00,0.0,0.00,58,24.7
48453,BANG NA AGROMET.,กรุงเทพฯ บางนา สกษ.,กรุงเทพมหานคร,13.66639,100.60611,29.2,10-09-2019,16:00:00,13.10,290,1007.77,1007.47,32.38,9.00,5.6,13.10,80,25.4
48454,BANGKOK PORT (KLONG TOEI),กรุงเทพฯ ท่าเรือคลองเตย,กรุงเทพมหานคร,13.70694,100.56805,28.7,10-09-2019,16:00:00,4.80,000,1008.45,1007.77,31.38,{'@attributes': {'Unit': 'km'}},0.0,4.80,80,24.8
48455,BANGKOK METROPOLIS,กรุงเทพมหานคร,กรุงเทพมหานคร,13.72639,100.56000,28.8,10-09-2019,16:00:00,0.70,000,1007.55,1007.06,31.29,8.00,0.0,0.70,79,24.8
48456,DON MUANG AIRPORT,สนามบินดอนเมือง,กรุงเทพมหานคร,13.91917,100.60500,28.2,10-09-2019,16:00:00,0.01,340,1008.10,1006.70,28.22,10.00,7.4,0.01,74,23.1
48457,PILOT STATION,นำร่อง,สมุทรปราการ,13.39389,100.59944,32.1,10-09-2019,16:00:00,0.00,000,1007.85,1006.19,32.61,8.00,0.0,5.80,68,25.5
48458,CHACHOENGSAO,ฉะเชิงเทรา,ฉะเชิงเทรา,13.51556,101.45833,29.0,10-09-2019,16:00:00,0.01,000,1009.48,1001.51,33.99,10.00,0.0,2.50,85,26.2
48459,CHON BURI,ชลบุรี,ชลบุรี,13.36667,100.98333,33.0,10-09-2019,16:00:00,0.00,250,1006.84,1006.56,32.16,4.00,7.4,23.30,64,25.3
48460,KO SICHANG,เกาะสีชัง,ชลบุรี,13.16167,100.80194,31.7,10-09-2019,16:00:00,0.00,300,1007.59,1004.51,31.77,10.00,5.6,84.50,68,25.0
48461,PHATTHAYA,พัทยา,ชลบุรี,12.92000,100.86944,30.5,10-09-2019,16:00:00,0.00,270,1007.94,1001.07,29.89,8.00,5.6,10.90,68,24.0
48462,ARANYA PRATHET,อรัญประเทศ,สระแก้ว,13.70000,102.58333,33.8,10-09-2019,16:00:00,0.00,150,1007.81,1002.33,28.88,10.00,9.3,0.00,55,23.5
48463,LAEM CHABANG,แหลมฉบัง,ชลบุรี,13.07694,100.87583,31.0,10-09-2019,16:00:00,0.00,260,1008.59,999.39,33.81,8.00,3.7,22.10,75,26.1
48464,RATCHA BURI,ราชบุรี,ราชบุรี,13.48931,99.79239,32.5,10-09-2019,16:00:00,0.00,140,1008.47,1007.23,31.98,12.00,3.7,19.20,65,25.2
48465,PHETCHA BURI,เพชรบุรี,เพชรบุรี,12.99944,100.06056,32.6,10-09-2019,16:00:00,0.00,000,1007.12,1006.70,31.90,11.00,0.0,14.00,65,25.1
48474,NONG PHLUB AGROMET.,หนองพลับ สกษ.,ประจวบคีรีขันธ์,12.58333,99.73333,30.2,10-09-2019,16:00:00,0.00,000,1007.52,995.39,30.14,8.00,0.0,0.00,70,24.2
48475,HUA HIN,หัวหิน,ประจวบคีรีขันธ์,12.58611,99.96250,30.9,10-09-2019,16:00:00,0.00,000,1008.30,1007.60,32.13,9.00,0.0,0.00,72,25.2
48477,SATTAHIP,สัตหีบ,ชลบุรี,12.68333,100.98333,31.0,10-09-2019,16:00:00,0.00,340,1008.34,1005.93,33.81,{'@attributes': {'Unit': 'km'}},7.4,0.00,75,26.1
48478,RAYONG,ระยอง,ระยอง,12.63222,101.34361,32.0,10-09-2019,16:00:00,0.00,320,1007.90,1007.39,30.36,10.00,11.1,0.01,64,24.3
48479,HUAI PONG AGROMET.,ห้วยโป่ง สกษ.,ระยอง,12.73333,101.13333,31.3,10-09-2019,16:00:00,0.01,280,1007.58,1002.49,28.96,11.00,13.0,0.20,63,23.5
48480,CHANTHA BURI,จันทบุรี,จันทบุรี,12.61667,102.11333,31.8,10-09-2019,16:00:00,0.00,190,1007.61,1007.20,31.68,10.00,11.1,0.00,67,25.0
48481,PHLIU  AGROMET.,พลิ้ว สกษ.,จันทบุรี,12.50861,102.17305,30.4,10-09-2019,16:00:00,0.00,000,1007.68,1004.93,35.20,8.00,0.0,0.20,81,26.8
48500,PRACHUAP KHIRIKHAN,ประจวบคีรีขันธ์,ประจวบคีรีขันธ์,11.83333,99.83333,32.0,10-09-2019,16:00:00,0.00,000,1007.30,1006.52,33.58,8.00,0.0,0.00,71,26.0
48501,TRAD,ตราด,ตราด,11.76667,102.88333,29.5,10-09-2019,16:00:00,1.80,070,1008.03,1007.58,33.00,8.00,3.7,6.60,80,25.7
48517,CHUMPHON,ชุมพร,ชุมพร,10.49875,99.18847,31.0,10-09-2019,16:00:00,0.00,120,1008.09,1007.42,31.47,10.00,3.7,26.40,70,24.9
48520,SAWI AGROMET.,สวี สกษ.,ชุมพร,10.33333,99.10000,32.5,10-09-2019,16:00:00,0.00,080,1008.75,1007.25,30.53,9.00,7.4,2.00,62,24.4
48532,RANONG,ระนอง,ระนอง,9.98333,98.61667,32.6,10-09-2019,16:00:00,0.00,070,1007.40,1006.50,29.87,10.00,3.7,0.40,61,24.0
48550,KO SAMUI,เกาะสมุย,สุราษฎร์ธานี,9.46667,100.05000,30.5,10-09-2019,16:00:00,0.00,080,1007.85,1007.17,33.63,12.00,13.0,0.00,77,26.0
48551,SURAT THANI,สุราษฎร์ธานี,สุราษฎร์ธานี,9.13556,99.15194,28.3,10-09-2019,16:00:00,0.00,180,1008.08,1007.29,30.04,10.00,5.6,0.00,78,24.1
48552,NAKHONSI THAMMARAT,นครศรีธรรมราช,นครศรีธรรมราช,8.53778,99.96389,29.8,10-09-2019,16:00:00,0.00,000,1007.42,1006.79,32.75,10.00,0.0,3.70,78,25.6
48554,NAKHONSI THAMMARAT AGROMET.,นครศรีธรรมราช สกษ.,นครศรีธรรมราช,8.35931,100.00000,29.8,10-09-2019,16:00:00,0.00,000,1007.93,1007.52,31.89,10.00,0.0,1.50,76,25.1
48555,SURAT THANI AGROMET.,สุราษฎร์ธานี สกษ.,สุราษฎร์ธานี,9.10000,99.63333,31.5,10-09-2019,16:00:00,0.40,000,1009.19,1005.04,31.35,7.00,0.0,1.40,68,24.8
48556,PHRA SANG,พระแสง สอท.,สุราษฎร์ธานี,8.57022,99.25825,29.7,10-09-2019,16:00:00,0.00,000,1006.22,1004.63,29.44,12.00,0.0,0.60,71,23.8
48557,CHAWANG,ฉวาง,นครศรีธรรมราช,8.43194,99.51194,28.5,10-09-2019,16:00:00,0.00,000,1008.35,1004.89,30.15,12.00,0.0,3.10,78,24.2
48560,PHATTHALUNG AGROMET.,พัทลุง สกษ.,พัทลุง,7.58333,100.16667,31.4,10-09-2019,16:00:00,0.00,040,1007.44,1006.10,30.57,10.00,7.4,0.60,67,24.4
48561,TAKUA PA,ตะกั่วป่า,พังงา,8.68417,98.25222,31.3,10-09-2019,16:00:00,0.00,240,1007.71,1006.84,31.23,10.00,7.4,5.50,68,24.8
48563,KRABI,กระบี่,กระบี่,8.10361,98.97528,29.0,10-09-2019,16:00:00,0.00,190,1007.37,1003.83,31.98,{'@attributes': {'Unit': 'km'}},11.1,2.20,80,25.2
48564,PHUKET,ภูเก็ต,ภูเก็ต,7.88333,98.40000,32.4,10-09-2019,16:00:00,0.00,230,1007.35,1006.92,30.03,10.00,11.1,4.80,62,24.1
48565,PHUKET AIRPORT,ภูเก็ต (ศูนย์ฯ),ภูเก็ต,8.14500,98.31444,31.0,10-09-2019,16:00:00,0.00,250,1007.88,1006.90,32.05,10.00,9.3,13.00,71,25.2
48566,KO LANTA,เกาะลันตา,กระบี่,7.53333,99.05000,24.7,10-09-2019,16:00:00,40.00,000,1009.73,{'@attributes': {'unit': 'hPa'}},27.95,7.00,0.0,40.00,90,22.9
48567,TRANG AIRPORT,ตรัง,ตรัง,7.51667,99.61667,26.3,10-09-2019,16:00:00,2.80,320,1008.36,1006.54,31.41,10.00,7.4,2.80,92,24.9
48568,SONGKHLA,สงขลา,สงขลา,7.18211,100.60769,30.0,10-09-2019,16:00:00,0.00,030,1007.68,1006.93,31.15,12.00,3.7,53.70,73,24.7
48569,HAT YAI AIRPORT,หาดใหญ่,สงขลา,6.91667,100.43333,26.5,10-09-2019,16:00:00,0.01,240,1007.98,1003.97,29.35,10.00,14.8,11.00,85,23.7
48570,SATUN,สตูล,สตูล,6.65000,100.08333,25.4,10-09-2019,16:00:00,24.00,000,1008.31,1007.62,29.19,6.00,0.0,56.00,90,23.6
48571,KHO HONG AGROMET.,คอหงษ์ สกษ.,สงขลา,7.00000,100.50000,30.4,10-09-2019,16:00:00,0.00,000,1007.49,1006.39,31.39,10.00,0.0,19.00,72,24.9
48574,SA DAO,สะเดา,สงขลา,6.79806,100.39056,25.4,10-09-2019,16:00:00,26.50,310,1008.34,1005.41,31.06,9.00,7.4,39.20,96,24.7
48580,PATTANI AIRPORT,ปัตตานี,ปัตตานี,6.78333,101.15000,31.8,10-09-2019,16:00:00,0.00,010,1007.29,1006.62,31.39,12.00,11.1,8.20,67,24.9
48581,YALA AGROMET.,ยะลา สกษ.,ยะลา,6.51667,101.28333,27.0,10-09-2019,16:00:00,2.10,230,1007.92,1003.79,30.02,7.00,11.1,22.10,84,24.1
48583,NARATHIWAT,นราธิวาส,นราธิวาส,6.41667,101.81667,29.5,10-09-2019,16:00:00,0.00,050,1007.50,1006.92,29.88,10.00,13.0,84.10,72,24.0
