WmoStationNumber,StationNameEnglish,StationNameThai,Province,Latitude,Longitude,WindSpeed,Date,Time,DewPoint,StationPressure,AirTemperature,VaporPressure,LandVisibility,WindDirection,Rainfall24Hr,RelativeHumidity,Rainfall,MeanSeaLevelPressure
48300,MAE HONG SON,แม่ฮ่องสอน,แม่ฮ่องสอน,19.29897,97.97578,0.0,10-03-2019,10:00:00,23.7,981.07,29.1,29.38,12.00,000,0.00,73,0.00,1011.82
48302,DOI ANG KANG,ดอยอ่างขาง,เชียงใหม่,19.93139,99.04833,7.4,10-03-2019,10:00:00,19.4,849.30,21.6,22.51,8.00,280,0.00,87,0.00,1009.60
48303,CHIANG RAI,เชียงราย,เชียงราย,19.96139,99.88139,1.9,10-03-2019,10:00:00,23.5,968.17,30.3,28.94,12.00,020,0.40,67,0.00,1011.32
48304,CHAING RAI AGROMET.,เชียงราย สกษ.,เชียงราย,19.87083,99.78278,3.7,10-03-2019,10:00:00,23.7,966.16,30.1,29.39,15.00,060,0.00,69,0.00,1011.21
48307,THUNG CHANG,ทุ่งช้าง,น่าน,19.41194,100.88353,0.0,10-03-2019,10:00:00,24.4,974.73,29.0,30.57,10.00,000,0.00,76,0.00,1012.15
48310,PHAYAO,พะเยา,พะเยา,19.13333,99.90000,0.0,10-03-2019,10:00:00,22.9,960.04,29.5,27.96,9.00,000,0.00,68,0.00,1004.44
48315,THA WANGPHA,ท่าวังผา,น่าน,19.11056,100.80250,0.0,10-03-2019,10:00:00,24.8,986.22,28.8,31.29,8.00,000,0.00,79,0.00,1012.86
48324,THOEN,เถิน,ลำปาง,17.63661,99.24475,1.9,10-03-2019,10:00:00,23.8,989.82,31.3,29.52,10.00,120,0.00,65,0.00,1011.32
48325,MAE SARIANG,แม่สะเรียง,แม่ฮ่องสอน,18.16667,97.93333,0.0,10-03-2019,10:00:00,23.9,988.13,28.5,29.60,10.00,000,0.00,76,0.00,1012.18
48327,CHIANG MAI,เชียงใหม่,เชียงใหม่,18.79000,98.97694,3.7,10-03-2019,10:00:00,22.7,977.58,30.0,27.55,12.00,310,0.00,65,0.00,1011.81
48328,LAMPANG,ลำปาง,ลำปาง,18.28333,99.51667,0.0,10-03-2019,10:00:00,24.6,984.53,30.3,30.91,10.00,000,13.00,72,0.00,1011.83
48329,LAMPHUN,ลำพูน,ลำพูน,18.56722,99.03389,0.0,10-03-2019,10:00:00,23.2,978.36,29.5,28.50,10.00,000,0.00,69,0.00,1011.71
48330,PHRAE,แพร่,แพร่,18.16667,100.16667,3.7,10-03-2019,10:00:00,26.1,993.01,31.0,33.81,3.00,250,0.00,75,0.00,1011.32
48331,NAN,น่าน,น่าน,18.77972,100.77778,0.0,10-03-2019,10:00:00,24.6,989.40,31.0,30.90,10.00,000,0.00,69,0.00,1011.99
48333,NAN AGROMET.,น่าน สกษ.,น่าน,18.86667,100.75000,5.6,10-03-2019,10:00:00,24.5,982.37,29.5,30.72,12.00,210,0.00,75,0.00,1012.10
48334,LAMPANG AGROMET.,ลำปาง สกษ.,ลำปาง,18.31667,99.28333,0.0,10-03-2019,10:00:00,24.8,976.66,30.6,31.23,8.00,000,0.00,71,0.00,1011.82
48350,LOEI AGROMET.,เลย สกษ.,เลย,17.40000,101.73333,7.4,10-03-2019,10:00:00,24.6,981.72,30.9,30.98,6.00,330,0.00,69,0.00,1011.11
48351,UTTARADIT,อุตรดิตถ์,อุตรดิตถ์,17.61667,100.10000,0.0,10-03-2019,10:00:00,25.4,1004.52,31.2,32.47,8.00,000,0.00,71,0.00,1011.75
48352,NONG KHAI,หนองคาย,หนองคาย,17.86717,102.73303,5.6,10-03-2019,10:00:00,24.9,991.80,32.0,31.52,6.00,150,0.00,66,0.00,1011.45
48353,LOEI,เลย,เลย,17.45000,101.73333,3.7,10-03-2019,10:00:00,23.0,983.15,31.0,28.09,5.00,260,0.00,63,0.00,1011.52
48354,UDON THANI,อุดรธานี,อุดรธานี,17.38333,102.80000,3.7,10-03-2019,10:00:00,24.0,991.62,32.0,29.79,8.00,140,0.00,63,0.00,1011.54
48355,SAKON NAKHON AGROMET.,สกลนคร สกษ.,สกลนคร,17.12503,104.06100,3.7,10-03-2019,10:00:00,24.7,991.06,32.1,31.15,7.00,150,0.00,65,0.00,1012.53
48356,SAKON NAKHON,สกลนคร,สกลนคร,17.15000,104.13333,9.3,10-03-2019,10:00:00,23.3,992.39,32.0,28.66,9.00,100,0.00,60,0.00,1011.64
48357,NAKHON PHANOM,นครพนม,นครพนม,17.41083,104.78250,1.9,10-03-2019,10:00:00,21.7,995.69,32.0,25.91,8.00,060,0.00,54,0.00,1012.24
48358,NAKHON PHANOM AGROMET.,นครพนม สกษ.,นครพนม,17.44306,104.77361,3.7,10-03-2019,10:00:00,23.7,995.17,33.0,29.25,9.00,120,0.00,58,0.00,1012.32
48360,NONG BUA LAM PHU,หนองบัวลำภู,หนองบัวลำภู,17.23250,102.42944,0.0,10-03-2019,10:00:00,25.6,985.57,31.1,32.84,9.00,000,0.00,73,0.00,1011.09
48372,SUKHOTHAI*,สุโขทัย,สุโขทัย,17.10611,99.80000,3.7,10-03-2019,10:00:00,26.8,1005.86,31.0,35.31,6.00,210,0.00,79,0.00,1011.60
48373,SI SAMRONG AGROMET.,ศรีสำโรง สกษ.,สุโขทัย,17.16136,99.86167,9.3,10-03-2019,10:00:00,26.4,1005.52,31.0,34.41,7.00,140,0.00,77,0.00,1011.66
48374,LOM SAK,หล่มสัก,เพชรบูรณ์,16.77361,101.24944,0.0,10-03-2019,10:00:00,24.0,996.52,30.6,29.81,9.00,000,0.00,68,0.00,1012.85
48375,MAE SOT,แม่สอด,ตาก,16.65917,98.55083,5.6,10-03-2019,10:00:00,23.4,988.57,29.5,28.78,10.00,060,0.00,70,0.00,1010.79
48376,TAK,ตาก,ตาก,16.87833,99.14333,3.7,10-03-2019,10:00:00,24.6,997.58,30.6,30.94,10.00,150,0.00,70,0.00,1011.86
48377,BHUMIBOL DAM,เขื่อนภูมิพล,ตาก,17.24389,99.00250,0.0,10-03-2019,10:00:00,24.5,995.69,32.2,30.77,8.00,000,0.00,64,0.00,1011.87
48378,PHITSANULOK,พิษณุโลก,พิษณุโลก,16.79481,100.27930,5.6,10-03-2019,10:00:00,25.4,1006.52,31.0,32.34,8.00,140,0.00,72,0.00,1011.70
48379,PHETCHABUN,เพชรบูรณ์,เพชรบูรณ์,16.43333,101.15000,0.0,10-03-2019,10:00:00,24.6,997.74,31.0,30.90,10.00,000,0.00,69,0.00,1010.81
48380,KAMPHAENG PHET,กำแพงเพชร,กำแพงเพชร,16.48681,99.52697,3.7,10-03-2019,10:00:00,24.6,1002.35,31.4,30.86,10.00,250,0.00,67,0.00,1011.58
48381,KHON KAEN,ขอนแก่น,ขอนแก่น,16.46111,102.78972,5.6,10-03-2019,10:00:00,24.5,990.10,31.6,30.69,6.00,180,0.00,66,0.00,1011.55
48382,MAHASARAKHAM,มหาสารคาม,มหาสารคาม,16.24722,103.06805,9.3,10-03-2019,10:00:00,25.8,994.28,32.5,33.17,8.00,120,0.00,68,0.00,1011.54
48383,MUKDAHAN,มุกดาหาร,มุกดาหาร,16.54139,104.72889,3.7,10-03-2019,10:00:00,24.9,995.77,32.0,31.52,12.00,120,0.00,66,0.00,1011.41
48384,THA PHRA AGROMET.,ท่าพระ สกษ.,ขอนแก่น,16.33333,102.81667,0.0,10-03-2019,10:00:00,25.3,992.07,31.5,32.22,8.00,000,0.00,70,0.00,1010.75
48385,UMPHANG,อุ้มผาง,ตาก,16.02472,98.86444,0.0,10-03-2019,10:00:00,21.8,961.51,27.0,26.06,11.00,000,0.00,73,0.00,1012.81
48386,PICHIT AGROMET.,พิจิตร สกษ.,พิจิตร,16.43806,100.29250,13.0,10-03-2019,10:00:00,26.3,1007.58,30.5,34.22,3.00,140,0.00,78,0.00,1011.51
48387,DOI MU SOE AGROMET.,ดอยมูเซอร์ สกษ.,ตาก,16.75000,98.93333,5.6,10-03-2019,10:00:00,20.6,917.30,24.9,24.29,7.00,190,0.00,77,0.00,1011.82
48390,KALASIN,กาฬสินธุ์,กาฬสินธุ์,16.33250,103.58833,5.6,10-03-2019,10:00:00,24.7,995.55,30.7,31.15,10.00,090,0.00,71,0.00,1011.41
48400,NAKHON SAWAN,นครสวรรค์ ,นครสวรรค์,15.67183,100.13236,7.4,10-03-2019,10:00:00,25.9,1007.81,30.3,33.50,5.00,230,0.00,78,0.00,1011.82
48401,TAKFA AGROMET.,ตากฟ้า สกษ.,นครสวรรค์,15.34944,100.53028,5.6,10-03-2019,10:00:00,26.2,1002.03,30.3,34.09,9.00,140,21.70,79,0.00,1012.65
48402,CHAINAT AGROMET.,ชัยนาท สกษ.,ชัยนาท,15.15000,100.18333,5.6,10-03-2019,10:00:00,26.4,1008.95,30.7,34.36,9.00,090,0.00,78,0.00,1010.87
48403,CHAIYAPHUM,ชัยภูมิ,ชัยภูมิ,15.80000,102.03333,5.6,10-03-2019,10:00:00,24.4,990.96,31.8,30.53,8.00,220,0.00,65,0.00,1011.58
48404,ROI ET AGROMET.,ร้อยเอ็ด สกษ.,ร้อยเอ็ด,16.07322,103.60844,7.4,10-03-2019,10:00:00,24.1,993.77,32.0,30.08,9.00,220,0.00,63,0.00,1011.22
48405,ROI ET,ร้อยเอ็ด,ร้อยเอ็ด,16.02000,103.74389,0.0,10-03-2019,10:00:00,24.2,995.20,32.8,30.28,10.00,000,0.00,61,0.00,1011.12
48407,UBON RATCHATHANI,อุบลราชธานี (ศูนย์ฯ),อุบลราชธานี,15.25000,104.86667,9.3,10-03-2019,10:00:00,25.4,998.11,31.3,32.39,8.00,110,0.00,71,0.00,1012.02
48408,UBON RATCHATHANI AGROMET.,อุบลราชธานี สกษ.,อุบลราชธานี,15.23914,105.02350,7.4,10-03-2019,10:00:00,25.4,997.66,29.2,32.38,7.00,360,0.00,80,0.00,1012.46
48409,SI SAKET AGROMET.,ศรีสะเกษ,ศรีสะเกษ,15.00000,104.05000,5.6,10-03-2019,10:00:00,26.8,997.65,31.4,35.28,9.00,200,0.00,77,0.00,1012.18
48410,UTHAITHANI,อุทัยธานี,อุทัยธานี,15.37417,100.03889,0.0,10-03-2019,10:00:00,26.1,1008.90,30.9,33.89,5.00,"{'@attributes': {'Unit': 'degree'}, '0': '   '}",0.00,76,0.00,1011.89
48413,WICHIAN BURI,วิเชียรบุรี,เพชรบูรณ์,15.65700,101.10800,0.0,10-03-2019,10:00:00,22.8,1003.89,31.5,27.68,10.00,000,0.00,60,0.00,1011.76
48415,AYUTTHAYA,พระนครศรีอยุธยา,พระนครศรีอยุธยา,14.53472,100.72500,9.3,10-03-2019,10:00:00,25.8,1011.40,32.0,33.29,8.00,220,0.00,70,0.00,1012.50
48416,THA TUM,ท่าตูม,สุรินทร์,15.31667,103.68333,3.7,10-03-2019,10:00:00,23.6,993.96,28.5,29.05,9.00,100,0.00,75,0.00,1008.59
48417,NAKORNNAYOK,นครนายก,นครนายก,14.36222,101.39278,5.6,10-03-2019,10:00:00,20.5,877.97,22.2,24.10,6.00,140,23.00,90,0.00,1012.57
48418,BUA CHUM,บัวชุม  ,ลพบุรี,15.26667,101.18736,3.7,10-03-2019,10:00:00,25.4,1005.92,31.9,32.48,6.00,250,0.00,69,0.00,1011.74
48419,PATHUMTHANI,ปทุมธานี สกษ.,ปทุมธานี,14.10000,100.61667,13.0,10-03-2019,10:00:00,26.6,1011.89,31.5,34.90,8.00,150,0.20,76,0.00,1012.69
48420,Samut Prakarn,สมุทรปราการ สกษ.,สมุทรปราการ,13.51667,100.76167,7.4,10-03-2019,10:00:00,23.6,1012.02,29.8,29.08,10.00,210,0.00,69,0.00,1012.46
48421,THONG PHAPHUM,ทองผาภูมิ,กาญจนบุรี,14.74222,98.63639,0.0,10-03-2019,10:00:00,23.8,1001.15,31.0,29.48,10.00,000,0.00,66,0.00,1012.36
48425,SUPHAN BURI,สุพรรณบุรี,สุพรรณบุรี,14.47444,100.13889,5.6,10-03-2019,10:00:00,25.4,1011.04,32.6,32.49,6.00,150,0.00,66,0.00,1012.04
48426,LOP BURI,ลพบุรี,ลพบุรี,14.79972,100.64500,3.7,10-03-2019,10:00:00,26.2,1010.26,31.8,34.05,7.00,150,0.00,72,0.00,1012.06
48427,U THONG AGROMET.,อู่ทอง สกษ.,สุพรรณบุรี,14.30361,99.86472,0.0,10-03-2019,10:00:00,23.7,1010.96,31.5,29.35,9.00,000,0.00,64,0.00,1011.72
48429,SUVARNABHUMI AIRPORT,สนามบินสุวรรณภูมิ,สมุทรปราการ,13.68639,100.76750,7.4,10-03-2019,10:00:00,26.1,1011.34,31.1,33.73,8.00,190,0.00,75,0.00,1012.04
48430,PRACHIN BURI,ปราจีนบุรี,ปราจีนบุรี,14.05842,101.36930,5.6,10-03-2019,10:00:00,25.3,1011.41,31.8,32.27,8.00,160,0.00,69,0.00,1012.11
48431,NAKHON RATCHASIMA,นครราชสีมา,นครราชสีมา,14.96830,102.08603,0.0,10-03-2019,10:00:00,23.8,990.81,31.3,29.52,7.00,000,0.00,65,0.00,1011.77
48432,SURIN,สุรินทร์,สุรินทร์,14.88333,103.50000,0.0,10-03-2019,10:00:00,25.4,995.43,31.0,32.34,8.00,000,0.01,72,0.00,1012.01
48433,SURIN AGROMET.,สุรินทร์ สกษ.,สุรินทร์,14.88333,103.45000,3.7,10-03-2019,10:00:00,24.9,996.39,32.0,31.52,10.00,170,0.00,66,0.00,1012.64
48434,CHOK CHAI,โชคชัย,นครราชสีมา,14.71889,102.16861,0.0,10-03-2019,10:00:00,25.6,989.95,30.5,32.75,6.00,000,0.00,75,0.00,1011.65
48435,PAKCHONG AGROMET.,ปากช่อง สกษ.,นครราชสีมา,14.64389,101.33194,5.6,10-03-2019,10:00:00,24.3,968.61,29.6,30.35,2.00,050,0.60,73,0.00,1011.68
48436,NANG RONG,นางรอง,บุรีรัมย์,14.58333,102.80000,5.6,10-03-2019,10:00:00,24.0,991.53,30.6,29.81,9.00,240,0.00,68,0.00,1011.95
48437,BURIRUM,บุรีรัมย์,บุรีรัมย์,15.22575,103.24808,3.7,10-03-2019,10:00:00,27.0,993.18,31.7,35.65,6.00,210,0.00,76,0.00,1013.82
48438,SAMUTSONGKRAM,สมุทรสงคราม,สมุทรสงคราม,13.40778,100.03222,0.0,10-03-2019,10:00:00,25.1,1011.71,30.8,31.93,10.00,"{'@attributes': {'Unit': 'degree'}, '0': '   '}",0.01,72,0.00,1012.14
48439,KABIN BURI,กบินทร์บุรี,ปราจีนบุรี,13.98333,101.70722,0.0,10-03-2019,10:00:00,26.5,1010.84,31.8,34.65,11.00,000,0.20,74,0.00,1012.24
48440,SA KAEW,สระแก้ว,สระแก้ว,13.78889,102.03472,0.0,10-03-2019,10:00:00,26.3,1007.20,30.8,34.27,8.00,000,4.70,77,0.00,1012.10
48450,KANCHANA BURI,กาญจนบุรี,กาญจนบุรี,14.02250,99.53583,9.3,10-03-2019,10:00:00,23.7,1008.53,32.0,29.22,10.00,230,0.00,61,0.00,1011.78
48451,NAKHONPATHOM,นครปฐม,นครปฐม,14.01167,99.97000,0.0,10-03-2019,10:00:00,25.6,1010.99,32.1,32.91,10.00,000,0.00,69,0.00,1012.08
48453,BANG NA AGROMET.,กรุงเทพฯ บางนา สกษ.,กรุงเทพมหานคร,13.66639,100.60611,9.3,10-03-2019,10:00:00,24.8,1011.67,32.2,31.35,10.00,170,0.00,65,0.00,1011.96
48454,BANGKOK PORT (KLONG TOEI),กรุงเทพฯ ท่าเรือคลองเตย,กรุงเทพมหานคร,13.70694,100.56805,7.4,10-03-2019,10:00:00,24.8,1011.06,32.3,31.27,10.00,150,0.00,65,0.00,1011.74
48455,BANGKOK METROPOLIS,กรุงเทพมหานคร,กรุงเทพมหานคร,13.72639,100.56000,1.9,10-03-2019,10:00:00,24.9,1011.20,32.0,31.52,7.00,300,0.00,66,0.00,1011.69
48456,DON MUANG AIRPORT,สนามบินดอนเมือง,กรุงเทพมหานคร,13.91917,100.60500,11.1,10-03-2019,10:00:00,25.9,1010.65,31.4,33.48,9.00,150,0.01,73,0.00,1012.04
48457,PILOT STATION,นำร่อง,สมุทรปราการ,13.39389,100.59944,11.1,10-03-2019,10:00:00,26.4,1010.84,29.8,34.51,7.00,140,0.00,82,0.00,1012.51
48458,CHACHOENGSAO,ฉะเชิงเทรา,ฉะเชิงเทรา,13.51556,101.45833,3.7,10-03-2019,10:00:00,25.6,1006.28,30.5,32.75,10.00,210,0.00,75,0.00,1014.25
48459,CHON BURI,ชลบุรี,ชลบุรี,13.36667,100.98333,0.0,10-03-2019,10:00:00,25.4,1011.57,33.0,32.46,8.00,000,18.20,65,0.00,1011.85
48460,KO SICHANG,เกาะสีชัง,ชลบุรี,13.16167,100.80194,0.0,10-03-2019,10:00:00,26.1,1008.90,31.0,33.81,10.00,000,0.00,75,0.00,1012.01
48461,PHATTHAYA,พัทยา,ชลบุรี,12.92000,100.86944,5.6,10-03-2019,10:00:00,25.6,1005.12,30.5,32.75,10.00,240,0.01,75,0.00,1012.02
48462,ARANYA PRATHET,อรัญประเทศ,สระแก้ว,13.70000,102.58333,0.0,10-03-2019,10:00:00,26.0,1006.95,31.2,33.65,7.00,000,1.30,74,0.00,1012.50
48463,LAEM CHABANG,แหลมฉบัง,ชลบุรี,13.07694,100.87583,9.3,10-03-2019,10:00:00,27.1,1003.58,31.7,35.95,4.00,250,0.50,77,0.00,1012.80
48464,RATCHA BURI,ราชบุรี,ราชบุรี,13.48931,99.79239,0.0,10-03-2019,10:00:00,25.6,1011.32,29.7,32.83,12.00,000,0.00,79,0.00,1012.58
48465,PHETCHA BURI,เพชรบุรี,เพชรบุรี,12.99944,100.06056,3.7,10-03-2019,10:00:00,24.3,1011.53,28.5,30.42,11.00,310,0.00,78,0.00,1011.96
48474,NONG PHLUB AGROMET.,หนองพลับ สกษ.,ประจวบคีรีขันธ์,12.58333,99.73333,3.7,10-03-2019,10:00:00,23.6,1000.07,31.7,29.19,8.00,010,0.00,62,0.00,1012.20
48475,HUA HIN,หัวหิน,ประจวบคีรีขันธ์,12.58611,99.96250,7.4,10-03-2019,10:00:00,24.9,1011.17,31.8,31.39,10.00,110,0.00,67,0.00,1011.88
48477,SATTAHIP,สัตหีบ,ชลบุรี,12.68333,100.98333,11.1,10-03-2019,10:00:00,25.5,1010.18,31.7,32.64,9.00,170,0.20,70,0.00,1012.59
48478,RAYONG,ระยอง,ระยอง,12.63222,101.34361,7.4,10-03-2019,10:00:00,25.9,1011.96,31.5,33.40,8.00,200,0.00,72,0.00,1012.47
48479,HUAI PONG AGROMET.,ห้วยโป่ง สกษ.,ระยอง,12.73333,101.13333,0.0,10-03-2019,10:00:00,25.2,1007.01,29.5,32.13,10.00,000,7.00,78,0.00,1012.14
48480,CHANTHA BURI,จันทบุรี,จันทบุรี,12.61667,102.11333,0.0,10-03-2019,10:00:00,25.7,1011.91,31.3,32.97,8.00,000,0.00,72,0.00,1012.32
48481,PHLIU  AGROMET.,พลิ้ว สกษ.,จันทบุรี,12.50861,102.17305,0.0,10-03-2019,10:00:00,25.6,1009.50,30.4,32.84,8.00,000,0.00,76,0.00,1012.25
48500,PRACHUAP KHIRIKHAN,ประจวบคีรีขันธ์,ประจวบคีรีขันธ์,11.83333,99.83333,0.0,10-03-2019,10:00:00,24.6,1011.62,31.7,30.90,10.00,000,0.00,66,0.00,1012.40
48501,TRAD,ตราด,ตราด,11.76667,102.88333,3.7,10-03-2019,10:00:00,25.7,1011.87,31.2,33.06,8.00,230,22.40,73,0.00,1012.32
48517,CHUMPHON,ชุมพร,ชุมพร,10.49875,99.18847,3.7,10-03-2019,10:00:00,25.3,1011.36,30.5,32.17,9.00,290,0.01,74,0.00,1012.04
48520,SAWI AGROMET.,สวี สกษ.,ชุมพร,10.33333,99.10000,0.0,10-03-2019,10:00:00,23.5,1010.46,31.6,28.99,10.00,000,0.20,62,0.00,1011.97
48532,RANONG,ระนอง,ระนอง,9.98333,98.61667,3.7,10-03-2019,10:00:00,23.0,1012.04,31.0,28.09,10.00,240,0.10,63,0.00,1012.94
48550,KO SAMUI,เกาะสมุย,สุราษฎร์ธานี,9.46667,100.05000,5.6,10-03-2019,10:00:00,25.7,1011.43,31.2,33.06,12.00,280,0.00,73,0.00,1012.11
48551,SURAT THANI,สุราษฎร์ธานี,สุราษฎร์ธานี,9.13556,99.15194,7.4,10-03-2019,10:00:00,25.1,1012.10,28.7,31.94,8.00,270,0.00,81,0.00,1012.90
48552,NAKHONSI THAMMARAT,นครศรีธรรมราช,นครศรีธรรมราช,8.53778,99.96389,7.4,10-03-2019,10:00:00,23.7,1011.05,31.2,29.32,12.00,270,0.00,65,0.00,1011.67
48554,NAKHONSI THAMMARAT AGROMET.,นครศรีธรรมราช สกษ.,นครศรีธรรมราช,8.35931,100.00000,0.0,10-03-2019,10:00:00,25.3,1011.72,32.2,32.23,15.00,000,0.00,67,0.00,1012.12
48555,SURAT THANI AGROMET.,สุราษฎร์ธานี สกษ.,สุราษฎร์ธานี,9.10000,99.63333,0.0,10-03-2019,10:00:00,23.4,1010.03,30.2,28.75,6.00,000,0.90,67,0.00,1014.22
48556,PHRA SANG,พระแสง สอท.,สุราษฎร์ธานี,8.57022,99.25825,0.0,10-03-2019,10:00:00,24.5,1011.15,28.1,30.75,12.00,000,0.80,81,0.00,1012.76
48557,CHAWANG,ฉวาง,นครศรีธรรมราช,8.43194,99.51194,0.0,10-03-2019,10:00:00,25.2,1008.96,29.5,32.13,10.00,000,0.30,78,0.00,1012.42
48560,PHATTHALUNG AGROMET.,พัทลุง สกษ.,พัทลุง,7.58333,100.16667,5.6,10-03-2019,10:00:00,23.1,1011.02,30.7,28.34,10.00,180,0.00,64,0.00,1012.36
48561,TAKUA PA,ตะกั่วป่า,พังงา,8.68417,98.25222,11.1,10-03-2019,10:00:00,25.6,1011.70,28.4,32.75,10.00,240,2.40,85,0.00,1012.58
48563,KRABI,กระบี่,กระบี่,8.10361,98.97528,0.0,10-03-2019,10:00:00,24.1,1009.44,29.6,30.08,10.00,000,5.90,73,0.00,1012.99
48564,PHUKET,ภูเก็ต,ภูเก็ต,7.88333,98.40000,0.0,10-03-2019,10:00:00,24.3,1012.01,30.7,30.29,10.00,000,3.20,69,0.00,1012.44
48565,PHUKET AIRPORT,ภูเก็ต (ศูนย์ฯ),ภูเก็ต,8.14500,98.31444,5.6,10-03-2019,10:00:00,24.5,1011.24,29.1,30.77,10.00,280,8.40,76,0.00,1012.23
48566,KO LANTA,เกาะลันตา,กระบี่,7.53333,99.05000,5.6,10-03-2019,10:00:00,26.7,1012.23,29.8,35.10,12.00,240,0.20,84,0.00,1013.04
48567,TRANG AIRPORT,ตรัง,ตรัง,7.51667,99.61667,7.4,10-03-2019,10:00:00,25.2,1011.01,29.5,32.13,12.00,090,2.70,78,0.00,1012.82
48568,SONGKHLA,สงขลา,สงขลา,7.18211,100.60769,9.3,10-03-2019,10:00:00,23.4,1011.90,30.2,28.75,12.00,230,0.00,67,0.00,1012.65
48569,HAT YAI AIRPORT,หาดใหญ่,สงขลา,6.91667,100.43333,5.6,10-03-2019,10:00:00,24.1,1008.69,29.7,29.99,10.00,200,5.60,72,0.00,1012.68
48570,SATUN,สตูล,สตูล,6.65000,100.08333,0.0,10-03-2019,10:00:00,24.7,1012.45,30.5,31.03,10.00,000,20.40,71,0.00,1013.13
48571,KHO HONG AGROMET.,คอหงษ์ สกษ.,สงขลา,7.00000,100.50000,0.0,10-03-2019,10:00:00,25.0,1011.17,31.1,31.68,10.00,000,73.20,70,0.00,1012.28
48574,SA DAO,สะเดา,สงขลา,6.79806,100.39056,7.4,10-03-2019,10:00:00,25.4,1009.85,30.8,32.51,10.00,240,0.80,73,0.00,1012.75
48580,PATTANI AIRPORT,ปัตตานี,ปัตตานี,6.78333,101.15000,0.0,10-03-2019,10:00:00,24.8,1011.52,28.8,31.29,11.00,000,0.00,79,0.00,1012.21
48581,YALA AGROMET.,ยะลา สกษ.,ยะลา,6.51667,101.28333,0.0,10-03-2019,10:00:00,23.6,1009.10,29.1,29.11,7.00,000,38.70,72,0.00,1013.22
48583,NARATHIWAT,นราธิวาส,นราธิวาส,6.41667,101.81667,0.0,10-03-2019,10:00:00,19.7,1012.70,31.5,22.88,10.00,000,0.00,50,0.00,1013.28
