WmoStationNumber,StationNameEnglish,StationNameThai,Province,Latitude,Longitude,MeanSeaLevelPressure,Date,Time,RelativeHumidity,LandVisibility,VaporPressure,WindDirection,Rainfall,StationPressure,MaximumTemperature,Rainfall24Hr,AirTemperature,WindSpeed,DewPoint
48300,MAE HONG SON,แม่ฮ่องสอน,แม่ฮ่องสอน,19.29897,97.97578,1007.74,10-01-2019,19:00:00,80,12.00,30.59,000,0.00,977.03,33.0,0.00,28.3,0.0,24.4
48302,DOI ANG KANG,ดอยอ่างขาง,เชียงใหม่,19.93139,99.04833,1007.87,10-01-2019,19:00:00,87,8.00,20.13,000,0.00,847.01,26.2,0.00,19.9,0.0,17.6
48303,CHIANG RAI,เชียงราย,เชียงราย,19.96139,99.88139,1007.66,10-01-2019,19:00:00,74,12.00,27.85,000,0.00,964.35,32.5,0.00,28.0,0.0,22.9
48304,CHAING RAI AGROMET.,เชียงราย สกษ.,เชียงราย,19.87083,99.78278,1008.09,10-01-2019,19:00:00,83,12.00,28.92,000,0.00,962.68,31.5,0.00,26.7,0.0,23.5
48307,THUNG CHANG,ทุ่งช้าง,น่าน,19.41194,100.88353,1008.35,10-01-2019,19:00:00,87,8.00,31.30,000,0.00,970.83,33.3,0.00,27.1,0.0,24.8
48310,PHAYAO,พะเยา,พะเยา,19.13333,99.90000,1008.42,10-01-2019,19:00:00,84,8.00,30.02,000,0.00,963.48,29.3,0.00,27.0,0.0,24.1
48315,THA WANGPHA,ท่าวังผา,น่าน,19.11056,100.80250,1008.11,10-01-2019,19:00:00,78,10.00,32.13,000,0.00,981.65,35.0,0.00,29.5,0.0,25.2
48324,THOEN,เถิน,ลำปาง,17.63661,99.24475,1007.78,10-01-2019,19:00:00,79,11.00,32.01,000,0.00,986.21,35.6,0.00,29.3,0.0,25.2
48325,MAE SARIANG,แม่สะเรียง,แม่ฮ่องสอน,18.16667,97.93333,1008.86,10-01-2019,19:00:00,78,10.00,30.15,000,0.00,984.89,35.0,0.00,28.5,0.0,24.2
48327,CHIANG MAI,เชียงใหม่,เชียงใหม่,18.79000,98.97694,1008.40,10-01-2019,19:00:00,65,10.00,26.16,210,0.00,974.19,35.2,0.00,29.1,16.7,21.8
48328,LAMPANG,ลำปาง,ลำปาง,18.28333,99.51667,1008.01,10-01-2019,19:00:00,82,10.00,31.82,000,0.30,980.66,35.0,0.30,28.5,0.0,25.1
48329,LAMPHUN,ลำพูน,ลำพูน,18.56722,99.03389,1008.10,10-01-2019,19:00:00,69,10.00,28.50,270,0.00,974.87,34.8,0.00,29.5,7.4,23.2
48330,PHRAE,แพร่,แพร่,18.16667,100.16667,1007.72,10-01-2019,19:00:00,79,4.00,30.12,000,0.00,989.31,35.0,0.00,28.2,0.0,24.2
48331,NAN,น่าน,น่าน,18.77972,100.77778,1007.60,10-01-2019,19:00:00,76,10.00,31.89,000,0.00,985.02,35.2,0.00,29.8,0.0,25.1
48333,NAN AGROMET.,น่าน สกษ.,น่าน,18.86667,100.75000,1007.68,10-01-2019,19:00:00,76,10.00,30.29,000,0.00,978.04,34.5,0.00,29.0,0.0,24.3
48334,LAMPANG AGROMET.,ลำปาง สกษ.,ลำปาง,18.31667,99.28333,1008.22,10-01-2019,19:00:00,92,8.00,35.87,000,0.00,972.95,33.0,0.00,28.5,0.0,27.1
48350,LOEI AGROMET.,เลย สกษ.,เลย,17.40000,101.73333,1007.20,10-01-2019,19:00:00,76,6.00,28.84,000,0.00,977.65,36.1,0.00,28.1,0.0,23.4
48351,UTTARADIT,อุตรดิตถ์,อุตรดิตถ์,17.61667,100.10000,1007.30,10-01-2019,19:00:00,66,8.00,31.52,000,0.00,1000.12,36.7,0.00,32.0,0.0,24.9
48352,NONG KHAI,หนองคาย,หนองคาย,17.86717,102.73303,1007.09,10-01-2019,19:00:00,69,5.00,31.93,120,0.00,987.50,34.7,0.00,31.5,3.7,25.1
48353,LOEI,เลย,เลย,17.45000,101.73333,1007.65,10-01-2019,19:00:00,68,5.00,28.91,000,0.00,979.29,35.6,0.00,30.0,0.0,23.5
48354,UDON THANI,อุดรธานี,อุดรธานี,17.38333,102.80000,1007.97,10-01-2019,19:00:00,64,9.00,28.15,000,0.00,988.03,35.0,0.00,30.6,0.0,23.0
48355,SAKON NAKHON AGROMET.,สกลนคร สกษ.,สกลนคร,17.12503,104.06100,1008.40,10-01-2019,19:00:00,85,5.00,31.95,000,0.00,986.74,34.3,0.00,28.0,0.0,25.1
48356,SAKON NAKHON,สกลนคร,สกลนคร,17.15000,104.13333,1008.05,10-01-2019,19:00:00,70,8.00,28.78,000,0.00,988.72,34.2,0.00,29.5,0.0,23.4
48357,NAKHON PHANOM,นครพนม,นครพนม,17.41083,104.78250,1008.08,10-01-2019,19:00:00,75,7.00,30.72,000,0.00,991.47,34.3,0.00,29.5,0.0,24.5
48358,NAKHON PHANOM AGROMET.,นครพนม สกษ.,นครพนม,17.44306,104.77361,1008.80,10-01-2019,19:00:00,64,7.00,22.57,000,0.00,991.35,33.7,0.00,26.7,0.0,19.4
48360,NONG BUA LAM PHU,หนองบัวลำภู,หนองบัวลำภู,17.23250,102.42944,1007.13,10-01-2019,19:00:00,75,6.00,30.72,000,0.00,981.58,35.2,0.00,29.5,0.0,24.5
48372,SUKHOTHAI*,สุโขทัย,สุโขทัย,17.10611,99.80000,1007.30,10-01-2019,19:00:00,78,8.00,35.23,000,0.00,1001.59,35.1,0.00,31.1,0.0,26.8
48373,SI SAMRONG AGROMET.,ศรีสำโรง สกษ.,สุโขทัย,17.16136,99.86167,1007.62,10-01-2019,19:00:00,79,8.00,34.52,000,0.00,1001.50,34.7,0.00,30.5,0.0,26.5
48374,LOM SAK,หล่มสัก,เพชรบูรณ์,16.77361,101.24944,1008.03,10-01-2019,19:00:00,63,8.00,26.09,000,0.00,991.72,35.8,0.00,29.5,0.0,21.8
48375,MAE SOT,แม่สอด,ตาก,16.65917,98.55083,1007.43,10-01-2019,19:00:00,74,10.00,27.85,000,0.00,985.18,34.4,0.00,28.0,0.0,22.9
48376,TAK,ตาก,ตาก,16.87833,99.14333,1008.30,10-01-2019,19:00:00,76,8.00,31.08,000,0.00,994.01,36.9,0.00,29.4,0.0,24.7
48377,BHUMIBOL DAM,เขื่อนภูมิพล,ตาก,17.24389,99.00250,1007.88,10-01-2019,19:00:00,82,8.00,31.62,000,0.00,991.56,36.0,0.00,28.4,0.0,25.0
48378,PHITSANULOK,พิษณุโลก,พิษณุโลก,16.79481,100.27930,1007.34,10-01-2019,19:00:00,74,7.00,32.59,000,0.00,1002.18,35.4,0.00,30.7,0.0,25.5
48379,PHETCHABUN,เพชรบูรณ์,เพชรบูรณ์,16.43333,101.15000,1006.50,10-01-2019,19:00:00,66,10.00,28.97,000,0.00,993.47,36.6,0.00,30.6,0.0,23.5
48380,KAMPHAENG PHET,กำแพงเพชร,กำแพงเพชร,16.48681,99.52697,1007.92,10-01-2019,19:00:00,81,6.00,30.75,000,0.00,998.63,34.1,2.40,28.1,0.0,24.5
48381,KHON KAEN,ขอนแก่น,ขอนแก่น,16.46111,102.78972,1008.18,10-01-2019,19:00:00,68,7.00,29.03,120,0.00,986.70,35.0,0.00,30.2,3.7,23.5
48382,MAHASARAKHAM,มหาสารคาม,มหาสารคาม,16.24722,103.06805,1008.08,10-01-2019,19:00:00,68,12.00,28.91,000,0.00,990.74,35.6,0.00,30.0,0.0,23.5
48383,MUKDAHAN,มุกดาหาร,มุกดาหาร,16.54139,104.72889,1007.79,10-01-2019,19:00:00,65,10.00,27.55,210,0.00,992.11,34.6,0.00,30.0,3.7,22.7
48384,THA PHRA AGROMET.,ท่าพระ สกษ.,ขอนแก่น,16.33333,102.81667,1007.54,10-01-2019,19:00:00,81,7.00,32.55,000,0.00,988.77,34.6,0.00,29.0,0.0,25.5
48385,UMPHANG,อุ้มผาง,ตาก,16.02472,98.86444,1010.40,10-01-2019,19:00:00,87,8.00,28.51,000,0.00,958.99,32.8,16.70,25.6,0.0,23.2
48386,PICHIT AGROMET.,พิจิตร สกษ.,พิจิตร,16.43806,100.29250,1007.46,10-01-2019,19:00:00,80,3.00,36.36,050,0.00,1003.56,35.0,0.00,31.2,3.7,27.3
48387,DOI MU SOE AGROMET.,ดอยมูเซอร์ สกษ.,ตาก,16.75000,98.93333,1009.32,10-01-2019,19:00:00,86,5.00,25.59,000,0.00,914.74,28.3,0.00,23.9,0.0,21.5
48390,KALASIN,กาฬสินธุ์,กาฬสินธุ์,16.33250,103.58833,1008.33,10-01-2019,19:00:00,81,8.00,32.14,000,0.00,992.42,34.4,0.00,28.8,0.0,25.2
48400,NAKHON SAWAN,นครสวรรค์ ,นครสวรรค์,15.67183,100.13236,1008.15,10-01-2019,19:00:00,73,8.00,32.72,000,0.00,1004.16,35.9,0.00,30.9,0.0,25.5
48401,TAKFA AGROMET.,ตากฟ้า สกษ.,นครสวรรค์,15.34944,100.53028,1009.19,10-01-2019,19:00:00,82,5.00,32.83,000,0.30,998.56,34.8,0.30,29.0,0.0,25.6
48402,CHAINAT AGROMET.,ชัยนาท สกษ.,ชัยนาท,15.15000,100.18333,1008.47,10-01-2019,19:00:00,81,7.00,34.99,000,0.40,1006.55,35.5,0.40,30.3,0.0,26.7
48403,CHAIYAPHUM,ชัยภูมิ,ชัยภูมิ,15.80000,102.03333,1007.98,10-01-2019,19:00:00,67,7.00,31.19,000,0.00,987.42,35.2,0.00,31.7,0.0,24.7
48404,ROI ET AGROMET.,ร้อยเอ็ด สกษ.,ร้อยเอ็ด,16.07322,103.60844,1008.22,10-01-2019,19:00:00,80,10.00,32.38,180,0.00,990.66,33.8,0.00,29.2,3.7,25.4
48405,ROI ET,ร้อยเอ็ด,ร้อยเอ็ด,16.02000,103.74389,1008.08,10-01-2019,19:00:00,72,10.00,30.70,000,0.00,992.08,34.0,0.00,30.2,0.0,24.5
48407,UBON RATCHATHANI,อุบลราชธานี (ศูนย์ฯ),อุบลราชธานี,15.25000,104.86667,1009.05,10-01-2019,19:00:00,61,8.00,26.79,000,0.00,995.15,34.2,0.00,30.6,0.0,22.2
48408,UBON RATCHATHANI AGROMET.,อุบลราชธานี สกษ.,อุบลราชธานี,15.23914,105.02350,1009.39,10-01-2019,19:00:00,77,7.00,30.46,000,0.00,994.62,34.2,0.00,28.8,0.0,24.3
48409,SI SAKET AGROMET.,ศรีสะเกษ,ศรีสะเกษ,15.00000,104.05000,1009.14,10-01-2019,19:00:00,84,10.00,35.10,000,0.00,994.58,38.2,0.00,29.8,0.0,26.7
48410,UTHAITHANI,อุทัยธานี,อุทัยธานี,15.37417,100.03889,1007.83,10-01-2019,19:00:00,67,8.00,31.89,"{'@attributes': {'Unit': 'degree'}, '0': '   '}",0.00,1004.86,36.0,0.00,31.9,0.0,25.1
48413,WICHIAN BURI,วิเชียรบุรี,เพชรบูรณ์,15.65700,101.10800,1008.40,10-01-2019,19:00:00,75,10.00,32.34,000,0.00,1000.52,35.3,0.00,30.3,0.0,25.3
48415,AYUTTHAYA,พระนครศรีอยุธยา,พระนครศรีอยุธยา,14.53472,100.72500,1008.54,10-01-2019,19:00:00,75,8.00,31.32,150,0.00,1007.44,35.0,0.00,29.8,5.6,24.8
48416,THA TUM,ท่าตูม,สุรินทร์,15.31667,103.68333,1009.51,10-01-2019,19:00:00,77,8.00,33.98,000,0.00,994.97,34.0,0.00,30.8,0.0,26.2
48417,NAKORNNAYOK,นครนายก,นครนายก,14.36222,101.39278,1010.41,10-01-2019,19:00:00,98,3.00,24.53,190,0.00,875.64,24.0,0.01,21.1,7.4,20.8
48418,BUA CHUM,บัวชุม  ,ลพบุรี,15.26667,101.18736,1008.53,10-01-2019,19:00:00,81,7.00,34.77,000,0.00,1002.70,35.8,0.00,30.2,0.0,26.6
48419,PATHUMTHANI,ปทุมธานี สกษ.,ปทุมธานี,14.10000,100.61667,1008.61,10-01-2019,19:00:00,75,8.00,30.72,210,0.00,1007.81,36.5,0.00,29.5,1.9,24.5
48420,Samut Prakarn,สมุทรปราการ สกษ.,สมุทรปราการ,13.51667,100.76167,1008.63,10-01-2019,19:00:00,80,9.00,33.20,210,0.00,1008.18,31.5,60.20,29.6,18.5,25.8
48421,THONG PHAPHUM,ทองผาภูมิ,กาญจนบุรี,14.74222,98.63639,1009.53,10-01-2019,19:00:00,78,6.00,29.85,000,0.00,998.24,35.7,0.00,28.2,0.0,24.0
48425,SUPHAN BURI,สุพรรณบุรี,สุพรรณบุรี,14.47444,100.13889,1008.51,10-01-2019,19:00:00,71,6.00,31.03,000,0.00,1007.50,36.3,0.00,30.5,0.0,24.7
48426,LOP BURI,ลพบุรี,ลพบุรี,14.79972,100.64500,1008.63,10-01-2019,19:00:00,73,7.00,32.22,000,0.00,1006.82,34.7,0.00,30.8,0.0,25.3
48427,U THONG AGROMET.,อู่ทอง สกษ.,สุพรรณบุรี,14.30361,99.86472,1008.47,10-01-2019,19:00:00,84,6.00,34.88,000,0.00,1007.71,35.7,0.00,29.7,0.0,26.6
48429,SUVARNABHUMI AIRPORT,สนามบินสุวรรณภูมิ,สมุทรปราการ,13.68639,100.76750,1009.25,10-01-2019,19:00:00,79,9.00,32.50,200,0.00,1008.55,32.3,0.01,29.4,13.0,25.4
48430,PRACHIN BURI,ปราจีนบุรี,ปราจีนบุรี,14.05842,101.36930,1008.50,10-01-2019,19:00:00,74,7.00,31.76,000,0.00,1007.81,35.7,3.20,30.3,0.0,25.0
48431,NAKHON RATCHASIMA,นครราชสีมา,นครราชสีมา,14.96830,102.08603,1008.74,10-01-2019,19:00:00,70,7.00,29.55,000,0.00,987.76,35.0,0.01,29.9,0.0,23.8
48432,SURIN,สุรินทร์,สุรินทร์,14.88333,103.50000,1008.87,10-01-2019,19:00:00,71,8.00,30.42,000,0.00,992.30,34.6,0.00,30.2,0.0,24.3
48433,SURIN AGROMET.,สุรินทร์ สกษ.,สุรินทร์,14.88333,103.45000,1008.55,10-01-2019,19:00:00,77,8.00,29.19,000,0.00,992.15,34.5,0.00,28.0,0.0,23.6
48434,CHOK CHAI,โชคชัย,นครราชสีมา,14.71889,102.16861,1009.55,10-01-2019,19:00:00,92,2.00,29.00,000,50.50,987.49,35.0,50.50,25.0,0.0,23.5
48435,PAKCHONG AGROMET.,ปากช่อง สกษ.,นครราชสีมา,14.64389,101.33194,1009.35,10-01-2019,19:00:00,85,4.00,28.34,140,0.00,965.84,31.8,0.00,25.8,7.4,23.2
48436,NANG RONG,นางรอง,บุรีรัมย์,14.58333,102.80000,1008.98,10-01-2019,19:00:00,93,6.00,31.00,150,3.60,988.30,34.7,3.60,25.8,7.4,24.6
48437,BURIRUM,บุรีรัมย์,บุรีรัมย์,15.22575,103.24808,1010.79,10-01-2019,19:00:00,86,5.00,31.92,140,0.00,989.95,34.3,0.00,27.7,5.6,25.1
48438,SAMUTSONGKRAM,สมุทรสงคราม,สมุทรสงคราม,13.40778,100.03222,1009.03,10-01-2019,19:00:00,72,10.00,32.01,"{'@attributes': {'Unit': 'degree'}, '0': '   '}",0.00,1008.60,32.1,0.00,30.7,0.0,25.2
48439,KABIN BURI,กบินทร์บุรี,ปราจีนบุรี,13.98333,101.70722,1008.85,10-01-2019,19:00:00,80,8.00,30.28,000,0.00,1007.44,34.5,0.00,28.0,0.0,24.3
48440,SA KAEW,สระแก้ว,สระแก้ว,13.78889,102.03472,1008.78,10-01-2019,19:00:00,82,7.00,31.42,000,0.30,1003.86,34.4,0.30,28.3,0.0,24.9
48450,KANCHANA BURI,กาญจนบุรี,กาญจนบุรี,14.02250,99.53583,1008.11,10-01-2019,19:00:00,56,11.00,28.92,210,0.00,1004.88,36.6,0.00,33.4,5.6,23.5
48451,NAKHONPATHOM,นครปฐม,นครปฐม,14.01167,99.97000,1008.48,10-01-2019,19:00:00,76,10.00,34.90,000,0.00,1007.39,36.2,0.00,31.5,0.0,26.6
48453,BANG NA AGROMET.,กรุงเทพฯ บางนา สกษ.,กรุงเทพมหานคร,13.66639,100.60611,1009.15,10-01-2019,19:00:00,80,10.00,33.75,190,0.00,1008.85,33.4,1.00,30.0,9.3,26.1
48454,BANGKOK PORT (KLONG TOEI),กรุงเทพฯ ท่าเรือคลองเตย,กรุงเทพมหานคร,13.70694,100.56805,1009.07,10-01-2019,19:00:00,79,10.00,33.33,110,0.00,1008.39,34.1,0.80,29.8,3.7,25.9
48455,BANGKOK METROPOLIS,กรุงเทพมหานคร,กรุงเทพมหานคร,13.72639,100.56000,1008.77,10-01-2019,19:00:00,81,7.00,33.58,120,0.00,1008.29,34.4,2.40,29.5,3.7,26.0
48456,DON MUANG AIRPORT,สนามบินดอนเมือง,กรุงเทพมหานคร,13.91917,100.60500,1009.39,10-01-2019,19:00:00,80,8.00,32.59,180,0.00,1007.99,33.7,61.60,29.3,13.0,25.5
48457,PILOT STATION,นำร่อง,สมุทรปราการ,13.39389,100.59944,1008.76,10-01-2019,19:00:00,88,7.00,36.25,180,0.00,1007.10,30.9,2.10,29.5,27.8,27.3
48458,CHACHOENGSAO,ฉะเชิงเทรา,ฉะเชิงเทรา,13.51556,101.45833,1010.37,10-01-2019,19:00:00,92,10.00,29.18,000,0.90,1002.29,35.5,0.90,25.1,0.0,23.6
48459,CHON BURI,ชลบุรี,ชลบุรี,13.36667,100.98333,1008.58,10-01-2019,19:00:00,75,10.00,33.81,000,0.00,1008.30,34.5,0.00,31.0,0.0,26.1
48460,KO SICHANG,เกาะสีชัง,ชลบุรี,13.16167,100.80194,1008.84,10-01-2019,19:00:00,86,10.00,34.15,310,0.00,1005.72,32.7,0.00,28.8,9.3,26.3
48461,PHATTHAYA,พัทยา,ชลบุรี,12.92000,100.86944,1009.40,10-01-2019,19:00:00,78,10.00,31.13,210,0.00,1002.49,31.7,0.00,29.0,5.6,24.7
48462,ARANYA PRATHET,อรัญประเทศ,สระแก้ว,13.70000,102.58333,1008.36,10-01-2019,19:00:00,71,7.00,29.33,240,0.00,1002.81,34.7,0.00,29.5,9.3,23.7
48463,LAEM CHABANG,แหลมฉบัง,ชลบุรี,13.07694,100.87583,1010.25,10-01-2019,19:00:00,81,6.00,32.34,180,0.00,1000.96,32.6,0.00,28.9,14.8,25.4
48464,RATCHA BURI,ราชบุรี,ราชบุรี,13.48931,99.79239,1009.46,10-01-2019,19:00:00,79,6.00,33.46,140,0.00,1008.21,35.2,0.00,30.0,11.1,25.9
48465,PHETCHA BURI,เพชรบุรี,เพชรบุรี,12.99944,100.06056,1009.10,10-01-2019,19:00:00,68,11.00,27.96,210,0.00,1008.67,35.8,0.00,29.5,9.3,22.9
48474,NONG PHLUB AGROMET.,หนองพลับ สกษ.,ประจวบคีรีขันธ์,12.58333,99.73333,1009.91,10-01-2019,19:00:00,92,8.00,29.54,230,6.60,997.55,34.8,6.60,25.3,7.4,23.8
48475,HUA HIN,หัวหิน,ประจวบคีรีขันธ์,12.58611,99.96250,1009.40,10-01-2019,19:00:00,77,6.00,29.49,250,0.00,1008.69,32.4,0.00,28.3,3.7,23.8
48477,SATTAHIP,สัตหีบ,ชลบุรี,12.68333,100.98333,1009.76,10-01-2019,19:00:00,81,6.00,32.46,180,0.00,1007.33,33.3,0.00,29.1,11.1,25.4
48478,RAYONG,ระยอง,ระยอง,12.63222,101.34361,1009.73,10-01-2019,19:00:00,81,8.00,33.58,190,0.00,1009.21,32.0,0.00,29.5,9.3,26.0
48479,HUAI PONG AGROMET.,ห้วยโป่ง สกษ.,ระยอง,12.73333,101.13333,1009.03,10-01-2019,19:00:00,78,9.00,31.13,110,0.00,1003.90,32.3,0.00,29.0,1.9,24.7
48480,CHANTHA BURI,จันทบุรี,จันทบุรี,12.61667,102.11333,1009.50,10-01-2019,19:00:00,78,7.00,32.13,200,0.00,1009.09,33.5,1.60,29.5,5.6,25.2
48481,PHLIU  AGROMET.,พลิ้ว สกษ.,จันทบุรี,12.50861,102.17305,1010.03,10-01-2019,19:00:00,90,8.00,32.53,000,0.00,1007.26,32.0,0.20,27.3,0.0,25.4
48500,PRACHUAP KHIRIKHAN,ประจวบคีรีขันธ์,ประจวบคีรีขันธ์,11.83333,99.83333,1010.33,10-01-2019,19:00:00,89,10.00,36.19,000,0.00,1009.55,35.0,0.00,29.2,0.0,27.3
48501,TRAD,ตราด,ตราด,11.76667,102.88333,1010.07,10-01-2019,19:00:00,90,7.00,33.21,000,1.50,1009.61,32.8,1.80,27.5,0.0,25.8
48517,CHUMPHON,ชุมพร,ชุมพร,10.49875,99.18847,1009.91,10-01-2019,19:00:00,83,10.00,28.46,000,0.00,1009.23,33.8,0.00,26.3,0.0,23.2
48520,SAWI AGROMET.,สวี สกษ.,ชุมพร,10.33333,99.10000,1009.82,10-01-2019,19:00:00,82,9.00,30.72,000,0.00,1008.30,34.7,0.40,27.8,0.0,24.5
48532,RANONG,ระนอง,ระนอง,9.98333,98.61667,1010.91,10-01-2019,19:00:00,84,10.00,31.56,000,0.00,1009.99,32.6,0.00,27.8,0.0,24.9
48550,KO SAMUI,เกาะสมุย,สุราษฎร์ธานี,9.46667,100.05000,1010.21,10-01-2019,19:00:00,79,10.00,31.29,000,0.00,1009.52,31.9,0.00,28.8,0.0,24.8
48551,SURAT THANI,สุราษฎร์ธานี,สุราษฎร์ธานี,9.13556,99.15194,1010.60,10-01-2019,19:00:00,87,7.00,28.51,330,2.50,1009.79,34.8,2.50,25.6,3.7,23.2
48552,NAKHONSI THAMMARAT,นครศรีธรรมราช,นครศรีธรรมราช,8.53778,99.96389,1010.20,10-01-2019,19:00:00,78,10.00,30.15,000,0.00,1009.56,33.1,0.00,28.5,0.0,24.2
48554,NAKHONSI THAMMARAT AGROMET.,นครศรีธรรมราช สกษ.,นครศรีธรรมราช,8.35931,100.00000,1010.62,10-01-2019,19:00:00,87,10.00,31.49,000,0.00,1010.22,34.4,0.00,27.2,0.0,24.9
48555,SURAT THANI AGROMET.,สุราษฎร์ธานี สกษ.,สุราษฎร์ธานี,9.10000,99.63333,1011.96,10-01-2019,19:00:00,90,5.00,33.21,000,0.00,1007.74,33.5,2.80,27.5,0.0,25.8
48556,PHRA SANG,พระแสง สอท.,สุราษฎร์ธานี,8.57022,99.25825,1010.68,10-01-2019,19:00:00,98,10.00,29.84,000,9.00,1009.05,34.0,9.20,24.3,0.0,24.0
48557,CHAWANG,ฉวาง,นครศรีธรรมราช,8.43194,99.51194,1010.54,10-01-2019,19:00:00,88,8.00,29.50,000,0.01,1007.04,33.5,0.01,26.0,0.0,23.8
48560,PHATTHALUNG AGROMET.,พัทลุง สกษ.,พัทลุง,7.58333,100.16667,1010.55,10-01-2019,19:00:00,80,10.00,28.67,000,0.00,1009.19,33.4,0.00,27.0,0.0,23.3
48561,TAKUA PA,ตะกั่วป่า,พังงา,8.68417,98.25222,1010.49,10-01-2019,19:00:00,92,10.00,32.77,000,9.00,1009.60,31.5,9.60,27.0,0.0,25.6
48563,KRABI,กระบี่,กระบี่,8.10361,98.97528,1009.96,10-01-2019,19:00:00,82,10.00,31.82,000,0.00,1006.41,32.5,0.00,28.5,0.0,25.1
48564,PHUKET,ภูเก็ต,ภูเก็ต,7.88333,98.40000,1009.94,10-01-2019,19:00:00,76,10.00,30.96,300,0.00,1009.51,32.4,5.60,29.2,5.6,24.6
48565,PHUKET AIRPORT,ภูเก็ต (ศูนย์ฯ),ภูเก็ต,8.14500,98.31444,1010.35,10-01-2019,19:00:00,71,10.00,29.33,000,0.00,1009.37,32.0,0.20,29.5,0.0,23.7
48566,KO LANTA,เกาะลันตา,กระบี่,7.53333,99.05000,1010.45,10-01-2019,19:00:00,77,10.00,29.49,210,0.00,1009.63,31.9,0.00,28.3,14.8,23.8
48567,TRANG AIRPORT,ตรัง,ตรัง,7.51667,99.61667,1010.86,10-01-2019,19:00:00,91,10.00,32.69,000,0.00,1009.04,33.1,0.00,27.1,0.0,25.5
48568,SONGKHLA,สงขลา,สงขลา,7.18211,100.60769,1010.79,10-01-2019,19:00:00,73,10.00,26.95,190,0.00,1010.04,32.8,0.00,27.5,9.3,22.3
48569,HAT YAI AIRPORT,หาดใหญ่,สงขลา,6.91667,100.43333,1010.97,10-01-2019,19:00:00,93,10.00,29.52,000,5.00,1006.93,33.6,5.80,25.0,0.0,23.8
48570,SATUN,สตูล,สตูล,6.65000,100.08333,1010.95,10-01-2019,19:00:00,82,10.00,31.23,000,0.00,1010.27,31.5,17.40,28.2,0.0,24.8
48571,KHO HONG AGROMET.,คอหงษ์ สกษ.,สงขลา,7.00000,100.50000,1011.16,10-01-2019,19:00:00,97,10.00,28.69,120,42.20,1010.03,34.3,44.20,23.8,5.6,23.4
48574,SA DAO,สะเดา,สงขลา,6.79806,100.39056,1011.20,10-01-2019,19:00:00,85,10.00,31.64,000,0.00,1008.28,32.5,0.00,27.7,0.0,25.0
48580,PATTANI AIRPORT,ปัตตานี,ปัตตานี,6.78333,101.15000,1010.74,10-01-2019,19:00:00,77,7.00,28.26,230,0.00,1010.05,33.7,0.00,27.5,11.1,23.1
48581,YALA AGROMET.,ยะลา สกษ.,ยะลา,6.51667,101.28333,1012.36,10-01-2019,19:00:00,92,5.00,28.72,250,23.60,1008.18,34.2,27.80,24.7,9.3,23.4
48583,NARATHIWAT,นราธิวาส,นราธิวาส,6.41667,101.81667,1009.91,10-01-2019,19:00:00,78,10.00,29.46,240,0.00,1009.32,33.0,0.00,28.0,14.8,23.8
