WmoStationNumber,StationNameEnglish,StationNameThai,Province,Latitude,Longitude,Date,Time,AirTemperature,WindDirection,VaporPressure,RelativeHumidity,Rainfall24Hr,MeanSeaLevelPressure,WindSpeed,Rainfall,DewPoint,LandVisibility,StationPressure
48300,MAE HONG SON,แม่ฮ่องสอน,แม่ฮ่องสอน,19.29897,97.97578,10-05-2019,22:00:00,24.7,000,28.47,92,6.70,1012.51,0.0,0.70,23.2,6.00,981.29
48302,DOI ANG KANG,ดอยอ่างขาง,เชียงใหม่,19.93139,99.04833,10-05-2019,22:00:00,18.6,180,19.71,92,0.00,1012.98,5.6,0.00,17.3,8.00,850.66
48303,CHIANG RAI,เชียงราย,เชียงราย,19.96139,99.88139,10-05-2019,22:00:00,25.4,000,26.61,82,0.00,1011.92,0.0,0.00,22.1,10.00,968.06
48304,CHAING RAI AGROMET.,เชียงราย สกษ.,เชียงราย,19.87083,99.78278,10-05-2019,22:00:00,24.2,000,26.59,88,0.00,1012.09,0.0,0.00,22.1,15.00,966.13
48307,THUNG CHANG,ทุ่งช้าง,น่าน,19.41194,100.88353,10-05-2019,22:00:00,25.2,000,28.83,90,0.00,1012.07,0.0,0.00,23.4,6.00,974.18
48310,PHAYAO,พะเยา,พะเยา,19.13333,99.90000,10-05-2019,22:00:00,25.5,000,28.59,88,0.00,1012.64,0.0,0.00,23.3,8.00,967.30
48315,THA WANGPHA,ท่าวังผา,น่าน,19.11056,100.80250,10-05-2019,22:00:00,26.2,000,29.86,88,0.00,1012.81,0.0,0.00,24.0,7.00,985.94
48324,THOEN,เถิน,ลำปาง,17.63661,99.24475,10-05-2019,22:00:00,25.4,080,28.93,89,18.80,1012.12,5.6,0.00,23.5,11.00,990.19
48325,MAE SARIANG,แม่สะเรียง,แม่ฮ่องสอน,18.16667,97.93333,10-05-2019,22:00:00,24.5,000,28.11,91,0.00,1012.52,0.0,0.00,23.0,8.00,988.14
48327,CHIANG MAI,เชียงใหม่,เชียงใหม่,18.79000,98.97694,10-05-2019,22:00:00,26.0,000,26.88,80,0.00,1012.50,0.0,0.00,22.3,10.00,977.80
48328,LAMPANG,ลำปาง,ลำปาง,18.28333,99.51667,10-05-2019,22:00:00,26.0,000,30.84,92,0.00,1012.36,0.0,0.00,24.6,10.00,984.66
48329,LAMPHUN,ลำพูน,ลำพูน,18.56722,99.03389,10-05-2019,22:00:00,25.5,000,27.29,84,0.10,1011.97,0.0,0.00,22.5,10.00,978.18
48330,PHRAE,แพร่,แพร่,18.16667,100.16667,10-05-2019,22:00:00,25.7,000,29.48,89,0.00,1011.90,0.0,0.00,23.8,5.00,993.25
48331,NAN,น่าน,น่าน,18.77972,100.77778,10-05-2019,22:00:00,26.3,000,30.86,90,0.01,1012.15,0.0,0.00,24.6,10.00,989.21
48333,NAN AGROMET.,น่าน สกษ.,น่าน,18.86667,100.75000,10-05-2019,22:00:00,24.0,000,27.25,91,0.00,1012.54,0.0,0.00,22.5,9.00,982.26
48334,LAMPANG AGROMET.,ลำปาง สกษ.,ลำปาง,18.31667,99.28333,10-05-2019,22:00:00,24.0,000,27.25,91,0.60,1012.79,0.0,0.00,22.5,6.00,976.83
48350,LOEI AGROMET.,เลย สกษ.,เลย,17.40000,101.73333,10-05-2019,22:00:00,22.6,000,25.93,95,0.00,1011.87,0.0,0.00,21.7,8.00,981.64
48351,UTTARADIT,อุตรดิตถ์,อุตรดิตถ์,17.61667,100.10000,10-05-2019,22:00:00,26.7,000,29.72,85,0.00,1011.93,0.0,0.00,23.9,8.00,1004.58
48352,NONG KHAI,หนองคาย,หนองคาย,17.86717,102.73303,10-05-2019,22:00:00,28.4,000,29.96,77,0.00,1011.73,0.0,0.00,24.1,5.00,991.84
48353,LOEI,เลย,เลย,17.45000,101.73333,10-05-2019,22:00:00,24.3,140,26.01,86,0.00,1011.71,3.7,0.00,21.7,8.00,982.70
48354,UDON THANI,อุดรธานี,อุดรธานี,17.38333,102.80000,10-05-2019,22:00:00,26.8,250,30.45,86,0.00,1011.72,3.7,0.00,24.3,12.00,991.46
48355,SAKON NAKHON AGROMET.,สกลนคร สกษ.,สกลนคร,17.12503,104.06100,10-05-2019,22:00:00,25.0,000,28.22,89,0.00,1011.92,0.0,0.00,23.1,10.00,989.96
48356,SAKON NAKHON,สกลนคร,สกลนคร,17.15000,104.13333,10-05-2019,22:00:00,27.4,020,27.03,74,0.00,1011.36,3.7,0.00,22.4,10.00,991.83
48357,NAKHON PHANOM,นครพนม,นครพนม,17.41083,104.78250,10-05-2019,22:00:00,25.7,000,28.69,87,1.40,1012.14,0.0,0.00,23.3,12.00,995.24
48358,NAKHON PHANOM AGROMET.,นครพนม สกษ.,นครพนม,17.44306,104.77361,10-05-2019,22:00:00,25.2,000,29.36,92,4.50,1012.39,0.0,0.00,23.7,10.00,994.80
48360,NONG BUA LAM PHU,หนองบัวลำภู,หนองบัวลำภู,17.23250,102.42944,10-05-2019,22:00:00,25.5,000,31.25,96,0.00,1011.25,0.0,0.00,24.8,7.00,985.25
48372,SUKHOTHAI*,สุโขทัย,สุโขทัย,17.10611,99.80000,10-05-2019,22:00:00,26.6,000,31.71,91,0.60,1011.73,0.0,0.00,25.0,10.00,1005.91
48373,SI SAMRONG AGROMET.,ศรีสำโรง สกษ.,สุโขทัย,17.16136,99.86167,10-05-2019,22:00:00,26.0,000,29.50,88,0.20,1012.38,0.0,0.00,23.8,6.00,1006.13
48374,LOM SAK,หล่มสัก,เพชรบูรณ์,16.77361,101.24944,10-05-2019,22:00:00,25.1,000,27.37,86,0.00,1013.00,0.0,0.00,22.6,8.00,996.37
48375,MAE SOT,แม่สอด,ตาก,16.65917,98.55083,10-05-2019,22:00:00,24.0,000,27.25,91,3.50,1011.03,0.0,3.50,22.5,10.00,988.40
48376,TAK,ตาก,ตาก,16.87833,99.14333,10-05-2019,22:00:00,26.3,000,30.59,89,41.40,1012.79,0.0,0.00,24.4,6.00,998.29
48377,BHUMIBOL DAM,เขื่อนภูมิพล,ตาก,17.24389,99.00250,10-05-2019,22:00:00,25.5,000,29.11,89,20.20,1012.21,0.0,0.00,23.6,8.00,995.67
48378,PHITSANULOK,พิษณุโลก,พิษณุโลก,16.79481,100.27930,10-05-2019,22:00:00,26.8,000,31.27,89,2.30,1012.31,0.0,0.00,24.8,6.00,1007.05
48379,PHETCHABUN,เพชรบูรณ์,เพชรบูรณ์,16.43333,101.15000,10-05-2019,22:00:00,25.7,000,29.48,89,0.40,1010.91,0.0,0.00,23.8,10.00,997.61
48380,KAMPHAENG PHET,กำแพงเพชร,กำแพงเพชร,16.48681,99.52697,10-05-2019,22:00:00,24.7,000,29.77,96,50.50,1012.63,0.0,5.50,24.0,10.00,1003.18
48381,KHON KAEN,ขอนแก่น,ขอนแก่น,16.46111,102.78972,10-05-2019,22:00:00,26.0,300,30.03,89,0.00,1011.91,5.6,0.00,24.1,7.00,990.05
48382,MAHASARAKHAM,มหาสารคาม,มหาสารคาม,16.24722,103.06805,10-05-2019,22:00:00,27.8,110,29.36,79,0.00,1011.97,5.6,0.00,23.7,7.00,994.43
48383,MUKDAHAN,มุกดาหาร,มุกดาหาร,16.54139,104.72889,10-05-2019,22:00:00,23.5,000,26.66,92,11.00,1011.31,0.0,11.00,22.1,8.00,995.22
48384,THA PHRA AGROMET.,ท่าพระ สกษ.,ขอนแก่น,16.33333,102.81667,10-05-2019,22:00:00,25.5,000,30.17,93,0.00,1010.95,0.0,0.00,24.2,8.00,991.90
48385,UMPHANG,อุ้มผาง,ตาก,16.02472,98.86444,10-05-2019,22:00:00,23.2,000,25.92,91,0.00,1014.23,0.0,0.00,21.7,7.00,962.23
48386,PICHIT AGROMET.,พิจิตร สกษ.,พิจิตร,16.43806,100.29250,10-05-2019,22:00:00,25.1,240,29.70,93,0.30,1012.04,5.6,0.01,23.9,3.00,1008.04
48387,DOI MU SOE AGROMET.,ดอยมูเซอร์ สกษ.,ตาก,16.75000,98.93333,10-05-2019,22:00:00,20.4,000,22.81,95,17.00,1013.33,0.0,0.00,19.6,4.00,917.31
48390,KALASIN,กาฬสินธุ์,กาฬสินธุ์,16.33250,103.58833,10-05-2019,22:00:00,27.0,000,31.66,89,0.00,1011.22,0.0,0.00,25.0,7.00,995.17
48400,NAKHON SAWAN,นครสวรรค์ ,นครสวรรค์,15.67183,100.13236,10-05-2019,22:00:00,25.3,000,31.41,97,1.50,1011.99,0.0,0.50,24.9,5.00,1007.92
48401,TAKFA AGROMET.,ตากฟ้า สกษ.,นครสวรรค์,15.34944,100.53028,10-05-2019,22:00:00,24.0,000,28.78,97,41.30,1013.13,0.0,0.00,23.4,5.00,1002.29
48402,CHAINAT AGROMET.,ชัยนาท สกษ.,ชัยนาท,15.15000,100.18333,10-05-2019,22:00:00,25.5,000,28.85,88,1.60,1012.77,0.0,0.01,23.4,8.00,1010.82
48403,CHAIYAPHUM,ชัยภูมิ,ชัยภูมิ,15.80000,102.03333,10-05-2019,22:00:00,25.6,000,29.29,89,0.30,1012.44,0.0,0.00,23.7,10.00,991.37
48404,ROI ET AGROMET.,ร้อยเอ็ด สกษ.,ร้อยเอ็ด,16.07322,103.60844,10-05-2019,22:00:00,26.5,000,31.79,92,0.00,1011.43,0.0,0.00,25.1,10.00,993.66
48405,ROI ET,ร้อยเอ็ด,ร้อยเอ็ด,16.02000,103.74389,10-05-2019,22:00:00,28.2,000,32.07,84,0.30,1010.95,0.0,0.00,25.2,10.00,994.79
48407,UBON RATCHATHANI,อุบลราชธานี (ศูนย์ฯ),อุบลราชธานี,15.25000,104.86667,10-05-2019,22:00:00,27.3,000,29.50,81,3.30,1011.27,0.0,0.00,23.8,10.00,997.20
48408,UBON RATCHATHANI AGROMET.,อุบลราชธานี สกษ.,อุบลราชธานี,15.23914,105.02350,10-05-2019,22:00:00,25.8,000,31.00,93,0.00,1011.96,0.0,0.00,24.6,8.00,997.01
48409,SI SAKET AGROMET.,ศรีสะเกษ,ศรีสะเกษ,15.00000,104.05000,10-05-2019,22:00:00,26.5,000,33.19,96,0.01,1011.47,0.0,0.00,25.8,8.00,996.71
48410,UTHAITHANI,อุทัยธานี,อุทัยธานี,15.37417,100.03889,10-05-2019,22:00:00,25.8,"{'0': '   ', '@attributes': {'Unit': 'degree'}}",30.73,93,0.80,1011.90,0.0,0.70,24.5,6.00,1008.86
48413,WICHIAN BURI,วิเชียรบุรี,เพชรบูรณ์,15.65700,101.10800,10-05-2019,22:00:00,25.0,000,29.00,92,11.00,1012.23,0.0,0.20,23.5,7.00,1004.18
48415,AYUTTHAYA,พระนครศรีอยุธยา,พระนครศรีอยุธยา,14.53472,100.72500,10-05-2019,22:00:00,25.4,000,29.99,92,3.30,1012.00,0.0,0.00,24.1,6.00,1010.88
48416,THA TUM,ท่าตูม,สุรินทร์,15.31667,103.68333,10-05-2019,22:00:00,26.0,000,26.88,80,0.00,1012.28,0.0,0.00,22.3,8.00,997.47
48417,NAKORNNAYOK,นครนายก,นครนายก,14.36222,101.39278,10-05-2019,22:00:00,18.7,000,21.11,98,27.20,1014.04,0.0,0.00,18.4,4.00,877.77
48418,BUA CHUM,บัวชุม  ,ลพบุรี,15.26667,101.18736,10-05-2019,22:00:00,25.0,000,30.05,95,1.80,1012.45,0.0,0.00,24.1,10.00,1006.50
48419,PATHUMTHANI,ปทุมธานี สกษ.,ปทุมธานี,14.10000,100.61667,10-05-2019,22:00:00,25.5,320,31.25,96,10.00,1012.13,5.6,0.00,24.8,8.00,1011.32
48420,Samut Prakarn,สมุทรปราการ สกษ.,สมุทรปราการ,13.51667,100.76167,10-05-2019,22:00:00,26.0,140,31.65,94,38.90,1011.59,3.7,0.30,25.0,10.00,1011.14
48421,THONG PHAPHUM,ทองผาภูมิ,กาญจนบุรี,14.74222,98.63639,10-05-2019,22:00:00,24.3,000,29.05,96,4.30,1012.98,0.0,3.30,23.6,4.00,1001.51
48425,SUPHAN BURI,สุพรรณบุรี,สุพรรณบุรี,14.47444,100.13889,10-05-2019,22:00:00,25.6,000,29.29,89,7.10,1012.45,0.0,0.00,23.7,6.00,1011.43
48426,LOP BURI,ลพบุรี,ลพบุรี,14.79972,100.64500,10-05-2019,22:00:00,24.9,000,29.34,93,29.80,1012.39,0.0,0.00,23.7,7.00,1010.54
48427,U THONG AGROMET.,อู่ทอง สกษ.,สุพรรณบุรี,14.30361,99.86472,10-05-2019,22:00:00,25.6,000,28.25,86,0.00,1011.97,0.0,0.00,23.1,6.00,1011.20
48429,SUVARNABHUMI AIRPORT,สนามบินสุวรรณภูมิ,สมุทรปราการ,13.68639,100.76750,10-05-2019,22:00:00,25.6,050,29.82,91,11.80,1011.92,5.6,0.00,24.0,9.00,1011.21
48430,PRACHIN BURI,ปราจีนบุรี,ปราจีนบุรี,14.05842,101.36930,10-05-2019,22:00:00,26.7,090,30.26,86,0.20,1011.56,5.6,0.00,24.2,7.00,1010.85
48431,NAKHON RATCHASIMA,นครราชสีมา,นครราชสีมา,14.96830,102.08603,10-05-2019,22:00:00,24.1,000,28.70,96,28.00,1012.33,0.0,0.00,23.4,6.00,990.86
48432,SURIN,สุรินทร์,สุรินทร์,14.88333,103.50000,10-05-2019,22:00:00,27.2,000,30.39,84,1.40,1011.55,0.0,0.00,24.3,7.00,994.78
48433,SURIN AGROMET.,สุรินทร์ สกษ.,สุรินทร์,14.88333,103.45000,10-05-2019,22:00:00,25.5,000,29.64,91,1.20,1011.96,0.0,0.00,23.9,7.00,995.37
48434,CHOK CHAI,โชคชัย,นครราชสีมา,14.71889,102.16861,10-05-2019,22:00:00,24.5,000,28.37,92,0.00,1012.26,0.0,0.00,23.2,6.00,990.11
48435,PAKCHONG AGROMET.,ปากช่อง สกษ.,นครราชสีมา,14.64389,101.33194,10-05-2019,22:00:00,23.0,000,26.83,96,2.00,1012.88,0.0,0.00,22.2,8.00,968.83
48436,NANG RONG,นางรอง,บุรีรัมย์,14.58333,102.80000,10-05-2019,22:00:00,25.0,000,29.79,94,0.00,1011.99,0.0,0.00,24.0,8.00,991.20
48437,BURIRUM,บุรีรัมย์,บุรีรัมย์,15.22575,103.24808,10-05-2019,22:00:00,24.1,340,29.74,99,3.90,1013.29,3.7,0.00,23.9,8.00,992.14
48438,SAMUTSONGKRAM,สมุทรสงคราม,สมุทรสงคราม,13.40778,100.03222,10-05-2019,22:00:00,27.0,"{'0': '   ', '@attributes': {'Unit': 'degree'}}",29.75,83,0.00,1011.93,0.0,0.00,24.0,10.00,1011.49
48439,KABIN BURI,กบินทร์บุรี,ปราจีนบุรี,13.98333,101.70722,10-05-2019,22:00:00,25.7,000,29.74,90,0.10,1011.77,0.0,0.00,23.9,6.00,1010.34
48440,SA KAEW,สระแก้ว,สระแก้ว,13.78889,102.03472,10-05-2019,22:00:00,25.4,000,31.60,97,6.20,1011.51,0.0,0.00,25.0,8.00,1006.53
48450,KANCHANA BURI,กาญจนบุรี,กาญจนบุรี,14.02250,99.53583,10-05-2019,22:00:00,25.3,310,27.46,85,0.00,1012.36,3.7,0.00,22.6,10.00,1009.03
48451,NAKHONPATHOM,นครปฐม,นครปฐม,14.01167,99.97000,10-05-2019,22:00:00,25.6,000,30.63,93,0.00,1012.35,0.0,0.00,24.4,10.00,1011.23
48453,BANG NA AGROMET.,กรุงเทพฯ บางนา สกษ.,กรุงเทพมหานคร,13.66639,100.60611,10-05-2019,22:00:00,26.2,320,29.86,88,55.80,1011.86,3.7,0.00,24.0,9.00,1011.56
48455,BANGKOK METROPOLIS,กรุงเทพมหานคร,กรุงเทพมหานคร,13.72639,100.56000,10-05-2019,22:00:00,25.5,000,30.71,94,12.50,1012.18,0.0,0.00,24.5,10.00,1011.69
48456,DON MUANG AIRPORT,สนามบินดอนเมือง,กรุงเทพมหานคร,13.91917,100.60500,10-05-2019,22:00:00,25.9,350,30.38,91,3.00,1012.27,5.6,0.00,24.3,10.00,1010.85
48458,CHACHOENGSAO,ฉะเชิงเทรา,ฉะเชิงเทรา,13.51556,101.45833,10-05-2019,22:00:00,24.5,000,29.41,96,1.20,1013.57,0.0,0.00,23.8,10.00,1005.45
48459,CHON BURI,ชลบุรี,ชลบุรี,13.36667,100.98333,10-05-2019,22:00:00,25.5,000,31.25,96,9.70,1011.83,0.0,0.01,24.8,4.00,1011.55
48460,KO SICHANG,เกาะสีชัง,ชลบุรี,13.16167,100.80194,10-05-2019,22:00:00,25.3,000,28.75,89,10.80,1011.34,0.0,0.00,23.4,10.00,1008.18
48461,PHATTHAYA,พัทยา,ชลบุรี,12.92000,100.86944,10-05-2019,22:00:00,27.0,000,31.11,87,0.50,1011.41,0.0,0.00,24.7,10.00,1004.44
48462,ARANYA PRATHET,อรัญประเทศ,สระแก้ว,13.70000,102.58333,10-05-2019,22:00:00,26.5,000,31.79,92,0.40,1011.80,0.0,0.00,25.1,8.00,1006.16
48464,RATCHA BURI,ราชบุรี,ราชบุรี,13.48931,99.79239,10-05-2019,22:00:00,25.6,010,30.90,94,0.01,1012.59,3.7,0.01,24.6,6.00,1011.32
48465,PHETCHA BURI,เพชรบุรี,เพชรบุรี,12.99944,100.06056,10-05-2019,22:00:00,26.7,000,31.35,90,1.40,1012.01,0.0,1.30,24.8,8.00,1011.57
48474,NONG PHLUB AGROMET.,หนองพลับ สกษ.,ประจวบคีรีขันธ์,12.58333,99.73333,10-05-2019,22:00:00,24.5,270,27.10,88,0.00,1012.19,3.7,0.00,22.4,10.00,999.77
48475,HUA HIN,หัวหิน,ประจวบคีรีขันธ์,12.58611,99.96250,10-05-2019,22:00:00,27.0,280,29.48,83,0.00,1011.40,13.0,0.00,23.8,10.00,1010.68
48477,SATTAHIP,สัตหีบ,ชลบุรี,12.68333,100.98333,10-05-2019,22:00:00,26.0,360,28.70,85,0.30,1011.41,3.7,0.01,23.4,9.00,1008.95
48478,RAYONG,ระยอง,ระยอง,12.63222,101.34361,10-05-2019,22:00:00,26.2,050,30.13,89,0.00,1011.52,7.4,0.00,24.2,10.00,1011.00
48479,HUAI PONG AGROMET.,ห้วยโป่ง สกษ.,ระยอง,12.73333,101.13333,10-05-2019,22:00:00,25.0,000,30.05,95,63.10,1011.56,0.0,0.70,24.1,6.00,1006.35
48480,CHANTHA BURI,จันทบุรี,จันทบุรี,12.61667,102.11333,10-05-2019,22:00:00,25.3,000,29.01,90,3.70,1011.66,0.0,0.00,23.5,7.00,1011.24
48481,PHLIU  AGROMET.,พลิ้ว สกษ.,จันทบุรี,12.50861,102.17305,10-05-2019,22:00:00,26.0,000,32.20,96,3.00,1012.00,0.0,0.00,25.3,8.00,1009.21
48500,PRACHUAP KHIRIKHAN,ประจวบคีรีขันธ์,ประจวบคีรีขันธ์,11.83333,99.83333,10-05-2019,22:00:00,27.2,000,30.67,85,0.00,1012.58,0.0,0.00,24.5,10.00,1011.79
48501,TRAD,ตราด,ตราด,11.76667,102.88333,10-05-2019,22:00:00,26.4,060,28.11,82,0.00,1011.14,7.4,0.00,23.0,7.00,1010.68
48517,CHUMPHON,ชุมพร,ชุมพร,10.49875,99.18847,10-05-2019,22:00:00,25.5,000,29.38,90,0.00,1012.08,0.0,0.00,23.7,9.00,1011.39
48520,SAWI AGROMET.,สวี สกษ.,ชุมพร,10.33333,99.10000,10-05-2019,22:00:00,25.2,000,28.83,90,0.00,1011.64,0.0,0.00,23.4,7.00,1010.10
48532,RANONG,ระนอง,ระนอง,9.98333,98.61667,10-05-2019,22:00:00,25.0,050,29.00,92,1.20,1012.24,1.9,0.60,23.5,10.00,1011.32
48550,KO SAMUI,เกาะสมุย,สุราษฎร์ธานี,9.46667,100.05000,10-05-2019,22:00:00,27.7,000,31.36,84,0.00,1011.72,0.0,0.00,24.8,10.00,1011.03
48551,SURAT THANI,สุราษฎร์ธานี,สุราษฎร์ธานี,9.13556,99.15194,10-05-2019,22:00:00,25.0,000,29.52,93,3.80,1012.32,0.0,0.20,23.8,8.00,1011.52
48552,NAKHONSI THAMMARAT,นครศรีธรรมราช,นครศรีธรรมราช,8.53778,99.96389,10-05-2019,22:00:00,24.6,000,30.38,98,10.90,1011.57,0.0,0.00,24.3,9.00,1010.93
48554,NAKHONSI THAMMARAT AGROMET.,นครศรีธรรมราช สกษ.,นครศรีธรรมราช,8.35931,100.00000,10-05-2019,22:00:00,24.9,000,30.13,96,2.70,1011.71,0.0,0.00,24.2,10.00,1011.30
48555,SURAT THANI AGROMET.,สุราษฎร์ธานี สกษ.,สุราษฎร์ธานี,9.10000,99.63333,10-05-2019,22:00:00,24.5,000,29.67,97,56.60,1013.71,0.0,0.00,23.9,6.00,1009.44
48556,PHRA SANG,พระแสง สอท.,สุราษฎร์ธานี,8.57022,99.25825,10-05-2019,22:00:00,23.9,000,29.12,98,13.00,1012.49,0.0,0.20,23.6,7.00,1010.85
48557,CHAWANG,ฉวาง,นครศรีธรรมราช,8.43194,99.51194,10-05-2019,22:00:00,25.0,000,29.00,92,0.90,1012.11,0.0,0.00,23.5,10.00,1008.60
48560,PHATTHALUNG AGROMET.,พัทลุง สกษ.,พัทลุง,7.58333,100.16667,10-05-2019,22:00:00,25.3,000,31.41,97,0.90,1011.43,0.0,0.00,24.9,8.00,1010.07
48561,TAKUA PA,ตะกั่วป่า,พังงา,8.68417,98.25222,10-05-2019,22:00:00,25.0,000,30.85,97,1.60,1011.13,0.0,1.50,24.6,10.00,1010.24
48563,KRABI,กระบี่,กระบี่,8.10361,98.97528,10-05-2019,22:00:00,25.0,000,30.32,96,1.90,1012.08,0.0,1.50,24.3,8.00,1008.49
48564,PHUKET,ภูเก็ต,ภูเก็ต,7.88333,98.40000,10-05-2019,22:00:00,27.6,000,29.79,81,2.80,1011.60,0.0,0.00,24.0,10.00,1011.16
48565,PHUKET AIRPORT,ภูเก็ต (ศูนย์ฯ),ภูเก็ต,8.14500,98.31444,10-05-2019,22:00:00,26.3,000,30.59,89,4.50,1011.04,0.0,0.00,24.4,8.00,1010.04
48566,KO LANTA,เกาะลันตา,กระบี่,7.53333,99.05000,10-05-2019,22:00:00,26.4,000,29.17,85,59.00,1011.08,0.0,0.00,23.6,110.00,1010.26
48567,TRANG AIRPORT,ตรัง,ตรัง,7.51667,99.61667,10-05-2019,22:00:00,25.5,000,30.98,95,8.70,1011.85,0.0,0.00,24.6,8.00,1010.02
48568,SONGKHLA,สงขลา,สงขลา,7.18211,100.60769,10-05-2019,22:00:00,26.3,160,29.25,86,0.00,1011.46,3.7,0.00,23.7,10.00,1010.71
48569,HAT YAI AIRPORT,หาดใหญ่,สงขลา,6.91667,100.43333,10-05-2019,22:00:00,24.7,230,29.25,94,1.20,1011.86,5.6,0.00,23.7,10.00,1007.81
48570,SATUN,สตูล,สตูล,6.65000,100.08333,10-05-2019,22:00:00,25.3,000,29.28,91,27.80,1011.56,0.0,0.00,23.7,10.00,1010.87
48571,KHO HONG AGROMET.,คอหงษ์ สกษ.,สงขลา,7.00000,100.50000,10-05-2019,22:00:00,24.0,000,28.78,97,16.00,1011.76,0.0,0.00,23.4,10.00,1010.63
48574,SA DAO,สะเดา,สงขลา,6.79806,100.39056,10-05-2019,22:00:00,25.5,000,29.91,92,0.00,1011.92,0.0,0.00,24.0,10.00,1008.97
48580,PATTANI AIRPORT,ปัตตานี,ปัตตานี,6.78333,101.15000,10-05-2019,22:00:00,25.4,000,29.99,92,3.60,1011.51,0.0,0.00,24.1,8.00,1010.81
48581,YALA AGROMET.,ยะลา สกษ.,ยะลา,6.51667,101.28333,10-05-2019,22:00:00,24.6,220,28.03,91,0.00,1012.20,5.6,0.00,23.0,8.00,1008.02
48583,NARATHIWAT,นราธิวาส,นราธิวาส,6.41667,101.81667,10-05-2019,22:00:00,26.5,000,27.77,80,0.00,1011.39,0.0,0.00,22.8,10.00,1010.80
