WmoStationNumber,StationNameEnglish,StationNameThai,Province,Latitude,Longitude,Date,Time,Rainfall,DewPoint,WindDirection,StationPressure,WindSpeed,VaporPressure,Rainfall24Hr,RelativeHumidity,LandVisibility,MeanSeaLevelPressure,AirTemperature
48300,MAE HONG SON,แม่ฮ่องสอน,แม่ฮ่องสอน,19.29897,97.97578,10-05-2019,04:00:00,4.10,21.8,000,979.03,0.0,26.09,5.50,93,6.00,1010.35,23.0
48302,DOI ANG KANG,ดอยอ่างขาง,เชียงใหม่,19.93139,99.04833,10-05-2019,04:00:00,0.00,16.9,140,845.36,11.1,19.19,0.00,98,8.00,1007.50,17.2
48303,CHIANG RAI,เชียงราย,เชียงราย,19.96139,99.88139,10-05-2019,04:00:00,0.00,21.0,000,966.26,0.0,24.80,0.01,91,10.00,1010.48,22.5
48304,CHAING RAI AGROMET.,เชียงราย สกษ.,เชียงราย,19.87083,99.78278,10-05-2019,04:00:00,0.00,20.7,000,964.29,0.0,24.43,0.60,94,10.00,1010.55,21.8
48307,THUNG CHANG,ทุ่งช้าง,น่าน,19.41194,100.88353,10-05-2019,04:00:00,0.00,22.5,000,972.66,0.0,27.24,0.40,100,6.00,1010.84,22.5
48310,PHAYAO,พะเยา,พะเยา,19.13333,99.90000,10-05-2019,04:00:00,0.00,21.7,000,965.20,0.0,26.01,0.20,95,7.00,1010.92,22.5
48315,THA WANGPHA,ท่าวังผา,น่าน,19.11056,100.80250,10-05-2019,04:00:00,0.00,21.5,000,985.00,0.0,25.61,0.00,95,4.00,1012.19,22.4
48324,THOEN,เถิน,ลำปาง,17.63661,99.24475,10-05-2019,04:00:00,7.00,21.9,000,988.12,0.0,26.25,34.80,98,3.00,1010.24,22.2
48325,MAE SARIANG,แม่สะเรียง,แม่ฮ่องสอน,18.16667,97.93333,10-05-2019,04:00:00,0.00,22.8,000,985.83,0.0,27.66,6.60,96,6.00,1010.23,23.5
48327,CHIANG MAI,เชียงใหม่,เชียงใหม่,18.79000,98.97694,10-05-2019,04:00:00,0.00,21.8,000,976.31,0.0,26.17,40.70,90,10.00,1011.25,23.5
48328,LAMPANG,ลำปาง,ลำปาง,18.28333,99.51667,10-05-2019,04:00:00,0.00,22.3,000,982.98,0.0,26.99,40.00,97,10.00,1010.93,22.8
48329,LAMPHUN,ลำพูน,ลำพูน,18.56722,99.03389,10-05-2019,04:00:00,0.00,22.1,000,976.79,0.0,26.58,3.90,93,8.00,1010.79,23.3
48330,PHRAE,แพร่,แพร่,18.16667,100.16667,10-05-2019,04:00:00,0.00,22.8,000,991.68,0.0,27.66,3.90,96,3.00,1010.43,23.5
48331,NAN,น่าน,น่าน,18.77972,100.77778,10-05-2019,04:00:00,0.00,22.2,000,987.56,0.0,26.83,19.30,96,10.00,1010.72,23.0
48333,NAN AGROMET.,น่าน สกษ.,น่าน,18.86667,100.75000,10-05-2019,04:00:00,0.00,21.2,000,980.69,0.0,25.14,1.20,96,7.00,1011.14,21.8
48334,LAMPANG AGROMET.,ลำปาง สกษ.,ลำปาง,18.31667,99.28333,10-05-2019,04:00:00,0.00,22.1,000,974.61,0.0,26.58,29.20,98,7.00,1010.68,22.4
48350,LOEI AGROMET.,เลย สกษ.,เลย,17.40000,101.73333,10-05-2019,04:00:00,0.00,21.3,000,979.60,0.0,25.38,0.50,97,1.00,1009.84,21.8
48351,UTTARADIT,อุตรดิตถ์,อุตรดิตถ์,17.61667,100.10000,10-05-2019,04:00:00,0.00,22.6,000,1002.41,0.0,27.42,7.90,93,7.00,1009.81,23.8
48352,NONG KHAI,หนองคาย,หนองคาย,17.86717,102.73303,10-05-2019,04:00:00,0.00,23.5,000,989.78,0.0,28.88,0.00,96,3.00,1009.91,24.2
48353,LOEI,เลย,เลย,17.45000,101.73333,10-05-2019,04:00:00,0.00,21.9,000,980.94,0.0,26.25,1.20,96,4.00,1010.07,22.5
48354,UDON THANI,อุดรธานี,อุดรธานี,17.38333,102.80000,10-05-2019,04:00:00,0.00,22.4,000,990.00,0.0,27.08,6.10,95,5.00,1010.48,23.3
48355,SAKON NAKHON AGROMET.,สกลนคร สกษ.,สกลนคร,17.12503,104.06100,10-05-2019,04:00:00,0.00,21.5,000,988.73,0.0,25.60,0.00,91,10.00,1010.82,23.0
48356,SAKON NAKHON,สกลนคร,สกลนคร,17.15000,104.13333,10-05-2019,04:00:00,0.00,22.3,280,990.53,3.7,26.91,0.00,93,10.00,1010.30,23.5
48357,NAKHON PHANOM,นครพนม,นครพนม,17.41083,104.78250,10-05-2019,04:00:00,0.00,21.8,000,993.83,0.0,26.09,0.01,86,10.00,1010.78,24.2
48358,NAKHON PHANOM AGROMET.,นครพนม สกษ.,นครพนม,17.44306,104.77361,10-05-2019,04:00:00,0.00,22.4,000,993.33,0.0,27.16,0.50,94,10.00,1011.00,23.5
48360,NONG BUA LAM PHU,หนองบัวลำภู,หนองบัวลำภู,17.23250,102.42944,10-05-2019,04:00:00,0.00,22.9,000,983.00,0.0,27.84,6.20,94,8.00,1009.08,23.9
48372,SUKHOTHAI*,สุโขทัย,สุโขทัย,17.10611,99.80000,10-05-2019,04:00:00,0.10,23.7,290,1004.18,3.7,29.30,2.30,98,10.00,1010.05,24.0
48373,SI SAMRONG AGROMET.,ศรีสำโรง สกษ.,สุโขทัย,17.16136,99.86167,10-05-2019,04:00:00,0.00,23.9,000,1004.49,0.0,29.66,0.20,98,5.00,1010.76,24.2
48374,LOM SAK,หล่มสัก,เพชรบูรณ์,16.77361,101.24944,10-05-2019,04:00:00,0.00,23.2,000,993.09,0.0,28.36,0.00,94,7.00,1009.72,24.2
48375,MAE SOT,แม่สอด,ตาก,16.65917,98.55083,10-05-2019,04:00:00,0.00,20.7,000,985.21,0.0,24.39,0.30,87,8.00,1007.84,23.0
48376,TAK,ตาก,ตาก,16.87833,99.14333,10-05-2019,04:00:00,1.20,22.5,000,995.22,0.0,27.33,41.40,96,5.00,1009.82,23.3
48377,BHUMIBOL DAM,เขื่อนภูมิพล,ตาก,17.24389,99.00250,10-05-2019,04:00:00,1.70,20.7,000,993.15,0.0,24.44,26.70,95,7.00,1009.88,21.5
48378,PHITSANULOK,พิษณุโลก,พิษณุโลก,16.79481,100.27930,10-05-2019,04:00:00,0.01,23.4,000,1004.13,0.0,28.72,2.30,92,6.00,1009.41,24.7
48379,PHETCHABUN,เพชรบูรณ์,เพชรบูรณ์,16.43333,101.15000,10-05-2019,04:00:00,0.00,23.2,000,995.53,0.0,28.47,0.00,92,7.00,1008.85,24.7
48380,KAMPHAENG PHET,กำแพงเพชร,กำแพงเพชร,16.48681,99.52697,10-05-2019,04:00:00,3.40,23.6,000,999.61,0.0,29.11,60.80,100,10.00,1009.06,23.6
48381,KHON KAEN,ขอนแก่น,ขอนแก่น,16.46111,102.78972,10-05-2019,04:00:00,0.00,23.2,270,988.44,1.9,28.42,6.00,98,8.00,1010.45,23.5
48382,MAHASARAKHAM,มหาสารคาม,มหาสารคาม,16.24722,103.06805,10-05-2019,04:00:00,0.00,22.3,000,991.94,0.0,26.84,0.00,87,8.00,1009.63,24.5
48383,MUKDAHAN,มุกดาหาร,มุกดาหาร,16.54139,104.72889,10-05-2019,04:00:00,0.00,23.8,000,993.03,0.0,29.41,0.00,96,10.00,1009.02,24.5
48384,THA PHRA AGROMET.,ท่าพระ สกษ.,ขอนแก่น,16.33333,102.81667,10-05-2019,04:00:00,0.00,23.1,000,990.29,0.0,28.25,40.10,98,6.00,1009.44,23.4
48385,UMPHANG,อุ้มผาง,ตาก,16.02472,98.86444,10-05-2019,04:00:00,0.00,20.2,000,959.63,0.0,23.67,0.00,94,5.00,1011.83,21.3
48386,PICHIT AGROMET.,พิจิตร สกษ.,พิจิตร,16.43806,100.29250,10-05-2019,04:00:00,0.00,23.1,080,1005.29,7.4,28.20,0.20,92,3.00,1009.29,24.4
48387,DOI MU SOE AGROMET.,ดอยมูเซอร์ สกษ.,ตาก,16.75000,98.93333,10-05-2019,04:00:00,1.50,18.0,000,913.84,0.0,20.68,17.00,96,2.00,1010.08,18.7
48390,KALASIN,กาฬสินธุ์,กาฬสินธุ์,16.33250,103.58833,10-05-2019,04:00:00,0.00,23.5,000,994.09,0.0,28.96,8.10,97,6.00,1010.29,24.1
48400,NAKHON SAWAN,นครสวรรค์ ,นครสวรรค์,15.67183,100.13236,10-05-2019,04:00:00,0.00,23.2,050,1005.60,1.9,28.47,0.30,92,7.00,1009.68,24.7
48401,TAKFA AGROMET.,ตากฟ้า สกษ.,นครสวรรค์,15.34944,100.53028,10-05-2019,04:00:00,0.00,23.7,010,1000.17,3.7,29.26,0.10,92,5.00,1010.95,25.0
48402,CHAINAT AGROMET.,ชัยนาท สกษ.,ชัยนาท,15.15000,100.18333,10-05-2019,04:00:00,0.00,23.6,000,1008.22,0.0,29.08,0.00,84,9.00,1010.16,26.5
48403,CHAIYAPHUM,ชัยภูมิ,ชัยภูมิ,15.80000,102.03333,10-05-2019,04:00:00,0.00,22.1,000,988.39,0.0,26.52,0.00,84,10.00,1009.45,24.9
48404,ROI ET AGROMET.,ร้อยเอ็ด สกษ.,ร้อยเอ็ด,16.07322,103.60844,10-05-2019,04:00:00,0.00,23.7,000,992.04,0.0,29.31,0.00,97,8.00,1009.91,24.3
48405,ROI ET,ร้อยเอ็ด,ร้อยเอ็ด,16.02000,103.74389,10-05-2019,04:00:00,0.00,24.2,000,993.49,0.0,30.12,0.00,97,8.00,1009.83,24.6
48407,UBON RATCHATHANI,อุบลราชธานี (ศูนย์ฯ),อุบลราชธานี,15.25000,104.86667,10-05-2019,04:00:00,0.01,21.2,000,996.68,0.0,25.11,3.80,89,10.00,1010.95,23.0
48408,UBON RATCHATHANI AGROMET.,อุบลราชธานี สกษ.,อุบลราชธานี,15.23914,105.02350,10-05-2019,04:00:00,0.00,21.7,000,996.18,0.0,26.01,8.00,95,7.00,1011.30,22.5
48409,SI SAKET AGROMET.,ศรีสะเกษ,ศรีสะเกษ,15.00000,104.05000,10-05-2019,04:00:00,0.01,24.9,000,996.12,0.0,31.55,0.01,95,7.00,1010.90,25.8
48410,UTHAITHANI,อุทัยธานี,อุทัยธานี,15.37417,100.03889,10-05-2019,04:00:00,0.00,23.7,"{'0': '   ', '@attributes': {'Unit': 'degree'}}",1006.59,0.0,29.21,0.00,89,8.00,1009.63,25.7
48413,WICHIAN BURI,วิเชียรบุรี,เพชรบูรณ์,15.65700,101.10800,10-05-2019,04:00:00,0.00,22.9,000,1001.56,0.0,27.90,0.00,85,7.00,1009.56,25.7
48415,AYUTTHAYA,พระนครศรีอยุธยา,พระนครศรีอยุธยา,14.53472,100.72500,10-05-2019,04:00:00,0.00,24.3,000,1008.29,0.0,30.40,0.00,89,7.00,1009.41,26.2
48416,THA TUM,ท่าตูม,สุรินทร์,15.31667,103.68333,10-05-2019,04:00:00,0.00,24.6,000,994.35,0.0,31.00,0.00,93,8.00,1009.13,25.8
48417,NAKORNNAYOK,นครนายก,นครนายก,14.36222,101.39278,10-05-2019,04:00:00,0.00,17.5,000,875.53,0.0,20.02,40.40,99,.10,1011.95,17.7
48418,BUA CHUM,บัวชุม  ,ลพบุรี,15.26667,101.18736,10-05-2019,04:00:00,0.00,22.8,000,1004.03,0.0,27.78,0.00,90,6.00,1009.97,24.6
48419,PATHUMTHANI,ปทุมธานี สกษ.,ปทุมธานี,14.10000,100.61667,10-05-2019,04:00:00,0.00,24.4,000,1008.86,0.0,30.50,31.40,96,8.00,1009.67,25.1
48420,Samut Prakarn,สมุทรปราการ สกษ.,สมุทรปราการ,13.51667,100.76167,10-05-2019,04:00:00,0.00,25.0,000,1008.63,0.0,31.66,0.00,89,8.00,1009.08,27.0
48421,THONG PHAPHUM,ทองผาภูมิ,กาญจนบุรี,14.74222,98.63639,10-05-2019,04:00:00,0.00,23.6,000,998.63,0.0,29.15,0.40,95,5.00,1010.06,24.5
48425,SUPHAN BURI,สุพรรณบุรี,สุพรรณบุรี,14.47444,100.13889,10-05-2019,04:00:00,0.00,23.1,000,1008.91,0.0,28.18,0.00,84,6.00,1009.93,26.0
48426,LOP BURI,ลพบุรี,ลพบุรี,14.79972,100.64500,10-05-2019,04:00:00,0.00,24.4,000,1007.63,0.0,30.51,0.00,89,7.00,1009.47,26.4
48427,U THONG AGROMET.,อู่ทอง สกษ.,สุพรรณบุรี,14.30361,99.86472,10-05-2019,04:00:00,0.00,23.8,000,1008.97,0.0,29.41,0.00,96,3.00,1009.74,24.5
48429,SUVARNABHUMI AIRPORT,สนามบินสุวรรณภูมิ,สมุทรปราการ,13.68639,100.76750,10-05-2019,04:00:00,0.00,24.6,040,1008.94,3.7,30.94,0.50,91,9.00,1009.65,26.2
48430,PRACHIN BURI,ปราจีนบุรี,ปราจีนบุรี,14.05842,101.36930,10-05-2019,04:00:00,0.00,23.9,000,1008.44,0.0,29.58,0.00,89,7.00,1009.14,25.9
48431,NAKHON RATCHASIMA,นครราชสีมา,นครราชสีมา,14.96830,102.08603,10-05-2019,04:00:00,0.00,22.5,000,988.56,0.0,27.19,0.00,87,7.00,1009.93,24.7
48432,SURIN,สุรินทร์,สุรินทร์,14.88333,103.50000,10-05-2019,04:00:00,0.00,23.9,000,993.04,0.0,29.62,1.10,92,6.00,1009.90,25.2
48433,SURIN AGROMET.,สุรินทร์ สกษ.,สุรินทร์,14.88333,103.45000,10-05-2019,04:00:00,0.00,24.4,000,993.78,0.0,30.48,0.10,97,6.00,1010.38,24.8
48434,CHOK CHAI,โชคชัย,นครราชสีมา,14.71889,102.16861,10-05-2019,04:00:00,0.00,23.0,000,987.89,0.0,28.11,0.00,91,4.00,1009.99,24.5
48435,PAKCHONG AGROMET.,ปากช่อง สกษ.,นครราชสีมา,14.64389,101.33194,10-05-2019,04:00:00,0.00,22.2,000,966.87,0.0,26.83,0.01,96,8.00,1010.84,23.0
48436,NANG RONG,นางรอง,บุรีรัมย์,14.58333,102.80000,10-05-2019,04:00:00,0.00,23.8,000,989.03,0.0,29.52,0.40,93,10.00,1009.78,25.0
48437,BURIRUM,บุรีรัมย์,บุรีรัมย์,15.22575,103.24808,10-05-2019,04:00:00,0.00,25.1,070,990.39,7.4,31.85,0.00,100,5.00,1011.42,25.1
48438,SAMUTSONGKRAM,สมุทรสงคราม,สมุทรสงคราม,13.40778,100.03222,10-05-2019,04:00:00,0.00,23.4,"{'0': '   ', '@attributes': {'Unit': 'degree'}}",1008.76,0.0,28.74,0.00,83,10.00,1009.19,26.6
48439,KABIN BURI,กบินทร์บุรี,ปราจีนบุรี,13.98333,101.70722,10-05-2019,04:00:00,0.00,23.7,000,1007.60,0.0,29.22,15.40,97,6.00,1009.03,24.1
48440,SA KAEW,สระแก้ว,สระแก้ว,13.78889,102.03472,10-05-2019,04:00:00,0.00,23.9,000,1004.33,0.0,29.57,17.90,97,7.00,1009.32,24.3
48450,KANCHANA BURI,กาญจนบุรี,กาญจนบุรี,14.02250,99.53583,10-05-2019,04:00:00,0.00,23.6,000,1006.19,0.0,29.16,7.20,93,10.00,1009.51,24.8
48451,NAKHONPATHOM,นครปฐม,นครปฐม,14.01167,99.97000,10-05-2019,04:00:00,0.00,23.6,000,1008.45,0.0,29.15,0.00,95,10.00,1009.57,24.5
48453,BANG NA AGROMET.,กรุงเทพฯ บางนา สกษ.,กรุงเทพมหานคร,13.66639,100.60611,10-05-2019,04:00:00,0.00,24.2,000,1009.20,0.0,30.26,2.70,86,10.00,1009.50,26.7
48455,BANGKOK METROPOLIS,กรุงเทพมหานคร,กรุงเทพมหานคร,13.72639,100.56000,10-05-2019,04:00:00,0.00,24.1,000,1008.73,0.0,30.07,14.00,86,10.00,1009.22,26.6
48456,DON MUANG AIRPORT,สนามบินดอนเมือง,กรุงเทพมหานคร,13.91917,100.60500,10-05-2019,04:00:00,0.00,24.6,000,1008.70,0.0,30.87,37.60,96,9.00,1010.12,25.3
48458,CHACHOENGSAO,ฉะเชิงเทรา,ฉะเชิงเทรา,13.51556,101.45833,10-05-2019,04:00:00,0.00,22.7,000,1002.93,0.0,27.57,2.90,98,10.00,1011.08,23.0
48459,CHON BURI,ชลบุรี,ชลบุรี,13.36667,100.98333,10-05-2019,04:00:00,0.00,24.6,000,1008.90,0.0,31.00,15.70,93,4.00,1009.18,25.8
48460,KO SICHANG,เกาะสีชัง,ชลบุรี,13.16167,100.80194,10-05-2019,04:00:00,0.00,24.8,000,1005.53,0.0,31.25,0.00,96,10.00,1008.68,25.5
48461,PHATTHAYA,พัทยา,ชลบุรี,12.92000,100.86944,10-05-2019,04:00:00,0.00,25.3,000,1002.25,0.0,32.20,0.00,96,10.00,1009.22,26.0
48462,ARANYA PRATHET,อรัญประเทศ,สระแก้ว,13.70000,102.58333,10-05-2019,04:00:00,0.00,24.1,000,1004.35,0.0,30.07,21.70,93,8.00,1010.00,25.3
48464,RATCHA BURI,ราชบุรี,ราชบุรี,13.48931,99.79239,10-05-2019,04:00:00,0.00,23.7,000,1009.12,0.0,29.25,0.00,94,6.00,1010.39,24.7
48465,PHETCHA BURI,เพชรบุรี,เพชรบุรี,12.99944,100.06056,10-05-2019,04:00:00,0.00,24.0,000,1008.84,0.0,29.89,0.00,86,11.00,1009.27,26.5
48474,NONG PHLUB AGROMET.,หนองพลับ สกษ.,ประจวบคีรีขันธ์,12.58333,99.73333,10-05-2019,04:00:00,0.00,22.5,000,997.42,0.0,27.32,0.10,97,6.00,1009.88,23.0
48475,HUA HIN,หัวหิน,ประจวบคีรีขันธ์,12.58611,99.96250,10-05-2019,04:00:00,0.00,23.2,290,1008.42,5.6,28.42,0.00,86,8.00,1009.14,25.7
48477,SATTAHIP,สัตหีบ,ชลบุรี,12.68333,100.98333,10-05-2019,04:00:00,0.00,24.5,360,1007.18,3.7,30.81,0.00,93,6.00,1009.63,25.7
48478,RAYONG,ระยอง,ระยอง,12.63222,101.34361,10-05-2019,04:00:00,0.00,24.5,000,1008.85,0.0,30.71,0.00,94,8.00,1009.37,25.5
48479,HUAI PONG AGROMET.,ห้วยโป่ง สกษ.,ระยอง,12.73333,101.13333,10-05-2019,04:00:00,0.00,24.8,000,1003.92,0.0,31.36,1.80,95,7.00,1009.11,25.7
48480,CHANTHA BURI,จันทบุรี,จันทบุรี,12.61667,102.11333,10-05-2019,04:00:00,0.00,23.8,000,1008.96,0.0,29.49,46.40,97,7.00,1009.38,24.4
48500,PRACHUAP KHIRIKHAN,ประจวบคีรีขันธ์,ประจวบคีรีขันธ์,11.83333,99.83333,10-05-2019,04:00:00,0.00,25.6,000,1008.48,0.0,32.77,0.00,92,10.00,1009.27,27.0
48501,TRAD,ตราด,ตราด,11.76667,102.88333,10-05-2019,04:00:00,0.00,22.3,070,1009.00,5.6,26.84,19.90,87,6.00,1009.46,24.5
48517,CHUMPHON,ชุมพร,ชุมพร,10.49875,99.18847,10-05-2019,04:00:00,0.00,23.6,000,1008.82,0.0,29.05,0.00,96,7.00,1009.51,24.3
48520,SAWI AGROMET.,สวี สกษ.,ชุมพร,10.33333,99.10000,10-05-2019,04:00:00,0.00,23.3,000,1008.13,0.0,28.53,0.00,96,8.00,1009.67,24.0
48532,RANONG,ระนอง,ระนอง,9.98333,98.61667,10-05-2019,04:00:00,0.00,23.7,000,1009.19,0.0,29.26,0.00,92,10.00,1010.12,25.0
48550,KO SAMUI,เกาะสมุย,สุราษฎร์ธานี,9.46667,100.05000,10-05-2019,04:00:00,0.00,23.9,290,1008.57,13.0,29.62,0.00,86,10.00,1009.26,26.5
48551,SURAT THANI,สุราษฎร์ธานี,สุราษฎร์ธานี,9.13556,99.15194,10-05-2019,04:00:00,0.00,22.8,000,1009.18,0.0,27.66,49.10,96,7.00,1009.99,23.5
48552,NAKHONSI THAMMARAT,นครศรีธรรมราช,นครศรีธรรมราช,8.53778,99.96389,10-05-2019,04:00:00,0.00,23.5,000,1009.03,0.0,28.97,0.00,95,10.00,1009.67,24.4
48554,NAKHONSI THAMMARAT AGROMET.,นครศรีธรรมราช สกษ.,นครศรีธรรมราช,8.35931,100.00000,10-05-2019,04:00:00,2.00,24.0,000,1009.73,0.0,29.85,2.00,97,10.00,1010.14,24.6
48555,SURAT THANI AGROMET.,สุราษฎร์ธานี สกษ.,สุราษฎร์ธานี,9.10000,99.63333,10-05-2019,04:00:00,0.00,22.8,000,1007.48,0.0,27.66,0.20,96,5.00,1011.75,23.5
48556,PHRA SANG,พระแสง สอท.,สุราษฎร์ธานี,8.57022,99.25825,10-05-2019,04:00:00,0.00,22.6,000,1008.30,0.0,27.40,32.80,98,5.00,1009.94,22.9
48557,CHAWANG,ฉวาง,นครศรีธรรมราช,8.43194,99.51194,10-05-2019,04:00:00,0.00,23.3,000,1006.81,0.0,28.53,0.90,96,10.00,1010.33,24.0
48560,PHATTHALUNG AGROMET.,พัทลุง สกษ.,พัทลุง,7.58333,100.16667,10-05-2019,04:00:00,0.00,24.4,000,1007.70,0.0,30.48,0.00,97,8.00,1009.07,24.8
48561,TAKUA PA,ตะกั่วป่า,พังงา,8.68417,98.25222,10-05-2019,04:00:00,0.00,23.3,000,1009.17,0.0,28.60,15.80,98,10.00,1010.07,23.6
48563,KRABI,กระบี่,กระบี่,8.10361,98.97528,10-05-2019,04:00:00,0.00,23.8,000,1006.17,0.0,29.49,0.20,97,10.00,1009.77,24.4
48564,PHUKET,ภูเก็ต,ภูเก็ต,7.88333,98.40000,10-05-2019,04:00:00,1.40,24.3,000,1009.04,0.0,30.32,3.40,96,8.00,1009.47,25.0
48565,PHUKET AIRPORT,ภูเก็ต (ศูนย์ฯ),ภูเก็ต,8.14500,98.31444,10-05-2019,04:00:00,2.10,23.7,000,1008.59,0.0,29.25,4.00,94,8.00,1009.59,24.7
48566,KO LANTA,เกาะลันตา,กระบี่,7.53333,99.05000,10-05-2019,04:00:00,0.00,23.5,000,1008.81,0.0,28.97,0.00,95,10.00,1009.63,24.4
48567,TRANG AIRPORT,ตรัง,ตรัง,7.51667,99.61667,10-05-2019,04:00:00,0.00,23.9,000,1007.78,0.0,29.59,2.00,96,10.00,1009.61,24.6
48568,SONGKHLA,สงขลา,สงขลา,7.18211,100.60769,10-05-2019,04:00:00,0.00,24.0,000,1008.60,0.0,29.89,1.10,93,10.00,1009.36,25.2
48569,HAT YAI AIRPORT,หาดใหญ่,สงขลา,6.91667,100.43333,10-05-2019,04:00:00,0.00,24.1,000,1005.36,0.0,30.02,0.20,98,8.00,1009.40,24.4
48570,SATUN,สตูล,สตูล,6.65000,100.08333,10-05-2019,04:00:00,0.00,24.5,000,1009.52,0.0,30.71,0.00,94,10.00,1010.21,25.5
48571,KHO HONG AGROMET.,คอหงษ์ สกษ.,สงขลา,7.00000,100.50000,10-05-2019,04:00:00,0.00,24.2,000,1008.36,0.0,30.22,6.80,97,10.00,1009.48,24.8
48574,SA DAO,สะเดา,สงขลา,6.79806,100.39056,10-05-2019,04:00:00,0.00,23.7,000,1006.71,0.0,29.22,0.00,97,10.00,1009.67,24.1
