WmoStationNumber,StationNameEnglish,StationNameThai,Province,Latitude,Longitude,StationPressure,Date,Time,Rainfall24Hr,DewPoint,WindSpeed,RelativeHumidity,AirTemperature,WindDirection,MeanSeaLevelPressure,Rainfall,LandVisibility,VaporPressure
48300,MAE HONG SON,แม่ฮ่องสอน,แม่ฮ่องสอน,19.29897,97.97578,979.65,10-09-2019,13:00:00,3.10,22.0,0.0,59,31.0,000,1010.16,0.00,12.00,26.46
48302,DOI ANG KANG,ดอยอ่างขาง,เชียงใหม่,19.93139,99.04833,848.86,10-09-2019,13:00:00,0.00,18.0,0.0,78,22.0,000,1008.85,0.00,8.00,20.60
48303,CHIANG RAI,เชียงราย,เชียงราย,19.96139,99.88139,967.26,10-09-2019,13:00:00,0.00,20.5,0.0,49,32.5,000,1010.05,0.00,12.00,24.16
48304,CHAING RAI AGROMET.,เชียงราย สกษ.,เชียงราย,19.87083,99.78278,965.26,10-09-2019,13:00:00,0.00,20.8,0.0,52,32.0,000,1009.99,0.00,15.00,24.57
48307,THUNG CHANG,ทุ่งช้าง,น่าน,19.41194,100.88353,973.35,10-09-2019,13:00:00,0.00,23.7,0.0,58,33.0,000,1010.22,0.00,12.00,29.25
48310,PHAYAO,พะเยา,พะเยา,19.13333,99.90000,967.59,10-09-2019,13:00:00,0.00,23.7,0.0,64,31.3,000,1012.07,0.00,10.00,29.24
48315,THA WANGPHA,ท่าวังผา,น่าน,19.11056,100.80250,984.94,10-09-2019,13:00:00,0.00,23.1,3.7,58,32.5,090,1011.23,0.00,12.00,28.25
48324,THOEN,เถิน,ลำปาง,17.63661,99.24475,988.71,10-09-2019,13:00:00,0.80,23.2,1.9,58,32.6,170,1010.09,0.00,10.00,28.45
48325,MAE SARIANG,แม่สะเรียง,แม่ฮ่องสอน,18.16667,97.93333,986.16,10-09-2019,13:00:00,0.00,22.4,0.0,55,32.5,000,1009.84,0.00,10.00,27.13
48327,CHIANG MAI,เชียงใหม่,เชียงใหม่,18.79000,98.97694,976.47,10-09-2019,13:00:00,0.00,21.1,3.7,50,33.0,150,1010.32,0.00,12.00,25.08
48328,LAMPANG,ลำปาง,ลำปาง,18.28333,99.51667,983.18,10-09-2019,13:00:00,6.30,23.8,0.0,60,32.7,000,1010.22,0.00,10.00,29.50
48329,LAMPHUN,ลำพูน,ลำพูน,18.56722,99.03389,977.09,10-09-2019,13:00:00,0.00,23.1,0.0,58,32.4,000,1010.07,0.00,12.00,28.33
48330,PHRAE,แพร่,แพร่,18.16667,100.16667,991.76,10-09-2019,13:00:00,0.00,22.7,5.6,53,33.6,150,1009.89,0.00,7.00,27.62
48331,NAN,น่าน,น่าน,18.77972,100.77778,988.14,10-09-2019,13:00:00,0.00,22.4,7.4,55,32.6,110,1010.58,0.00,10.00,27.05
48333,NAN AGROMET.,น่าน สกษ.,น่าน,18.86667,100.75000,983.10,10-09-2019,13:00:00,0.00,22.8,0.0,57,32.4,000,1012.56,0.00,12.00,27.77
48334,LAMPANG AGROMET.,ลำปาง สกษ.,ลำปาง,18.31667,99.28333,975.47,10-09-2019,13:00:00,0.00,23.1,0.0,64,30.8,000,1010.57,0.00,8.00,28.26
48350,LOEI AGROMET.,เลย สกษ.,เลย,17.40000,101.73333,980.64,10-09-2019,13:00:00,0.10,23.8,5.6,62,32.1,010,1009.88,0.00,17.00,29.42
48351,UTTARADIT,อุตรดิตถ์,อุตรดิตถ์,17.61667,100.10000,1002.79,10-09-2019,13:00:00,7.70,22.1,0.0,49,34.5,000,1009.94,0.00,9.00,26.60
48352,NONG KHAI,หนองคาย,หนองคาย,17.86717,102.73303,991.01,10-09-2019,13:00:00,10.40,22.7,7.4,56,32.6,160,1010.60,0.00,8.00,27.61
48353,LOEI,เลย,เลย,17.45000,101.73333,982.14,10-09-2019,13:00:00,0.00,21.9,5.6,58,31.2,020,1010.46,0.00,15.00,26.29
48354,UDON THANI,อุดรธานี,อุดรธานี,17.38333,102.80000,990.83,10-09-2019,13:00:00,0.00,21.8,3.7,55,32.1,040,1010.73,0.00,18.00,26.09
48355,SAKON NAKHON AGROMET.,สกลนคร สกษ.,สกลนคร,17.12503,104.06100,989.18,10-09-2019,13:00:00,0.00,23.0,7.4,57,32.6,180,1010.57,0.00,12.00,28.17
48356,SAKON NAKHON,สกลนคร,สกลนคร,17.15000,104.13333,990.81,10-09-2019,13:00:00,0.01,22.3,3.7,55,32.5,150,1009.99,0.00,14.00,26.86
48357,NAKHON PHANOM,นครพนม,นครพนม,17.41083,104.78250,993.98,10-09-2019,13:00:00,10.60,22.2,5.6,52,33.3,090,1010.43,0.00,12.00,26.75
48358,NAKHON PHANOM AGROMET.,นครพนม สกษ.,นครพนม,17.44306,104.77361,993.54,10-09-2019,13:00:00,7.50,23.3,5.6,60,32.0,090,1010.71,0.00,12.00,28.66
48360,NONG BUA LAM PHU,หนองบัวลำภู,หนองบัวลำภู,17.23250,102.42944,984.53,10-09-2019,13:00:00,0.00,22.3,3.7,55,32.4,010,1009.91,0.00,12.00,26.94
48372,SUKHOTHAI*,สุโขทัย,สุโขทัย,17.10611,99.80000,1004.47,10-09-2019,13:00:00,0.00,25.6,3.7,65,33.2,270,1010.16,0.00,8.00,32.89
48373,SI SAMRONG AGROMET.,ศรีสำโรง สกษ.,สุโขทัย,17.16136,99.86167,1003.76,10-09-2019,13:00:00,0.00,23.5,5.6,53,34.4,070,1009.82,0.00,8.00,28.96
48374,LOM SAK,หล่มสัก,เพชรบูรณ์,16.77361,101.24944,994.12,10-09-2019,13:00:00,0.10,23.1,0.0,58,32.5,000,1010.31,0.00,10.00,28.25
48375,MAE SOT,แม่สอด,ตาก,16.65917,98.55083,986.22,10-09-2019,13:00:00,0.00,23.7,0.0,60,32.6,000,1008.15,0.00,10.00,29.30
48376,TAK,ตาก,ตาก,16.87833,99.14333,996.46,10-09-2019,13:00:00,0.00,24.8,5.6,62,33.0,090,1010.62,0.00,10.00,31.28
48377,BHUMIBOL DAM,เขื่อนภูมิพล,ตาก,17.24389,99.00250,993.73,10-09-2019,13:00:00,5.60,22.7,0.0,52,34.0,000,1009.78,0.00,8.00,27.58
48378,PHITSANULOK,พิษณุโลก,พิษณุโลก,16.79481,100.27930,1005.12,10-09-2019,13:00:00,1.90,24.0,7.4,61,32.6,320,1010.27,0.00,10.00,29.87
48379,PHETCHABUN,เพชรบูรณ์,เพชรบูรณ์,16.43333,101.15000,995.69,10-09-2019,13:00:00,0.70,24.2,5.6,59,33.5,070,1008.63,0.00,12.00,30.28
48380,KAMPHAENG PHET,กำแพงเพชร,กำแพงเพชร,16.48681,99.52697,1001.09,10-09-2019,13:00:00,0.00,24.4,5.6,59,33.5,050,1010.25,0.00,12.00,30.57
48381,KHON KAEN,ขอนแก่น,ขอนแก่น,16.46111,102.78972,989.21,10-09-2019,13:00:00,0.00,23.3,5.6,60,32.0,030,1010.62,0.00,10.00,28.66
48382,MAHASARAKHAM,มหาสารคาม,มหาสารคาม,16.24722,103.06805,992.90,10-09-2019,13:00:00,0.00,23.9,9.3,61,32.5,120,1010.14,0.00,12.00,29.66
48383,MUKDAHAN,มุกดาหาร,มุกดาหาร,16.54139,104.72889,993.94,10-09-2019,13:00:00,0.10,23.7,7.4,58,33.0,080,1009.50,0.00,14.00,29.25
48384,THA PHRA AGROMET.,ท่าพระ สกษ.,ขอนแก่น,16.33333,102.81667,990.82,10-09-2019,13:00:00,0.00,23.7,7.4,58,33.2,030,1009.37,0.00,10.00,29.37
48385,UMPHANG,อุ้มผาง,ตาก,16.02472,98.86444,960.23,10-09-2019,13:00:00,0.00,21.3,0.0,57,31.0,000,1010.77,0.00,11.00,25.39
48386,PICHIT AGROMET.,พิจิตร สกษ.,พิจิตร,16.43806,100.29250,1006.06,10-09-2019,13:00:00,0.01,24.7,11.1,61,33.2,090,1009.95,0.00,7.00,31.11
48387,DOI MU SOE AGROMET.,ดอยมูเซอร์ สกษ.,ตาก,16.75000,98.93333,916.08,10-09-2019,13:00:00,0.00,21.2,7.4,73,26.5,050,1009.95,0.00,9.00,25.20
48390,KALASIN,กาฬสินธุ์,กาฬสินธุ์,16.33250,103.58833,994.55,10-09-2019,13:00:00,0.00,23.5,0.0,60,32.3,000,1010.31,0.00,10.00,28.98
48400,NAKHON SAWAN,นครสวรรค์ ,นครสวรรค์,15.67183,100.13236,1006.59,10-09-2019,13:00:00,30.00,25.2,3.7,65,32.7,030,1010.56,0.00,6.00,32.12
48401,TAKFA AGROMET.,ตากฟ้า สกษ.,นครสวรรค์,15.34944,100.53028,1000.68,10-09-2019,13:00:00,30.00,24.9,9.3,66,32.0,020,1011.22,0.00,10.00,31.52
48402,CHAINAT AGROMET.,ชัยนาท สกษ.,ชัยนาท,15.15000,100.18333,1009.22,10-09-2019,13:00:00,0.01,24.9,3.7,66,32.0,360,1011.13,0.00,10.00,31.52
48403,CHAIYAPHUM,ชัยภูมิ,ชัยภูมิ,15.80000,102.03333,989.54,10-09-2019,13:00:00,0.00,22.5,5.6,56,32.3,030,1010.10,0.00,12.00,27.30
48404,ROI ET AGROMET.,ร้อยเอ็ด สกษ.,ร้อยเอ็ด,16.07322,103.60844,992.50,10-09-2019,13:00:00,0.00,24.3,0.0,62,32.4,000,1009.90,0.00,10.00,30.32
48405,ROI ET,ร้อยเอ็ด,ร้อยเอ็ด,16.02000,103.74389,993.87,10-09-2019,13:00:00,0.00,24.4,5.6,60,33.2,260,1009.75,0.00,10.00,30.53
48407,UBON RATCHATHANI,อุบลราชธานี (ศูนย์ฯ),อุบลราชธานี,15.25000,104.86667,995.56,10-09-2019,13:00:00,0.00,23.9,5.6,58,33.3,240,1009.34,0.00,10.00,29.58
48408,UBON RATCHATHANI AGROMET.,อุบลราชธานี สกษ.,อุบลราชธานี,15.23914,105.02350,995.89,10-09-2019,13:00:00,0.00,24.9,0.0,61,33.4,000,1010.46,0.00,10.00,31.54
48409,SI SAKET AGROMET.,ศรีสะเกษ,ศรีสะเกษ,15.00000,104.05000,996.39,10-09-2019,13:00:00,0.00,25.8,3.7,67,32.8,200,1010.84,0.00,10.00,33.22
48410,UTHAITHANI,อุทัยธานี,อุทัยธานี,15.37417,100.03889,1007.26,10-09-2019,13:00:00,28.10,24.2,0.0,64,31.8,"{'0': '   ', '@attributes': {'Unit': 'degree'}}",1010.24,0.00,10.00,30.24
48413,WICHIAN BURI,วิเชียรบุรี,เพชรบูรณ์,15.65700,101.10800,1002.37,10-09-2019,13:00:00,15.30,23.9,9.3,69,30.2,040,1010.26,0.01,10.00,29.58
48415,AYUTTHAYA,พระนครศรีอยุธยา,พระนครศรีอยุธยา,14.53472,100.72500,1010.11,10-09-2019,13:00:00,2.60,25.7,5.6,63,33.7,310,1011.20,0.00,8.00,33.08
48416,THA TUM,ท่าตูม,สุรินทร์,15.31667,103.68333,995.65,10-09-2019,13:00:00,0.00,24.8,3.7,66,31.9,100,1010.14,0.00,8.00,31.31
48417,NAKORNNAYOK,นครนายก,นครนายก,14.36222,101.39278,876.78,10-09-2019,13:00:00,45.80,19.2,0.0,99,19.4,000,1012.55,36.80,2.00,22.28
48418,BUA CHUM,บัวชุม  ,ลพบุรี,15.26667,101.18736,1004.20,10-09-2019,13:00:00,8.90,27.2,5.6,85,30.0,060,1010.04,2.80,5.00,36.14
48419,PATHUMTHANI,ปทุมธานี สกษ.,ปทุมธานี,14.10000,100.61667,1009.58,10-09-2019,13:00:00,0.00,24.8,5.6,59,34.0,010,1010.37,0.00,8.00,31.34
48420,Samut Prakarn,สมุทรปราการ สกษ.,สมุทรปราการ,13.51667,100.76167,1009.77,10-09-2019,13:00:00,6.40,25.9,11.1,69,32.3,230,1010.21,0.00,10.00,33.34
48421,THONG PHAPHUM,ทองผาภูมิ,กาญจนบุรี,14.74222,98.63639,998.73,10-09-2019,13:00:00,5.30,24.2,0.0,59,33.5,000,1009.82,0.00,10.00,30.28
48425,SUPHAN BURI,สุพรรณบุรี,สุพรรณบุรี,14.47444,100.13889,1009.82,10-09-2019,13:00:00,0.00,24.4,3.7,64,32.1,340,1010.81,0.00,8.00,30.57
48426,LOP BURI,ลพบุรี,ลพบุรี,14.79972,100.64500,1008.63,10-09-2019,13:00:00,24.50,25.2,3.7,68,32.0,030,1010.43,0.00,7.00,32.10
48427,U THONG AGROMET.,อู่ทอง สกษ.,สุพรรณบุรี,14.30361,99.86472,1009.30,10-09-2019,13:00:00,0.00,24.0,0.0,59,33.0,000,1010.05,0.00,9.00,29.83
48429,SUVARNABHUMI AIRPORT,สนามบินสุวรรณภูมิ,สมุทรปราการ,13.68639,100.76750,1009.16,10-09-2019,13:00:00,0.60,24.5,3.7,61,33.0,110,1009.85,0.00,10.00,30.69
48430,PRACHIN BURI,ปราจีนบุรี,ปราจีนบุรี,14.05842,101.36930,1010.27,10-09-2019,13:00:00,0.00,23.0,7.4,59,32.0,060,1010.96,0.00,10.00,28.10
48431,NAKHON RATCHASIMA,นครราชสีมา,นครราชสีมา,14.96830,102.08603,989.66,10-09-2019,13:00:00,0.00,24.6,5.6,73,30.0,090,1010.68,0.00,9.00,30.87
48432,SURIN,สุรินทร์,สุรินทร์,14.88333,103.50000,993.53,10-09-2019,13:00:00,0.00,25.3,5.6,71,31.2,040,1010.06,0.00,9.00,32.18
48433,SURIN AGROMET.,สุรินทร์ สกษ.,สุรินทร์,14.88333,103.45000,994.75,10-09-2019,13:00:00,0.00,25.5,3.7,74,30.7,180,1011.04,0.00,14.00,32.59
48434,CHOK CHAI,โชคชัย,นครราชสีมา,14.71889,102.16861,989.09,10-09-2019,13:00:00,8.20,24.2,0.0,92,25.7,000,1011.13,8.20,8.00,30.28
48435,PAKCHONG AGROMET.,ปากช่อง สกษ.,นครราชสีมา,14.64389,101.33194,967.63,10-09-2019,13:00:00,0.40,23.7,9.3,86,26.2,050,1011.16,0.40,9.00,29.33
48436,NANG RONG,นางรอง,บุรีรัมย์,14.58333,102.80000,989.68,10-09-2019,13:00:00,3.90,24.9,5.6,74,30.0,320,1010.10,0.00,10.00,31.44
48437,BURIRUM,บุรีรัมย์,บุรีรัมย์,15.22575,103.24808,991.37,10-09-2019,13:00:00,0.00,26.0,9.3,73,31.3,030,1011.99,0.00,10.00,33.57
48438,SAMUTSONGKRAM,สมุทรสงคราม,สมุทรสงคราม,13.40778,100.03222,1009.62,10-09-2019,13:00:00,0.00,25.4,0.0,70,31.6,"{'0': '   ', '@attributes': {'Unit': 'degree'}}",1010.05,0.00,10.00,32.43
48439,KABIN BURI,กบินทร์บุรี,ปราจีนบุรี,13.98333,101.70722,1008.82,10-09-2019,13:00:00,23.70,26.0,5.6,67,33.0,030,1010.21,0.00,11.00,33.66
48440,SA KAEW,สระแก้ว,สระแก้ว,13.78889,102.03472,1005.21,10-09-2019,13:00:00,0.00,25.3,5.6,64,32.9,120,1010.07,0.00,10.00,32.25
48450,KANCHANA BURI,กาญจนบุรี,กาญจนบุรี,14.02250,99.53583,1006.89,10-09-2019,13:00:00,0.00,23.2,3.7,53,34.0,100,1010.11,0.00,10.00,28.43
48451,NAKHONPATHOM,นครปฐม,นครปฐม,14.01167,99.97000,1009.35,10-09-2019,13:00:00,0.00,23.8,7.4,58,33.1,040,1010.44,0.00,10.00,29.46
48453,BANG NA AGROMET.,กรุงเทพฯ บางนา สกษ.,กรุงเทพมหานคร,13.66639,100.60611,1009.96,10-09-2019,13:00:00,0.01,23.6,5.6,58,33.1,160,1010.26,0.00,10.00,29.17
48454,BANGKOK PORT (KLONG TOEI),กรุงเทพฯ ท่าเรือคลองเตย,กรุงเทพมหานคร,13.70694,100.56805,1010.25,10-09-2019,13:00:00,0.00,24.7,3.7,62,33.1,130,1010.92,0.00,10.00,31.20
48455,BANGKOK METROPOLIS,กรุงเทพมหานคร,กรุงเทพมหานคร,13.72639,100.56000,1009.53,10-09-2019,13:00:00,0.00,25.1,1.9,69,31.6,110,1010.01,0.00,8.00,31.85
48456,DON MUANG AIRPORT,สนามบินดอนเมือง,กรุงเทพมหานคร,13.91917,100.60500,1008.88,10-09-2019,13:00:00,0.00,24.4,9.3,61,32.9,020,1010.27,0.00,10.00,30.49
48457,PILOT STATION,นำร่อง,สมุทรปราการ,13.39389,100.59944,1008.66,10-09-2019,13:00:00,5.80,25.2,0.0,73,30.6,000,1010.33,0.00,8.00,32.09
48458,CHACHOENGSAO,ฉะเชิงเทรา,ฉะเชิงเทรา,13.51556,101.45833,1003.94,10-09-2019,13:00:00,2.50,24.0,0.0,62,32.2,000,1011.84,0.00,10.00,29.91
48459,CHON BURI,ชลบุรี,ชลบุรี,13.36667,100.98333,1009.26,10-09-2019,13:00:00,23.30,26.6,14.8,75,31.6,270,1009.54,0.00,4.00,34.82
48460,KO SICHANG,เกาะสีชัง,ชลบุรี,13.16167,100.80194,1006.97,10-09-2019,13:00:00,84.50,26.1,0.0,75,31.0,000,1010.07,0.00,10.00,33.81
48461,PHATTHAYA,พัทยา,ชลบุรี,12.92000,100.86944,1003.49,10-09-2019,13:00:00,10.90,25.8,11.1,78,30.0,330,1010.39,0.00,8.00,33.17
48462,ARANYA PRATHET,อรัญประเทศ,สระแก้ว,13.70000,102.58333,1003.60,10-09-2019,13:00:00,0.00,23.8,3.7,56,33.7,110,1009.09,0.00,10.00,29.54
48463,LAEM CHABANG,แหลมฉบัง,ชลบุรี,13.07694,100.87583,1001.62,10-09-2019,13:00:00,22.10,26.2,3.7,77,30.8,330,1010.85,0.00,6.00,33.98
48464,RATCHA BURI,ราชบุรี,ราชบุรี,13.48931,99.79239,1010.17,10-09-2019,13:00:00,19.20,25.2,3.7,69,31.7,180,1011.42,0.00,12.00,32.06
48465,PHETCHA BURI,เพชรบุรี,เพชรบุรี,12.99944,100.06056,1009.90,10-09-2019,13:00:00,14.00,24.6,7.4,65,32.1,200,1010.32,0.00,11.00,30.86
48474,NONG PHLUB AGROMET.,หนองพลับ สกษ.,ประจวบคีรีขันธ์,12.58333,99.73333,998.27,10-09-2019,13:00:00,0.00,23.7,7.4,64,31.5,340,1010.39,0.00,7.00,29.35
48475,HUA HIN,หัวหิน,ประจวบคีรีขันธ์,12.58611,99.96250,1009.92,10-09-2019,13:00:00,0.00,25.5,9.3,74,30.7,060,1010.63,0.00,9.00,32.59
48477,SATTAHIP,สัตหีบ,ชลบุรี,12.68333,100.98333,1008.27,10-09-2019,13:00:00,35.00,23.8,7.4,66,31.0,330,1010.68,0.00,7.00,29.48
48478,RAYONG,ระยอง,ระยอง,12.63222,101.34361,1009.85,10-09-2019,13:00:00,0.01,25.1,11.1,69,31.6,240,1010.36,0.00,8.00,31.85
48479,HUAI PONG AGROMET.,ห้วยโป่ง สกษ.,ระยอง,12.73333,101.13333,1004.78,10-09-2019,13:00:00,4.60,24.9,9.3,70,31.0,250,1009.88,0.01,10.00,31.47
48480,CHANTHA BURI,จันทบุรี,จันทบุรี,12.61667,102.11333,1009.12,10-09-2019,13:00:00,0.80,24.3,0.0,58,33.7,000,1009.53,0.00,10.00,30.41
48481,PHLIU  AGROMET.,พลิ้ว สกษ.,จันทบุรี,12.50861,102.17305,1006.79,10-09-2019,13:00:00,6.30,25.8,0.0,71,31.8,000,1009.53,0.00,8.00,33.15
48500,PRACHUAP KHIRIKHAN,ประจวบคีรีขันธ์,ประจวบคีรีขันธ์,11.83333,99.83333,1009.27,10-09-2019,13:00:00,0.00,25.5,3.7,74,30.7,090,1010.05,0.00,8.00,32.59
48501,TRAD,ตราด,ตราด,11.76667,102.88333,1009.50,10-09-2019,13:00:00,6.20,27.5,9.3,72,33.1,290,1009.95,0.01,7.00,36.66
48517,CHUMPHON,ชุมพร,ชุมพร,10.49875,99.18847,1009.80,10-09-2019,13:00:00,26.40,24.8,3.7,65,32.2,130,1010.48,19.50,8.00,31.35
48520,SAWI AGROMET.,สวี สกษ.,ชุมพร,10.33333,99.10000,1009.05,10-09-2019,13:00:00,2.00,24.4,7.4,60,33.2,070,1010.55,0.00,9.00,30.53
48532,RANONG,ระนอง,ระนอง,9.98333,98.61667,1009.00,10-09-2019,13:00:00,0.40,24.2,5.6,63,32.2,240,1009.90,0.00,10.00,30.20
48550,KO SAMUI,เกาะสมุย,สุราษฎร์ธานี,9.46667,100.05000,1010.18,10-09-2019,13:00:00,0.00,25.7,13.0,75,30.8,080,1010.87,0.00,12.00,33.09
48551,SURAT THANI,สุราษฎร์ธานี,สุราษฎร์ธานี,9.13556,99.15194,1009.40,10-09-2019,13:00:00,0.00,25.3,7.4,64,33.0,040,1010.18,0.00,12.00,32.16
48552,NAKHONSI THAMMARAT,นครศรีธรรมราช,นครศรีธรรมราช,8.53778,99.96389,1009.07,10-09-2019,13:00:00,3.70,25.0,5.6,67,31.9,060,1009.70,0.00,10.00,31.60
48554,NAKHONSI THAMMARAT AGROMET.,นครศรีธรรมราช สกษ.,นครศรีธรรมราช,8.35931,100.00000,1009.65,10-09-2019,13:00:00,1.50,26.1,0.0,83,29.3,000,1010.05,0.10,10.00,33.74
48555,SURAT THANI AGROMET.,สุราษฎร์ธานี สกษ.,สุราษฎร์ธานี,9.10000,99.63333,1007.51,10-09-2019,13:00:00,8.40,26.7,9.3,79,30.7,320,1011.68,1.00,7.00,34.96
48556,PHRA SANG,พระแสง สอท.,สุราษฎร์ธานี,8.57022,99.25825,1008.58,10-09-2019,13:00:00,0.80,24.2,0.0,63,32.2,000,1010.16,0.00,12.00,30.20
48557,CHAWANG,ฉวาง,นครศรีธรรมราช,8.43194,99.51194,1006.34,10-09-2019,13:00:00,11.30,24.8,5.6,60,33.6,110,1009.74,0.00,12.00,31.37
48560,PHATTHALUNG AGROMET.,พัทลุง สกษ.,พัทลุง,7.58333,100.16667,1008.82,10-09-2019,13:00:00,0.60,24.6,11.1,67,31.4,100,1010.16,0.00,10.00,30.86
48561,TAKUA PA,ตะกั่วป่า,พังงา,8.68417,98.25222,1009.44,10-09-2019,13:00:00,5.50,24.6,0.0,69,31.0,000,1010.31,0.00,10.00,30.90
48563,KRABI,กระบี่,กระบี่,8.10361,98.97528,1006.22,10-09-2019,13:00:00,2.20,23.5,0.0,60,32.3,000,1009.72,0.00,10.00,28.98
48564,PHUKET,ภูเก็ต,ภูเก็ต,7.88333,98.40000,1009.64,10-09-2019,13:00:00,4.80,24.5,7.4,62,32.6,150,1010.07,0.00,10.00,30.73
48565,PHUKET AIRPORT,ภูเก็ต (ศูนย์ฯ),ภูเก็ต,8.14500,98.31444,1008.95,10-09-2019,13:00:00,13.00,24.6,0.0,70,30.6,000,1009.93,0.00,10.00,30.94
48566,KO LANTA,เกาะลันตา,กระบี่,7.53333,99.05000,1009.28,10-09-2019,13:00:00,0.00,27.0,9.3,71,33.1,210,1010.08,0.00,10.00,35.72
48567,TRANG AIRPORT,ตรัง,ตรัง,7.51667,99.61667,1008.09,10-09-2019,13:00:00,0.00,23.9,13.0,62,32.2,020,1009.88,0.00,14.00,29.63
48568,SONGKHLA,สงขลา,สงขลา,7.18211,100.60769,1009.45,10-09-2019,13:00:00,53.70,25.6,1.9,80,29.4,060,1010.19,0.00,12.00,32.79
48569,HAT YAI AIRPORT,หาดใหญ่,สงขลา,6.91667,100.43333,1005.93,10-09-2019,13:00:00,11.00,23.6,9.3,73,29.0,140,1009.91,0.00,10.00,29.19
48570,SATUN,สตูล,สตูล,6.65000,100.08333,1008.65,10-09-2019,13:00:00,41.50,25.0,0.0,67,31.8,000,1009.33,0.00,10.00,31.68
48571,KHO HONG AGROMET.,คอหงษ์ สกษ.,สงขลา,7.00000,100.50000,1008.39,10-09-2019,13:00:00,19.00,24.8,5.6,70,30.9,080,1009.49,0.00,10.00,31.27
48574,SA DAO,สะเดา,สงขลา,6.79806,100.39056,1006.80,10-09-2019,13:00:00,12.70,25.4,7.4,69,31.7,060,1009.68,0.00,12.00,32.35
48580,PATTANI AIRPORT,ปัตตานี,ปัตตานี,6.78333,101.15000,1008.76,10-09-2019,13:00:00,26.10,25.9,5.6,72,31.5,040,1009.44,0.00,12.00,33.40
48581,YALA AGROMET.,ยะลา สกษ.,ยะลา,6.51667,101.28333,1005.87,10-09-2019,13:00:00,24.60,24.7,9.3,71,30.5,050,1009.95,0.00,9.00,31.03
48583,NARATHIWAT,นราธิวาส,นราธิวาส,6.41667,101.81667,1008.76,10-09-2019,13:00:00,84.10,24.7,11.1,75,29.6,070,1009.34,0.00,10.00,31.20
