WmoStationNumber,StationNameEnglish,StationNameThai,Province,Latitude,Longitude,StationPressure,Date,Time,DewPoint,WindSpeed,VaporPressure,WindDirection,Rainfall24Hr,MeanSeaLevelPressure,Rainfall,RelativeHumidity,LandVisibility,AirTemperature
48300,MAE HONG SON,แม่ฮ่องสอน,แม่ฮ่องสอน,19.29897,97.97578,980.66,10-09-2019,22:00:00,21.7,0.0,26.02,000,0.00,1011.77,0.00,80,10.00,25.5
48302,DOI ANG KANG,ดอยอ่างขาง,เชียงใหม่,19.93139,99.04833,849.58,10-09-2019,22:00:00,17.3,7.4,19.72,130,0.00,1011.40,0.00,89,8.00,19.1
48303,CHIANG RAI,เชียงราย,เชียงราย,19.96139,99.88139,967.88,10-09-2019,22:00:00,22.1,0.0,26.63,000,0.00,1011.65,0.00,79,10.00,26.0
48304,CHAING RAI AGROMET.,เชียงราย สกษ.,เชียงราย,19.87083,99.78278,966.16,10-09-2019,22:00:00,21.8,0.0,26.09,000,0.00,1012.08,0.00,85,12.00,24.5
48307,THUNG CHANG,ทุ่งช้าง,น่าน,19.41194,100.88353,974.68,10-09-2019,22:00:00,23.0,0.0,28.11,000,0.00,1012.67,0.00,91,7.00,24.5
48310,PHAYAO,พะเยา,พะเยา,19.13333,99.90000,966.82,10-09-2019,22:00:00,23.4,0.0,28.85,000,0.00,1012.14,0.00,88,10.00,25.5
48315,THA WANGPHA,ท่าวังผา,น่าน,19.11056,100.80250,985.94,10-09-2019,22:00:00,22.9,0.0,27.97,000,0.00,1012.89,0.00,87,7.00,25.3
48324,THOEN,เถิน,ลำปาง,17.63661,99.24475,990.22,10-09-2019,22:00:00,24.2,0.0,30.13,000,1.40,1012.19,0.00,96,10.00,24.9
48325,MAE SARIANG,แม่สะเรียง,แม่ฮ่องสอน,18.16667,97.93333,989.11,10-09-2019,22:00:00,22.2,0.0,26.83,000,3.30,1013.61,1.90,94,6.00,23.3
48327,CHIANG MAI,เชียงใหม่,เชียงใหม่,18.79000,98.97694,977.50,10-09-2019,22:00:00,23.3,0.0,28.55,000,0.00,1011.98,0.00,76,10.00,27.8
48328,LAMPANG,ลำปาง,ลำปาง,18.28333,99.51667,986.25,10-09-2019,22:00:00,24.6,0.0,30.84,000,0.60,1013.99,0.00,92,10.00,26.0
48329,LAMPHUN,ลำพูน,ลำพูน,18.56722,99.03389,978.00,10-09-2019,22:00:00,24.1,0.0,30.10,000,0.00,1011.62,0.00,85,10.00,26.9
48331,NAN,น่าน,น่าน,18.77972,100.77778,989.12,10-09-2019,22:00:00,23.7,0.0,29.35,000,0.00,1012.05,0.00,85,10.00,26.5
48333,NAN AGROMET.,น่าน สกษ.,น่าน,18.86667,100.75000,982.14,10-09-2019,22:00:00,23.9,0.0,29.66,000,0.00,1012.23,0.00,89,8.00,25.8
48334,LAMPANG AGROMET.,ลำปาง สกษ.,ลำปาง,18.31667,99.28333,976.03,10-09-2019,22:00:00,24.6,0.0,30.84,000,0.00,1011.71,0.00,92,7.00,26.0
48350,LOEI AGROMET.,เลย สกษ.,เลย,17.40000,101.73333,981.52,10-09-2019,22:00:00,23.8,0.0,29.44,000,0.10,1011.48,0.00,92,10.00,25.1
48351,UTTARADIT,อุตรดิตถ์,อุตรดิตถ์,17.61667,100.10000,1004.43,10-09-2019,22:00:00,23.8,0.0,29.42,000,7.70,1011.76,0.00,81,8.00,27.4
48352,NONG KHAI,หนองคาย,หนองคาย,17.86717,102.73303,991.31,10-09-2019,22:00:00,24.8,3.7,31.21,030,1.00,1011.15,0.00,78,5.00,28.9
48353,LOEI,เลย,เลย,17.45000,101.73333,983.00,10-09-2019,22:00:00,24.8,0.0,31.27,000,0.00,1011.77,0.00,89,12.00,26.8
48354,UDON THANI,อุดรธานี,อุดรธานี,17.38333,102.80000,991.24,10-09-2019,22:00:00,24.5,0.0,30.70,000,0.00,1011.46,0.00,84,10.00,27.5
48355,SAKON NAKHON AGROMET.,สกลนคร สกษ.,สกลนคร,17.12503,104.06100,991.46,10-09-2019,22:00:00,24.3,0.0,30.30,000,0.00,1013.37,0.00,90,10.00,26.0
48356,SAKON NAKHON,สกลนคร,สกลนคร,17.15000,104.13333,992.43,10-09-2019,22:00:00,23.3,3.7,28.59,180,0.00,1011.99,0.00,80,10.00,27.1
48357,NAKHON PHANOM,นครพนม,นครพนม,17.41083,104.78250,995.72,10-09-2019,22:00:00,22.0,0.0,26.47,000,0.00,1012.58,0.00,77,11.00,26.5
48358,NAKHON PHANOM AGROMET.,นครพนม สกษ.,นครพนม,17.44306,104.77361,995.40,10-09-2019,22:00:00,21.9,0.0,26.27,000,0.00,1013.01,0.00,82,10.00,25.2
48360,NONG BUA LAM PHU,หนองบัวลำภู,หนองบัวลำภู,17.23250,102.42944,985.50,10-09-2019,22:00:00,25.1,0.0,31.85,000,0.00,1011.36,0.00,89,9.00,27.1
48372,SUKHOTHAI*,สุโขทัย,สุโขทัย,17.10611,99.80000,1005.82,10-09-2019,22:00:00,25.7,3.7,33.09,230,0.00,1011.63,0.00,91,8.00,27.3
48373,SI SAMRONG AGROMET.,ศรีสำโรง สกษ.,สุโขทัย,17.16136,99.86167,1005.71,10-09-2019,22:00:00,25.6,0.0,32.77,000,0.00,1011.93,0.00,92,7.00,27.0
48374,LOM SAK,หล่มสัก,เพชรบูรณ์,16.77361,101.24944,996.23,10-09-2019,22:00:00,23.8,0.0,29.54,000,3.50,1012.85,0.00,92,8.00,25.3
48375,MAE SOT,แม่สอด,ตาก,16.65917,98.55083,988.26,10-09-2019,22:00:00,23.2,0.0,28.34,000,0.20,1010.74,0.00,85,10.00,25.8
48376,TAK,ตาก,ตาก,16.87833,99.14333,997.85,10-09-2019,22:00:00,25.0,0.0,31.64,000,0.00,1012.28,0.00,85,6.00,27.7
48377,BHUMIBOL DAM,เขื่อนภูมิพล,ตาก,17.24389,99.00250,995.72,10-09-2019,22:00:00,24.7,0.0,31.14,000,4.50,1012.28,0.00,97,7.00,25.3
48378,PHITSANULOK,พิษณุโลก,พิษณุโลก,16.79481,100.27930,1006.31,10-09-2019,22:00:00,24.8,0.0,31.27,000,1.90,1011.57,0.00,89,10.00,26.8
48379,PHETCHABUN,เพชรบูรณ์,เพชรบูรณ์,16.43333,101.15000,996.77,10-09-2019,22:00:00,23.5,0.0,29.00,000,0.40,1010.10,0.00,92,10.00,25.0
48380,KAMPHAENG PHET,กำแพงเพชร,กำแพงเพชร,16.48681,99.52697,1002.52,10-09-2019,22:00:00,25.3,0.0,32.23,000,0.00,1011.85,0.00,85,10.00,28.0
48381,KHON KAEN,ขอนแก่น,ขอนแก่น,16.46111,102.78972,989.91,10-09-2019,22:00:00,24.6,0.0,30.84,000,0.00,1011.62,0.00,82,10.00,28.0
48382,MAHASARAKHAM,มหาสารคาม,มหาสารคาม,16.24722,103.06805,993.81,10-09-2019,22:00:00,24.0,5.6,29.77,120,0.00,1011.36,0.00,82,10.00,27.3
48383,MUKDAHAN,มุกดาหาร,มุกดาหาร,16.54139,104.72889,996.01,10-09-2019,22:00:00,22.6,7.4,27.36,050,0.00,1011.92,0.00,77,10.00,27.0
48384,THA PHRA AGROMET.,ท่าพระ สกษ.,ขอนแก่น,16.33333,102.81667,991.67,10-09-2019,22:00:00,24.7,0.0,31.14,000,0.00,1010.60,0.00,86,7.00,27.3
48385,UMPHANG,อุ้มผาง,ตาก,16.02472,98.86444,961.49,10-09-2019,22:00:00,22.1,0.0,26.66,000,0.50,1013.40,0.00,92,7.00,23.5
48386,PICHIT AGROMET.,พิจิตร สกษ.,พิจิตร,16.43806,100.29250,1007.46,10-09-2019,22:00:00,24.6,0.0,30.97,000,2.40,1011.44,0.00,89,6.00,26.5
48387,DOI MU SOE AGROMET.,ดอยมูเซอร์ สกษ.,ตาก,16.75000,98.93333,917.31,10-09-2019,22:00:00,19.9,0.0,23.23,000,0.00,1013.14,0.00,93,5.00,21.0
48390,KALASIN,กาฬสินธุ์,กาฬสินธุ์,16.33250,103.58833,995.68,10-09-2019,22:00:00,24.5,5.6,30.70,040,0.00,1011.71,0.00,84,8.00,27.5
48400,NAKHON SAWAN,นครสวรรค์ ,นครสวรรค์,15.67183,100.13236,1008.01,10-09-2019,22:00:00,24.3,0.0,30.30,000,0.20,1012.08,0.00,90,6.00,26.0
48401,TAKFA AGROMET.,ตากฟ้า สกษ.,นครสวรรค์,15.34944,100.53028,1002.09,10-09-2019,22:00:00,23.7,0.0,29.31,000,52.80,1012.93,0.00,97,7.00,24.3
48402,CHAINAT AGROMET.,ชัยนาท สกษ.,ชัยนาท,15.15000,100.18333,1010.29,10-09-2019,22:00:00,23.8,0.0,29.50,000,0.00,1012.24,0.00,88,9.00,26.0
48403,CHAIYAPHUM,ชัยภูมิ,ชัยภูมิ,15.80000,102.03333,990.96,10-09-2019,22:00:00,24.0,0.0,29.85,000,0.00,1011.90,0.00,83,10.00,27.2
48404,ROI ET AGROMET.,ร้อยเอ็ด สกษ.,ร้อยเอ็ด,16.07322,103.60844,993.76,10-09-2019,22:00:00,23.9,5.6,29.74,120,0.00,1011.44,0.00,79,10.00,28.0
48405,ROI ET,ร้อยเอ็ด,ร้อยเอ็ด,16.02000,103.74389,995.20,10-09-2019,22:00:00,23.9,0.0,29.74,000,0.00,1011.32,0.00,74,10.00,29.0
48407,UBON RATCHATHANI,อุบลราชธานี (ศูนย์ฯ),อุบลราชธานี,15.25000,104.86667,997.58,10-09-2019,22:00:00,22.6,5.6,27.40,220,0.00,1011.72,0.00,82,10.00,26.0
48408,UBON RATCHATHANI AGROMET.,อุบลราชธานี สกษ.,อุบลราชธานี,15.23914,105.02350,997.30,10-09-2019,22:00:00,23.5,0.0,28.90,000,2.80,1012.31,0.00,92,9.00,24.8
48409,SI SAKET AGROMET.,ศรีสะเกษ,ศรีสะเกษ,15.00000,104.05000,998.07,10-09-2019,22:00:00,24.2,0.0,30.23,000,0.60,1012.92,0.60,95,6.00,25.1
48410,UTHAITHANI,อุทัยธานี,อุทัยธานี,15.37417,100.03889,1008.30,10-09-2019,22:00:00,24.3,0.0,30.32,"{'0': '   ', '@attributes': {'Unit': 'degree'}}",30.70,1011.35,0.00,96,8.00,25.0
48413,WICHIAN BURI,วิเชียรบุรี,เพชรบูรณ์,15.65700,101.10800,1003.79,10-09-2019,22:00:00,23.6,0.0,29.08,000,14.40,1011.84,0.20,92,7.00,24.9
48415,AYUTTHAYA,พระนครศรีอยุธยา,พระนครศรีอยุธยา,14.53472,100.72500,1010.31,10-09-2019,22:00:00,24.0,0.0,29.76,000,0.00,1011.42,0.00,89,8.00,26.0
48416,THA TUM,ท่าตูม,สุรินทร์,15.31667,103.68333,996.37,10-09-2019,22:00:00,25.0,3.7,31.59,090,0.00,1011.06,0.00,83,8.00,28.1
48417,NAKORNNAYOK,นครนายก,นครนายก,14.36222,101.39278,876.92,10-09-2019,22:00:00,17.8,5.6,20.43,160,38.80,1012.52,0.00,89,8.00,19.8
48418,BUA CHUM,บัวชุม  ,ลพบุรี,15.26667,101.18736,1005.93,10-09-2019,22:00:00,24.6,0.0,30.96,000,18.90,1011.87,0.00,97,8.00,25.2
48419,PATHUMTHANI,ปทุมธานี สกษ.,ปทุมธานี,14.10000,100.61667,1011.20,10-09-2019,22:00:00,25.4,3.7,32.36,010,0.00,1012.00,0.00,88,7.00,27.5
48420,Samut Prakarn,สมุทรปราการ สกษ.,สมุทรปราการ,13.51667,100.76167,1012.05,10-09-2019,22:00:00,25.8,0.0,33.20,000,0.70,1012.49,0.00,83,10.00,28.9
48421,THONG PHAPHUM,ทองผาภูมิ,กาญจนบุรี,14.74222,98.63639,1000.90,10-09-2019,22:00:00,25.1,0.0,31.96,000,2.70,1012.29,0.00,93,5.00,26.3
48425,SUPHAN BURI,สุพรรณบุรี,สุพรรณบุรี,14.47444,100.13889,1010.87,10-09-2019,22:00:00,24.1,0.0,29.96,000,0.00,1011.88,0.00,82,6.00,27.4
48426,LOP BURI,ลพบุรี,ลพบุรี,14.79972,100.64500,1009.91,10-09-2019,22:00:00,24.6,0.0,30.87,000,20.60,1011.75,0.00,96,7.00,25.3
48427,U THONG AGROMET.,อู่ทอง สกษ.,สุพรรณบุรี,14.30361,99.86472,1010.87,10-09-2019,22:00:00,23.2,0.0,28.34,000,0.00,1011.64,0.00,85,8.00,25.8
48429,SUVARNABHUMI AIRPORT,สนามบินสุวรรณภูมิ,สมุทรปราการ,13.68639,100.76750,1010.29,10-09-2019,22:00:00,24.9,3.7,31.47,230,0.60,1010.99,0.00,84,10.00,27.9
48430,PRACHIN BURI,ปราจีนบุรี,ปราจีนบุรี,14.05842,101.36930,1010.32,10-09-2019,22:00:00,25.5,0.0,32.64,000,10.30,1011.02,0.00,89,8.00,27.5
48431,NAKHON RATCHASIMA,นครราชสีมา,นครราชสีมา,14.96830,102.08603,990.67,10-09-2019,22:00:00,23.3,0.0,28.69,000,0.00,1012.02,0.00,87,8.00,25.7
48432,SURIN,สุรินทร์,สุรินทร์,14.88333,103.50000,995.11,10-09-2019,22:00:00,24.6,0.0,30.84,000,0.00,1011.96,0.00,92,7.00,26.0
48433,SURIN AGROMET.,สุรินทร์ สกษ.,สุรินทร์,14.88333,103.45000,995.98,10-09-2019,22:00:00,24.4,0.0,30.58,000,5.60,1012.61,0.00,97,7.00,25.0
48434,CHOK CHAI,โชคชัย,นครราชสีมา,14.71889,102.16861,989.93,10-09-2019,22:00:00,22.8,0.0,27.68,000,8.50,1012.11,0.00,92,8.00,24.1
48435,PAKCHONG AGROMET.,ปากช่อง สกษ.,นครราชสีมา,14.64389,101.33194,968.54,10-09-2019,22:00:00,22.6,0.0,27.42,000,0.40,1012.47,0.00,93,7.00,23.8
48436,NANG RONG,นางรอง,บุรีรัมย์,14.58333,102.80000,991.23,10-09-2019,22:00:00,22.4,0.0,27.09,000,50.30,1012.08,0.00,90,10.00,24.2
48437,BURIRUM,บุรีรัมย์,บุรีรัมย์,15.22575,103.24808,992.46,10-09-2019,22:00:00,25.3,9.3,32.23,220,0.00,1013.53,0.00,100,8.00,25.3
48438,SAMUTSONGKRAM,สมุทรสงคราม,สมุทรสงคราม,13.40778,100.03222,1010.84,10-09-2019,22:00:00,25.8,0.0,33.25,"{'0': '   ', '@attributes': {'Unit': 'degree'}}",0.00,1011.27,0.00,79,10.00,29.9
48439,KABIN BURI,กบินทร์บุรี,ปราจีนบุรี,13.98333,101.70722,1009.55,10-09-2019,22:00:00,24.5,0.0,30.71,000,5.20,1010.98,0.00,94,8.00,25.5
48440,SA KAEW,สระแก้ว,สระแก้ว,13.78889,102.03472,1006.27,10-09-2019,22:00:00,25.4,0.0,32.35,000,0.00,1011.23,0.00,93,7.00,26.5
48450,KANCHANA BURI,กาญจนบุรี,กาญจนบุรี,14.02250,99.53583,1008.45,10-09-2019,22:00:00,23.5,0.0,29.00,000,63.80,1011.78,63.80,92,10.00,25.0
48451,NAKHONPATHOM,นครปฐม,นครปฐม,14.01167,99.97000,1010.71,10-09-2019,22:00:00,25.5,3.7,32.66,300,0.00,1011.82,0.00,93,10.00,26.8
48453,BANG NA AGROMET.,กรุงเทพฯ บางนา สกษ.,กรุงเทพมหานคร,13.66639,100.60611,1010.93,10-09-2019,22:00:00,25.4,0.0,32.45,000,13.20,1011.23,0.00,89,10.00,27.4
48455,BANGKOK METROPOLIS,กรุงเทพมหานคร,กรุงเทพมหานคร,13.72639,100.56000,1010.45,10-09-2019,22:00:00,24.3,0.0,30.29,000,0.70,1010.94,0.00,85,8.00,27.0
48456,DON MUANG AIRPORT,สนามบินดอนเมือง,กรุงเทพมหานคร,13.91917,100.60500,1009.99,10-09-2019,22:00:00,23.8,0.0,29.46,000,0.01,1011.40,0.00,78,10.00,28.0
48458,CHACHOENGSAO,ฉะเชิงเทรา,ฉะเชิงเทรา,13.51556,101.45833,1004.92,10-09-2019,22:00:00,24.4,0.0,30.58,000,0.30,1013.02,0.00,97,10.00,25.0
48459,CHON BURI,ชลบุรี,ชลบุรี,13.36667,100.98333,1010.90,10-09-2019,22:00:00,24.8,0.0,31.28,000,0.10,1011.18,0.00,84,4.00,27.8
48460,KO SICHANG,เกาะสีชัง,ชลบุรี,13.16167,100.80194,1008.11,10-09-2019,22:00:00,24.6,0.0,30.84,000,1.00,1011.26,0.00,92,10.00,26.0
48461,PHATTHAYA,พัทยา,ชลบุรี,12.92000,100.86944,1004.49,10-09-2019,22:00:00,24.1,0.0,30.02,000,0.00,1011.46,0.00,84,8.00,27.0
48462,ARANYA PRATHET,อรัญประเทศ,สระแก้ว,13.70000,102.58333,1006.22,10-09-2019,22:00:00,25.2,0.0,32.12,000,0.00,1011.83,0.00,86,10.00,27.8
48464,RATCHA BURI,ราชบุรี,ราชบุรี,13.48931,99.79239,1010.73,10-09-2019,22:00:00,25.4,7.4,32.45,230,9.00,1012.00,0.00,89,5.00,27.4
48465,PHETCHA BURI,เพชรบุรี,เพชรบุรี,12.99944,100.06056,1010.72,10-09-2019,22:00:00,25.9,0.0,33.37,000,0.00,1011.15,0.00,85,11.00,28.7
48474,NONG PHLUB AGROMET.,หนองพลับ สกษ.,ประจวบคีรีขันธ์,12.58333,99.73333,999.91,10-09-2019,22:00:00,23.8,0.0,29.52,000,0.00,1012.32,0.00,93,8.00,25.0
48475,HUA HIN,หัวหิน,ประจวบคีรีขันธ์,12.58611,99.96250,1010.81,10-09-2019,22:00:00,25.4,0.0,32.35,000,0.00,1011.52,0.00,85,9.00,28.2
48477,SATTAHIP,สัตหีบ,ชลบุรี,12.68333,100.98333,1008.98,10-09-2019,22:00:00,24.8,7.4,31.24,010,0.00,1011.43,0.00,90,6.00,26.5
48478,RAYONG,ระยอง,ระยอง,12.63222,101.34361,1010.79,10-09-2019,22:00:00,24.0,0.0,29.86,000,0.00,1011.31,0.00,88,8.00,26.2
48479,HUAI PONG AGROMET.,ห้วยโป่ง สกษ.,ระยอง,12.73333,101.13333,1006.07,10-09-2019,22:00:00,25.3,0.0,32.15,000,0.50,1011.25,0.00,93,9.00,26.4
48480,CHANTHA BURI,จันทบุรี,จันทบุรี,12.61667,102.11333,1010.94,10-09-2019,22:00:00,24.9,0.0,31.52,000,11.80,1011.35,0.00,91,7.00,26.5
48481,PHLIU  AGROMET.,พลิ้ว สกษ.,จันทบุรี,12.50861,102.17305,1008.54,10-09-2019,22:00:00,25.1,0.0,31.79,000,0.00,1011.33,0.00,92,8.00,26.5
48500,PRACHUAP KHIRIKHAN,ประจวบคีรีขันธ์,ประจวบคีรีขันธ์,11.83333,99.83333,1011.00,10-09-2019,22:00:00,24.1,0.0,30.07,000,0.00,1011.78,0.00,81,8.00,27.6
48501,TRAD,ตราด,ตราด,11.76667,102.88333,1010.97,10-09-2019,22:00:00,24.6,5.6,30.84,100,1.80,1011.43,0.00,92,7.00,26.0
48517,CHUMPHON,ชุมพร,ชุมพร,10.49875,99.18847,1011.17,10-09-2019,22:00:00,25.2,0.0,32.02,000,26.10,1011.86,0.00,90,8.00,26.9
48520,SAWI AGROMET.,สวี สกษ.,ชุมพร,10.33333,99.10000,1009.83,10-09-2019,22:00:00,24.6,0.0,30.97,000,0.20,1011.36,0.20,84,7.00,27.5
48532,RANONG,ระนอง,ระนอง,9.98333,98.61667,1011.40,10-09-2019,22:00:00,24.0,0.0,29.89,000,0.40,1012.33,0.00,86,10.00,26.5
48550,KO SAMUI,เกาะสมุย,สุราษฎร์ธานี,9.46667,100.05000,1011.13,10-09-2019,22:00:00,25.2,0.0,32.08,000,0.00,1011.82,0.00,87,10.00,27.5
48551,SURAT THANI,สุราษฎร์ธานี,สุราษฎร์ธานี,9.13556,99.15194,1011.44,10-09-2019,22:00:00,24.5,0.0,30.69,000,0.00,1012.24,0.00,96,9.00,25.2
48552,NAKHONSI THAMMARAT,นครศรีธรรมราช,นครศรีธรรมราช,8.53778,99.96389,1011.03,10-09-2019,22:00:00,25.2,0.0,32.07,000,3.70,1011.67,0.00,93,10.00,26.5
48554,NAKHONSI THAMMARAT AGROMET.,นครศรีธรรมราช สกษ.,นครศรีธรรมราช,8.35931,100.00000,1011.81,10-09-2019,22:00:00,24.8,0.0,31.36,000,1.10,1012.21,0.00,95,10.00,25.7
48555,SURAT THANI AGROMET.,สุราษฎร์ธานี สกษ.,สุราษฎร์ธานี,9.10000,99.63333,1009.36,10-09-2019,22:00:00,24.8,0.0,31.27,000,1.40,1013.61,0.00,94,6.00,25.8
48556,PHRA SANG,พระแสง สอท.,สุราษฎร์ธานี,8.57022,99.25825,1007.91,10-09-2019,22:00:00,24.0,0.0,29.91,000,0.00,1009.53,0.00,85,10.00,26.8
48557,CHAWANG,ฉวาง,นครศรีธรรมราช,8.43194,99.51194,1008.83,10-09-2019,22:00:00,24.0,0.0,29.91,000,0.00,1012.34,0.00,92,10.00,25.5
48560,PHATTHALUNG AGROMET.,พัทลุง สกษ.,พัทลุง,7.58333,100.16667,1010.76,10-09-2019,22:00:00,23.5,0.0,29.03,000,0.60,1012.12,0.00,88,8.00,25.6
48561,TAKUA PA,ตะกั่วป่า,พังงา,8.68417,98.25222,1010.73,10-09-2019,22:00:00,24.1,0.0,30.03,000,7.60,1011.63,1.10,97,10.00,24.7
48563,KRABI,กระบี่,กระบี่,8.10361,98.97528,1008.61,10-09-2019,22:00:00,23.7,0.0,29.30,000,25.00,1012.22,0.00,98,10.00,24.0
48564,PHUKET,ภูเก็ต,ภูเก็ต,7.88333,98.40000,1011.42,10-09-2019,22:00:00,25.5,3.7,32.61,320,7.20,1011.85,0.80,90,10.00,27.2
48565,PHUKET AIRPORT,ภูเก็ต (ศูนย์ฯ),ภูเก็ต,8.14500,98.31444,1010.48,10-09-2019,22:00:00,24.5,0.0,30.71,000,5.00,1011.48,2.40,94,9.00,25.5
48566,KO LANTA,เกาะลันตา,กระบี่,7.53333,99.05000,1011.49,10-09-2019,22:00:00,23.9,0.0,29.70,000,55.20,1012.32,0.00,93,10.00,25.1
48567,TRANG AIRPORT,ตรัง,ตรัง,7.51667,99.61667,1010.54,10-09-2019,22:00:00,23.6,0.0,29.05,000,12.10,1012.38,5.10,96,10.00,24.3
48568,SONGKHLA,สงขลา,สงขลา,7.18211,100.60769,1011.83,10-09-2019,22:00:00,23.4,3.7,28.82,230,53.70,1012.59,0.00,83,10.00,26.5
48569,HAT YAI AIRPORT,หาดใหญ่,สงขลา,6.91667,100.43333,1008.80,10-09-2019,22:00:00,24.3,0.0,30.38,000,11.80,1012.85,0.00,98,10.00,24.6
48570,SATUN,สตูล,สตูล,6.65000,100.08333,1011.82,10-09-2019,22:00:00,23.8,0.0,29.46,000,26.10,1012.51,0.10,91,10.00,25.4
48571,KHO HONG AGROMET.,คอหงษ์ สกษ.,สงขลา,7.00000,100.50000,1011.25,10-09-2019,22:00:00,24.6,0.0,30.85,000,31.00,1012.38,0.00,97,10.00,25.0
48574,SA DAO,สะเดา,สงขลา,6.79806,100.39056,1009.92,10-09-2019,22:00:00,24.3,0.0,30.32,000,36.20,1012.88,0.00,96,10.00,25.0
48580,PATTANI AIRPORT,ปัตตานี,ปัตตานี,6.78333,101.15000,1011.43,10-09-2019,22:00:00,23.8,0.0,29.41,000,16.60,1012.12,5.00,96,7.00,24.5
48581,YALA AGROMET.,ยะลา สกษ.,ยะลา,6.51667,101.28333,1009.12,10-09-2019,22:00:00,23.3,5.6,28.54,250,22.10,1013.31,0.00,94,7.00,24.3
48583,NARATHIWAT,นราธิวาส,นราธิวาส,6.41667,101.81667,1010.93,10-09-2019,22:00:00,23.3,7.4,28.59,250,84.10,1011.52,0.00,88,8.00,25.5
