WmoStationNumber,StationNameEnglish,StationNameThai,Province,Latitude,Longitude,LandVisibility,Date,Time,WindDirection,StationPressure,MeanSeaLevelPressure,AirTemperature,Rainfall24Hr,RelativeHumidity,VaporPressure,DewPoint,Rainfall,MaximumTemperature,WindSpeed
48300,MAE HONG SON,แม่ฮ่องสอน,แม่ฮ่องสอน,19.29897,97.97578,10.00,10-04-2019,19:00:00,000,976.34,1006.92,29.3,0.00,79,32.01,25.2,0.00,34.3,0.0
48302,DOI ANG KANG,ดอยอ่างขาง,เชียงใหม่,19.93139,99.04833,8.00,10-04-2019,19:00:00,000,847.78,1008.72,20.0,0.00,86,20.05,17.6,0.00,23.0,0.0
48303,CHIANG RAI,เชียงราย,เชียงราย,19.96139,99.88139,10.00,10-04-2019,19:00:00,160,965.38,1009.33,24.0,0.01,83,24.78,20.9,0.00,32.4,1.9
48304,CHAING RAI AGROMET.,เชียงราย สกษ.,เชียงราย,19.87083,99.78278,10.00,10-04-2019,19:00:00,000,963.66,1009.58,23.7,0.60,89,26.00,21.7,0.00,34.8,0.0
48307,THUNG CHANG,ทุ่งช้าง,น่าน,19.41194,100.88353,8.00,10-04-2019,19:00:00,000,972.46,1010.43,24.0,0.40,98,29.30,23.7,0.40,33.3,0.0
48310,PHAYAO,พะเยา,พะเยา,19.13333,99.90000,8.00,10-04-2019,19:00:00,000,964.63,1009.77,26.0,0.10,84,28.18,23.1,0.10,30.3,0.0
48315,THA WANGPHA,ท่าวังผา,น่าน,19.11056,100.80250,8.00,10-04-2019,19:00:00,230,983.87,1010.79,25.0,0.00,83,26.43,22.0,0.00,34.3,3.7
48324,THOEN,เถิน,ลำปาง,17.63661,99.24475,7.00,10-04-2019,19:00:00,090,987.24,1009.21,24.0,4.00,93,27.76,22.8,4.00,35.3,5.6
48325,MAE SARIANG,แม่สะเรียง,แม่ฮ่องสอน,18.16667,97.93333,8.00,10-04-2019,19:00:00,000,985.85,1010.00,26.5,5.40,88,30.43,24.3,5.40,35.0,0.0
48327,CHIANG MAI,เชียงใหม่,เชียงใหม่,18.79000,98.97694,10.00,10-04-2019,19:00:00,000,974.68,1009.51,24.0,40.20,83,24.78,20.9,40.20,35.3,0.0
48328,LAMPANG,ลำปาง,ลำปาง,18.28333,99.51667,5.00,10-04-2019,19:00:00,080,982.22,1010.08,23.5,32.00,96,27.66,22.8,32.00,35.5,9.3
48329,LAMPHUN,ลำพูน,ลำพูน,18.56722,99.03389,8.00,10-04-2019,19:00:00,120,975.50,1009.26,25.0,4.20,83,26.43,22.0,3.60,35.0,7.4
48330,PHRAE,แพร่,แพร่,18.16667,100.16667,5.00,10-04-2019,19:00:00,300,991.40,1010.07,24.8,3.90,87,27.10,22.4,3.90,34.0,1.9
48331,NAN,น่าน,น่าน,18.77972,100.77778,7.00,10-04-2019,19:00:00,000,987.46,1010.57,23.6,19.20,92,26.83,22.2,19.20,34.2,0.0
48333,NAN AGROMET.,น่าน สกษ.,น่าน,18.86667,100.75000,8.00,10-04-2019,19:00:00,000,980.52,1010.79,23.5,1.20,90,25.92,21.7,1.20,33.0,0.0
48334,LAMPANG AGROMET.,ลำปาง สกษ.,ลำปาง,18.31667,99.28333,6.00,10-04-2019,19:00:00,080,974.41,1010.23,24.4,24.40,93,28.45,23.2,24.40,33.8,7.4
48350,LOEI AGROMET.,เลย สกษ.,เลย,17.40000,101.73333,2.00,10-04-2019,19:00:00,000,979.47,1009.59,23.0,0.50,96,26.83,22.2,0.10,34.5,0.0
48351,UTTARADIT,อุตรดิตถ์,อุตรดิตถ์,17.61667,100.10000,6.00,10-04-2019,19:00:00,000,1001.27,1008.63,25.3,7.90,84,26.95,22.3,7.90,36.0,0.0
48352,NONG KHAI,หนองคาย,หนองคาย,17.86717,102.73303,5.00,10-04-2019,19:00:00,340,989.79,1009.83,25.5,0.00,89,29.11,23.6,0.00,31.4,13.0
48353,LOEI,เลย,เลย,17.45000,101.73333,8.00,10-04-2019,19:00:00,330,981.16,1010.15,24.0,1.20,91,27.25,22.5,0.40,33.9,3.7
48354,UDON THANI,อุดรธานี,อุดรธานี,17.38333,102.80000,8.00,10-04-2019,19:00:00,320,989.73,1010.15,24.0,6.10,95,28.27,23.1,2.40,30.7,3.7
48355,SAKON NAKHON AGROMET.,สกลนคร สกษ.,สกลนคร,17.12503,104.06100,10.00,10-04-2019,19:00:00,320,988.02,1009.79,27.0,0.00,81,28.94,23.5,0.00,31.7,7.4
48356,SAKON NAKHON,สกลนคร,สกลนคร,17.15000,104.13333,10.00,10-04-2019,19:00:00,330,990.14,1009.64,27.5,0.00,82,30.15,24.2,0.00,31.1,7.4
48357,NAKHON PHANOM,นครพนม,นครพนม,17.41083,104.78250,10.00,10-04-2019,19:00:00,270,992.93,1009.64,28.1,0.01,74,28.04,23.0,0.00,32.6,1.9
48358,NAKHON PHANOM AGROMET.,นครพนม สกษ.,นครพนม,17.44306,104.77361,10.00,10-04-2019,19:00:00,000,992.56,1009.97,27.6,0.50,79,28.98,23.5,0.00,33.0,0.0
48360,NONG BUA LAM PHU,หนองบัวลำภู,หนองบัวลำภู,17.23250,102.42944,9.00,10-04-2019,19:00:00,310,982.88,1008.92,24.3,6.20,91,27.51,22.7,0.00,32.7,9.3
48372,SUKHOTHAI*,สุโขทัย,สุโขทัย,17.10611,99.80000,10.00,10-04-2019,19:00:00,170,1002.52,1008.30,27.7,0.00,80,29.71,23.9,0.00,35.0,5.6
48373,SI SAMRONG AGROMET.,ศรีสำโรง สกษ.,สุโขทัย,17.16136,99.86167,8.00,10-04-2019,19:00:00,000,1001.41,1007.56,29.0,0.00,78,31.13,24.7,0.00,34.8,0.0
48374,LOM SAK,หล่มสัก,เพชรบูรณ์,16.77361,101.24944,8.00,10-04-2019,19:00:00,000,993.06,1009.53,27.0,0.00,71,25.30,21.3,0.00,34.0,0.0
48375,MAE SOT,แม่สอด,ตาก,16.65917,98.55083,10.00,10-04-2019,19:00:00,110,985.06,1007.49,25.5,0.30,86,28.07,23.0,0.30,33.7,3.7
48376,TAK,ตาก,ตาก,16.87833,99.14333,7.00,10-04-2019,19:00:00,210,993.70,1007.93,30.6,0.00,67,29.25,23.7,0.00,35.8,3.7
48377,BHUMIBOL DAM,เขื่อนภูมิพล,ตาก,17.24389,99.00250,7.00,10-04-2019,19:00:00,000,991.36,1007.65,28.8,0.00,76,30.18,24.2,0.00,35.5,0.0
48378,PHITSANULOK,พิษณุโลก,พิษณุโลก,16.79481,100.27930,7.00,10-04-2019,19:00:00,060,1002.30,1007.51,28.3,0.00,70,26.81,22.2,0.00,34.2,11.1
48379,PHETCHABUN,เพชรบูรณ์,เพชรบูรณ์,16.43333,101.15000,8.00,10-04-2019,19:00:00,000,993.77,1006.89,28.7,0.00,68,26.75,22.2,0.00,36.5,0.0
48380,KAMPHAENG PHET,กำแพงเพชร,กำแพงเพชร,16.48681,99.52697,10.00,10-04-2019,19:00:00,000,998.39,1007.62,30.3,1.00,85,36.50,27.4,1.00,35.0,0.0
48381,KHON KAEN,ขอนแก่น,ขอนแก่น,16.46111,102.78972,9.00,10-04-2019,19:00:00,020,987.96,1009.80,25.7,6.00,85,27.90,22.9,0.00,34.7,5.6
48382,MAHASARAKHAM,มหาสารคาม,มหาสารคาม,16.24722,103.06805,10.00,10-04-2019,19:00:00,000,992.41,1010.02,26.0,0.00,84,28.18,23.1,0.00,33.8,0.0
48383,MUKDAHAN,มุกดาหาร,มุกดาหาร,16.54139,104.72889,10.00,10-04-2019,19:00:00,270,993.00,1008.90,26.3,0.00,86,29.25,23.7,0.00,33.3,3.7
48384,THA PHRA AGROMET.,ท่าพระ สกษ.,ขอนแก่น,16.33333,102.81667,8.00,10-04-2019,19:00:00,000,990.12,1009.17,25.0,40.10,93,29.52,23.8,0.00,34.0,0.0
48385,UMPHANG,อุ้มผาง,ตาก,16.02472,98.86444,8.00,10-04-2019,19:00:00,000,957.85,1009.28,25.1,0.00,83,26.35,22.0,0.00,31.1,0.0
48386,PICHIT AGROMET.,พิจิตร สกษ.,พิจิตร,16.43806,100.29250,3.00,10-04-2019,19:00:00,080,1003.58,1007.53,28.0,0.00,70,26.54,22.1,0.00,34.1,9.3
48387,DOI MU SOE AGROMET.,ดอยมูเซอร์ สกษ.,ตาก,16.75000,98.93333,5.00,10-04-2019,19:00:00,000,914.64,1009.85,22.0,0.00,91,24.03,20.5,0.00,28.0,0.0
48390,KALASIN,กาฬสินธุ์,กาฬสินธุ์,16.33250,103.58833,8.00,10-04-2019,19:00:00,000,993.45,1009.58,25.0,8.10,96,30.32,24.3,0.40,33.2,0.0
48400,NAKHON SAWAN,นครสวรรค์ ,นครสวรรค์,15.67183,100.13236,10.00,10-04-2019,19:00:00,000,1003.88,1007.87,30.9,0.00,74,33.01,25.7,0.00,34.9,0.0
48401,TAKFA AGROMET.,ตากฟ้า สกษ.,นครสวรรค์,15.34944,100.53028,6.00,10-04-2019,19:00:00,000,998.66,1009.27,29.5,0.00,75,30.72,24.5,0.00,35.1,0.0
48402,CHAINAT AGROMET.,ชัยนาท สกษ.,ชัยนาท,15.15000,100.18333,9.00,10-04-2019,19:00:00,150,1006.59,1008.50,30.2,0.00,70,30.14,24.2,0.00,35.5,7.4
48403,CHAIYAPHUM,ชัยภูมิ,ชัยภูมิ,15.80000,102.03333,10.00,10-04-2019,19:00:00,180,988.80,1009.68,27.4,0.00,68,24.97,21.1,0.00,35.1,5.6
48404,ROI ET AGROMET.,ร้อยเอ็ด สกษ.,ร้อยเอ็ด,16.07322,103.60844,10.00,10-04-2019,19:00:00,020,991.58,1009.37,25.6,0.00,93,30.63,24.4,0.00,31.5,5.6
48405,ROI ET,ร้อยเอ็ด,ร้อยเอ็ด,16.02000,103.74389,10.00,10-04-2019,19:00:00,340,993.02,1009.26,26.1,0.00,93,31.57,24.9,0.00,31.6,7.4
48407,UBON RATCHATHANI,อุบลราชธานี (ศูนย์ฯ),อุบลราชธานี,15.25000,104.86667,10.00,10-04-2019,19:00:00,280,995.08,1009.01,29.9,0.50,70,29.55,23.8,0.00,32.9,3.7
48408,UBON RATCHATHANI AGROMET.,อุบลราชธานี สกษ.,อุบลราชธานี,15.23914,105.02350,10.00,10-04-2019,19:00:00,000,994.34,1009.13,28.3,0.00,81,31.14,24.7,0.00,34.0,0.0
48409,SI SAKET AGROMET.,ศรีสะเกษ,ศรีสะเกษ,15.00000,104.05000,10.00,10-04-2019,19:00:00,000,994.78,1009.38,29.0,0.00,88,35.16,26.8,0.00,33.0,0.0
48410,UTHAITHANI,อุทัยธานี,อุทัยธานี,15.37417,100.03889,10.00,10-04-2019,19:00:00,"{'0': '   ', '@attributes': {'Unit': 'degree'}}",1004.69,1007.67,31.8,0.00,72,33.75,26.1,0.00,35.6,0.0
48413,WICHIAN BURI,วิเชียรบุรี,เพชรบูรณ์,15.65700,101.10800,10.00,10-04-2019,19:00:00,050,1000.87,1008.77,29.3,0.00,77,31.45,24.9,0.00,35.1,11.1
48415,AYUTTHAYA,พระนครศรีอยุธยา,พระนครศรีอยุธยา,14.53472,100.72500,8.00,10-04-2019,19:00:00,150,1007.83,1008.94,27.8,0.00,79,29.63,23.9,0.00,34.7,3.7
48416,THA TUM,ท่าตูม,สุรินทร์,15.31667,103.68333,8.00,10-04-2019,19:00:00,000,994.78,1009.42,28.6,0.00,80,31.46,24.9,0.00,32.2,0.0
48417,NAKORNNAYOK,นครนายก,นครนายก,14.36222,101.39278,8.00,10-04-2019,19:00:00,140,875.70,1011.35,19.3,41.60,98,21.93,19.0,0.00,25.6,3.7
48418,BUA CHUM,บัวชุม  ,ลพบุรี,15.26667,101.18736,8.00,10-04-2019,19:00:00,000,1003.20,1009.06,28.5,0.00,79,30.70,24.5,0.00,36.0,0.0
48419,PATHUMTHANI,ปทุมธานี สกษ.,ปทุมธานี,14.10000,100.61667,8.00,10-04-2019,19:00:00,000,1008.04,1008.84,26.7,31.40,86,30.26,24.2,0.00,35.0,0.0
48420,Samut Prakarn,สมุทรปราการ สกษ.,สมุทรปราการ,13.51667,100.76167,9.00,10-04-2019,19:00:00,120,1008.35,1008.79,27.9,3.40,81,30.37,24.3,0.00,32.7,11.1
48421,THONG PHAPHUM,ทองผาภูมิ,กาญจนบุรี,14.74222,98.63639,7.00,10-04-2019,19:00:00,000,998.51,1009.83,27.3,0.40,84,30.59,24.4,0.40,35.7,0.0
48425,SUPHAN BURI,สุพรรณบุรี,สุพรรณบุรี,14.47444,100.13889,7.00,10-04-2019,19:00:00,000,1007.37,1008.38,30.2,0.00,74,31.84,25.1,0.00,36.2,0.0
48426,LOP BURI,ลพบุรี,ลพบุรี,14.79972,100.64500,7.00,10-04-2019,19:00:00,000,1006.96,1008.78,29.1,0.00,76,30.49,24.4,0.00,35.1,0.0
48427,U THONG AGROMET.,อู่ทอง สกษ.,สุพรรณบุรี,14.30361,99.86472,6.00,10-04-2019,19:00:00,000,1007.55,1008.31,29.5,0.00,78,32.13,25.2,0.00,35.4,0.0
48429,SUVARNABHUMI AIRPORT,สนามบินสุวรรณภูมิ,สมุทรปราการ,13.68639,100.76750,9.00,10-04-2019,19:00:00,100,1008.79,1009.50,27.0,0.40,84,30.02,24.1,0.40,33.9,14.8
48430,PRACHIN BURI,ปราจีนบุรี,ปราจีนบุรี,14.05842,101.36930,8.00,10-04-2019,19:00:00,020,1008.23,1008.93,27.8,0.00,74,27.75,22.8,0.00,35.2,3.7
48431,NAKHON RATCHASIMA,นครราชสีมา,นครราชสีมา,14.96830,102.08603,7.00,10-04-2019,19:00:00,000,987.97,1009.12,27.7,0.00,70,26.00,21.7,0.00,34.2,0.0
48432,SURIN,สุรินทร์,สุรินทร์,14.88333,103.50000,8.00,10-04-2019,19:00:00,000,992.67,1009.34,28.6,1.10,80,31.46,24.9,0.00,32.5,0.0
48433,SURIN AGROMET.,สุรินทร์ สกษ.,สุรินทร์,14.88333,103.45000,9.00,10-04-2019,19:00:00,000,993.55,1010.02,27.2,27.10,87,31.22,24.8,0.00,33.2,0.0
48434,CHOK CHAI,โชคชัย,นครราชสีมา,14.71889,102.16861,6.00,10-04-2019,19:00:00,000,987.35,1009.18,28.0,0.00,72,27.32,22.5,0.00,34.1,0.0
48435,PAKCHONG AGROMET.,ปากช่อง สกษ.,นครราชสีมา,14.64389,101.33194,8.00,10-04-2019,19:00:00,000,965.88,1009.58,24.5,0.01,87,26.84,22.3,0.00,32.0,0.0
48436,NANG RONG,นางรอง,บุรีรัมย์,14.58333,102.80000,10.00,10-04-2019,19:00:00,000,988.43,1008.96,28.0,0.40,85,31.95,25.1,0.00,33.8,0.0
48437,BURIRUM,บุรีรัมย์,บุรีรัมย์,15.22575,103.24808,6.00,10-04-2019,19:00:00,000,989.87,1010.81,26.3,0.00,100,34.20,26.3,0.00,32.5,0.0
48438,SAMUTSONGKRAM,สมุทรสงคราม,สมุทรสงคราม,13.40778,100.03222,10.00,10-04-2019,19:00:00,"{'0': '   ', '@attributes': {'Unit': 'degree'}}",1008.73,1009.16,28.4,0.00,68,26.47,22.0,0.00,31.6,0.0
48439,KABIN BURI,กบินทร์บุรี,ปราจีนบุรี,13.98333,101.70722,6.00,10-04-2019,19:00:00,000,1007.83,1009.26,25.3,15.60,93,30.07,24.1,0.00,34.2,0.0
48440,SA KAEW,สระแก้ว,สระแก้ว,13.78889,102.03472,7.00,10-04-2019,19:00:00,000,1005.10,1010.06,26.5,18.10,92,31.79,25.1,0.00,31.7,0.0
48450,KANCHANA BURI,กาญจนบุรี,กาญจนบุรี,14.02250,99.53583,3.00,10-04-2019,19:00:00,170,1006.25,1009.57,25.6,4.70,85,27.99,22.9,2.90,35.9,9.3
48451,NAKHONPATHOM,นครปฐม,นครปฐม,14.01167,99.97000,10.00,10-04-2019,19:00:00,150,1007.74,1008.83,30.0,0.00,78,33.17,25.8,0.00,35.3,3.7
48453,BANG NA AGROMET.,กรุงเทพฯ บางนา สกษ.,กรุงเทพมหานคร,13.66639,100.60611,10.00,10-04-2019,19:00:00,000,1008.55,1008.85,29.5,2.70,79,32.42,25.4,0.00,32.6,0.0
48454,BANGKOK PORT (KLONG TOEI),กรุงเทพฯ ท่าเรือคลองเตย,กรุงเทพมหานคร,13.70694,100.56805,10.00,10-04-2019,19:00:00,000,1007.86,1008.55,29.4,10.20,79,32.22,25.3,0.00,32.1,0.0
48455,BANGKOK METROPOLIS,กรุงเทพมหานคร,กรุงเทพมหานคร,13.72639,100.56000,10.00,10-04-2019,19:00:00,000,1008.03,1008.51,29.0,14.00,85,33.99,26.2,0.00,33.5,0.0
48456,DON MUANG AIRPORT,สนามบินดอนเมือง,กรุงเทพมหานคร,13.91917,100.60500,9.00,10-04-2019,19:00:00,140,1008.19,1009.61,27.4,37.60,80,29.15,23.6,0.01,33.0,7.4
48457,PILOT STATION,นำร่อง,สมุทรปราการ,13.39389,100.59944,8.00,10-04-2019,19:00:00,100,1007.13,1008.80,29.5,0.00,89,36.55,27.4,0.00,31.4,14.8
48458,CHACHOENGSAO,ฉะเชิงเทรา,ฉะเชิงเทรา,13.51556,101.45833,10.00,10-04-2019,19:00:00,000,1002.96,1011.06,24.7,3.10,97,30.30,24.3,0.01,33.0,0.0
48459,CHON BURI,ชลบุรี,ชลบุรี,13.36667,100.98333,4.00,10-04-2019,19:00:00,000,1008.88,1009.17,26.5,15.70,92,31.79,25.1,0.00,33.0,0.0
48460,KO SICHANG,เกาะสีชัง,ชลบุรี,13.16167,100.80194,10.00,10-04-2019,19:00:00,000,1005.98,1009.12,27.3,0.00,82,29.77,24.0,0.00,31.0,0.0
48461,PHATTHAYA,พัทยา,ชลบุรี,12.92000,100.86944,10.00,10-04-2019,19:00:00,000,1002.26,1009.21,27.5,0.00,88,32.36,25.4,0.00,31.5,0.0
48462,ARANYA PRATHET,อรัญประเทศ,สระแก้ว,13.70000,102.58333,8.00,10-04-2019,19:00:00,210,1004.23,1009.79,29.8,0.00,79,33.33,25.9,0.00,32.8,9.3
48463,LAEM CHABANG,แหลมฉบัง,ชลบุรี,13.07694,100.87583,10.00,10-04-2019,19:00:00,000,1000.03,1009.33,28.0,0.01,88,33.37,25.9,0.00,31.8,0.0
48464,RATCHA BURI,ราชบุรี,ราชบุรี,13.48931,99.79239,10.00,10-04-2019,19:00:00,150,1008.62,1009.89,25.6,0.00,78,25.69,21.5,0.00,34.2,3.7
48465,PHETCHA BURI,เพชรบุรี,เพชรบุรี,12.99944,100.06056,11.00,10-04-2019,19:00:00,210,1008.32,1008.75,30.6,0.00,74,32.67,25.5,0.00,34.9,7.4
48474,NONG PHLUB AGROMET.,หนองพลับ สกษ.,ประจวบคีรีขันธ์,12.58333,99.73333,8.00,10-04-2019,19:00:00,230,997.35,1009.75,24.2,0.10,86,25.84,21.6,0.10,34.0,3.7
48475,HUA HIN,หัวหิน,ประจวบคีรีขันธ์,12.58611,99.96250,10.00,10-04-2019,19:00:00,000,1008.13,1008.84,29.1,0.00,72,29.11,23.6,0.00,31.5,0.0
48477,SATTAHIP,สัตหีบ,ชลบุรี,12.68333,100.98333,8.00,10-04-2019,19:00:00,170,1007.16,1009.59,28.5,0.00,79,30.70,24.5,0.00,32.3,3.7
48478,RAYONG,ระยอง,ระยอง,12.63222,101.34361,8.00,10-04-2019,19:00:00,000,1009.20,1009.72,28.8,0.00,81,32.14,25.2,0.00,32.5,0.0
48479,HUAI PONG AGROMET.,ห้วยโป่ง สกษ.,ระยอง,12.73333,101.13333,10.00,10-04-2019,19:00:00,030,1004.16,1009.32,27.7,2.30,87,32.20,25.3,0.00,31.2,3.7
48480,CHANTHA BURI,จันทบุรี,จันทบุรี,12.61667,102.11333,7.00,10-04-2019,19:00:00,000,1009.16,1009.58,25.3,46.40,93,30.07,24.1,0.60,33.5,0.0
48481,PHLIU  AGROMET.,พลิ้ว สกษ.,จันทบุรี,12.50861,102.17305,8.00,10-04-2019,19:00:00,000,1007.59,1010.38,26.0,4.40,96,32.20,25.3,4.40,32.0,0.0
48500,PRACHUAP KHIRIKHAN,ประจวบคีรีขันธ์,ประจวบคีรีขันธ์,11.83333,99.83333,10.00,10-04-2019,19:00:00,000,1008.10,1008.88,28.5,0.00,81,31.54,24.9,0.00,35.0,0.0
48501,TRAD,ตราด,ตราด,11.76667,102.88333,6.00,10-04-2019,19:00:00,060,1009.35,1009.82,24.5,19.50,89,27.35,22.6,19.50,33.6,5.6
48517,CHUMPHON,ชุมพร,ชุมพร,10.49875,99.18847,7.00,10-04-2019,19:00:00,000,1008.42,1009.10,26.5,0.00,85,29.35,23.7,0.00,33.3,0.0
48520,SAWI AGROMET.,สวี สกษ.,ชุมพร,10.33333,99.10000,10.00,10-04-2019,19:00:00,000,1008.94,1010.47,26.6,0.00,92,31.99,25.2,0.00,33.8,0.0
48532,RANONG,ระนอง,ระนอง,9.98333,98.61667,10.00,10-04-2019,19:00:00,030,1008.50,1009.42,26.8,0.00,84,29.64,23.9,0.00,33.6,3.7
48550,KO SAMUI,เกาะสมุย,สุราษฎร์ธานี,9.46667,100.05000,10.00,10-04-2019,19:00:00,040,1008.35,1009.04,29.0,0.00,81,32.26,25.3,0.00,31.3,9.3
48551,SURAT THANI,สุราษฎร์ธานี,สุราษฎร์ธานี,9.13556,99.15194,8.00,10-04-2019,19:00:00,350,1008.08,1008.87,29.4,0.00,78,31.93,25.1,0.00,34.5,7.4
48552,NAKHONSI THAMMARAT,นครศรีธรรมราช,นครศรีธรรมราช,8.53778,99.96389,10.00,10-04-2019,19:00:00,000,1008.60,1009.23,26.2,0.00,86,29.33,23.7,0.00,33.8,0.0
48554,NAKHONSI THAMMARAT AGROMET.,นครศรีธรรมราช สกษ.,นครศรีธรรมราช,8.35931,100.00000,10.00,10-04-2019,19:00:00,000,1009.10,1009.50,27.7,0.00,87,32.20,25.3,0.00,34.0,0.0
48555,SURAT THANI AGROMET.,สุราษฎร์ธานี สกษ.,สุราษฎร์ธานี,9.10000,99.63333,5.00,10-04-2019,19:00:00,000,1006.83,1011.05,27.4,0.20,91,33.29,25.8,0.00,32.7,0.0
48556,PHRA SANG,พระแสง สอท.,สุราษฎร์ธานี,8.57022,99.25825,8.00,10-04-2019,19:00:00,000,1008.30,1009.92,25.5,14.40,93,30.17,24.2,11.60,33.2,0.0
48557,CHAWANG,ฉวาง,นครศรีธรรมราช,8.43194,99.51194,10.00,10-04-2019,19:00:00,170,1005.48,1008.95,28.0,0.10,85,31.95,25.1,0.00,34.6,7.4
48560,PHATTHALUNG AGROMET.,พัทลุง สกษ.,พัทลุง,7.58333,100.16667,10.00,10-04-2019,19:00:00,000,1007.90,1009.25,28.5,0.00,80,30.98,24.6,0.00,34.0,0.0
48561,TAKUA PA,ตะกั่วป่า,พังงา,8.68417,98.25222,6.00,10-04-2019,19:00:00,000,1008.51,1009.40,27.0,11.80,92,32.77,25.6,6.80,31.2,0.0
48563,KRABI,กระบี่,กระบี่,8.10361,98.97528,10.00,10-04-2019,19:00:00,000,1005.51,1009.06,28.1,0.00,79,30.20,24.2,0.00,32.4,0.0
48564,PHUKET,ภูเก็ต,ภูเก็ต,7.88333,98.40000,10.00,10-04-2019,19:00:00,000,1008.52,1008.95,29.0,0.30,78,31.13,24.7,0.00,32.0,0.0
48565,PHUKET AIRPORT,ภูเก็ต (ศูนย์ฯ),ภูเก็ต,8.14500,98.31444,10.00,10-04-2019,19:00:00,000,1008.45,1009.44,29.0,1.00,73,29.19,23.6,0.00,31.5,0.0
48566,KO LANTA,เกาะลันตา,กระบี่,7.53333,99.05000,10.00,10-04-2019,19:00:00,180,1008.47,1009.28,28.7,2.40,76,29.98,24.1,0.00,33.0,16.7
48567,TRANG AIRPORT,ตรัง,ตรัง,7.51667,99.61667,10.00,10-04-2019,19:00:00,000,1007.70,1009.52,26.5,2.00,83,28.82,23.4,0.01,33.6,0.0
48568,SONGKHLA,สงขลา,สงขลา,7.18211,100.60769,10.00,10-04-2019,19:00:00,180,1008.83,1009.59,27.0,1.10,77,27.36,22.6,1.10,32.9,5.6
48569,HAT YAI AIRPORT,หาดใหญ่,สงขลา,6.91667,100.43333,10.00,10-04-2019,19:00:00,000,1005.67,1009.70,25.6,0.60,90,29.56,23.8,0.20,33.9,0.0
48570,SATUN,สตูล,สตูล,6.65000,100.08333,10.00,10-04-2019,19:00:00,000,1009.69,1010.37,29.0,0.00,79,31.69,25.0,0.00,32.5,0.0
48571,KHO HONG AGROMET.,คอหงษ์ สกษ.,สงขลา,7.00000,100.50000,10.00,10-04-2019,19:00:00,000,1008.37,1009.49,25.6,6.80,97,31.71,25.0,1.20,34.0,0.0
48574,SA DAO,สะเดา,สงขลา,6.79806,100.39056,10.00,10-04-2019,19:00:00,000,1006.64,1009.56,27.0,1.50,88,31.38,24.8,0.00,33.6,0.0
48580,PATTANI AIRPORT,ปัตตานี,ปัตตานี,6.78333,101.15000,8.00,10-04-2019,19:00:00,000,1009.17,1009.87,25.3,1.40,88,28.23,23.1,0.00,34.4,0.0
48581,YALA AGROMET.,ยะลา สกษ.,ยะลา,6.51667,101.28333,6.00,10-04-2019,19:00:00,000,1005.79,1009.96,24.0,4.00,93,27.76,22.8,1.20,33.8,0.0
48583,NARATHIWAT,นราธิวาส,นราธิวาส,6.41667,101.81667,10.00,10-04-2019,19:00:00,240,1009.08,1009.67,27.0,0.00,79,28.14,23.0,0.00,32.0,5.6
