WmoStationNumber,StationNameEnglish,StationNameThai,Province,Latitude,Longitude,WindSpeed,Date,Time,VaporPressure,MeanSeaLevelPressure,LandVisibility,AirTemperature,RelativeHumidity,Rainfall,DewPoint,StationPressure,Rainfall24Hr,WindDirection
48300,MAE HONG SON,แม่ฮ่องสอน,แม่ฮ่องสอน,19.29897,97.97578,0.0,10-07-2019,22:00:00,29.44,1012.32,10.00,25.1,92,0.00,23.8,981.15,0.00,000
48302,DOI ANG KANG,ดอยอ่างขาง,เชียงใหม่,19.93139,99.04833,11.1,10-07-2019,22:00:00,22.19,1013.21,8.00,20.6,92,0.00,19.2,851.84,0.00,200
48303,CHIANG RAI,เชียงราย,เชียงราย,19.96139,99.88139,0.0,10-07-2019,22:00:00,26.01,1012.85,10.00,24.6,84,0.00,21.7,968.83,0.00,000
48304,CHAING RAI AGROMET.,เชียงราย สกษ.,เชียงราย,19.87083,99.78278,0.0,10-07-2019,22:00:00,26.50,1012.87,12.00,24.0,89,0.00,22.0,966.84,0.00,000
48307,THUNG CHANG,ทุ่งช้าง,น่าน,19.41194,100.88353,0.0,10-07-2019,22:00:00,26.84,1012.64,6.00,24.5,87,0.00,22.3,974.65,0.00,000
48310,PHAYAO,พะเยา,พะเยา,19.13333,99.90000,0.0,10-07-2019,22:00:00,26.66,1013.23,8.00,23.2,94,0.00,22.1,967.52,0.00,000
48315,THA WANGPHA,ท่าวังผา,น่าน,19.11056,100.80250,0.0,10-07-2019,22:00:00,27.00,1013.28,7.00,23.7,92,0.00,22.3,986.18,4.60,000
48324,THOEN,เถิน,ลำปาง,17.63661,99.24475,5.6,10-07-2019,22:00:00,28.97,1012.70,12.00,24.4,95,0.00,23.5,990.68,3.00,080
48325,MAE SARIANG,แม่สะเรียง,แม่ฮ่องสอน,18.16667,97.93333,0.0,10-07-2019,22:00:00,29.00,1012.48,8.00,25.0,92,0.00,23.5,988.14,0.00,000
48327,CHIANG MAI,เชียงใหม่,เชียงใหม่,18.79000,98.97694,0.0,10-07-2019,22:00:00,27.85,1012.97,10.00,26.4,81,0.00,22.9,978.30,0.01,000
48328,LAMPANG,ลำปาง,ลำปาง,18.28333,99.51667,0.0,10-07-2019,22:00:00,29.58,1014.18,10.00,25.9,89,0.00,23.9,986.42,0.00,000
48329,LAMPHUN,ลำพูน,ลำพูน,18.56722,99.03389,0.0,10-07-2019,22:00:00,29.50,1012.46,10.00,26.0,88,0.00,23.8,978.71,0.00,000
48330,PHRAE,แพร่,แพร่,18.16667,100.16667,1.9,10-07-2019,22:00:00,29.50,1012.42,5.00,26.0,88,0.00,23.8,993.78,0.00,180
48331,NAN,น่าน,น่าน,18.77972,100.77778,0.0,10-07-2019,22:00:00,30.16,1012.50,10.00,26.5,87,0.00,24.2,989.57,0.00,000
48333,NAN AGROMET.,น่าน สกษ.,น่าน,18.86667,100.75000,0.0,10-07-2019,22:00:00,26.93,1012.75,8.00,24.4,88,0.00,22.3,982.51,0.00,000
48334,LAMPANG AGROMET.,ลำปาง สกษ.,ลำปาง,18.31667,99.28333,0.0,10-07-2019,22:00:00,27.09,1013.17,6.00,24.2,90,0.00,22.4,977.22,0.60,000
48350,LOEI AGROMET.,เลย สกษ.,เลย,17.40000,101.73333,0.0,10-07-2019,22:00:00,24.64,1012.52,8.00,22.7,89,0.00,20.9,982.29,0.00,000
48351,UTTARADIT,อุตรดิตถ์,อุตรดิตถ์,17.61667,100.10000,0.0,10-07-2019,22:00:00,30.48,1012.05,9.00,28.1,80,0.00,24.4,1004.74,0.00,000
48352,NONG KHAI,หนองคาย,หนองคาย,17.86717,102.73303,0.0,10-07-2019,22:00:00,30.84,1012.00,7.00,28.0,82,0.00,24.6,992.09,5.80,000
48353,LOEI,เลย,เลย,17.45000,101.73333,0.0,10-07-2019,22:00:00,25.68,1012.93,10.00,24.4,84,0.00,21.5,983.90,0.00,000
48354,UDON THANI,อุดรธานี,อุดรธานี,17.38333,102.80000,0.0,10-07-2019,22:00:00,27.77,1012.08,12.00,26.5,80,0.00,22.8,991.79,0.00,000
48355,SAKON NAKHON AGROMET.,สกลนคร สกษ.,สกลนคร,17.12503,104.06100,0.0,10-07-2019,22:00:00,27.09,1012.77,10.00,24.2,90,0.00,22.4,990.73,0.00,000
48356,SAKON NAKHON,สกลนคร,สกลนคร,17.15000,104.13333,0.0,10-07-2019,22:00:00,25.69,1012.40,12.00,25.3,80,0.00,21.5,992.71,0.10,000
48357,NAKHON PHANOM,นครพนม,นครพนม,17.41083,104.78250,0.0,10-07-2019,22:00:00,28.82,1012.63,10.00,24.9,92,0.00,23.4,995.68,2.00,000
48358,NAKHON PHANOM AGROMET.,นครพนม สกษ.,นครพนม,17.44306,104.77361,0.0,10-07-2019,22:00:00,24.50,1013.10,10.00,22.0,93,0.00,20.8,995.30,20.20,000
48360,NONG BUA LAM PHU,หนองบัวลำภู,หนองบัวลำภู,17.23250,102.42944,0.0,10-07-2019,22:00:00,29.76,1012.36,10.00,26.0,89,0.00,24.0,986.38,0.00,000
48372,SUKHOTHAI*,สุโขทัย,สุโขทัย,17.10611,99.80000,3.7,10-07-2019,22:00:00,30.86,1011.68,7.00,26.3,90,0.00,24.6,1005.85,0.00,020
48373,SI SAMRONG AGROMET.,ศรีสำโรง สกษ.,สุโขทัย,17.16136,99.86167,0.0,10-07-2019,22:00:00,30.43,1011.81,7.00,26.5,88,0.00,24.3,1005.58,0.00,000
48374,LOM SAK,หล่มสัก,เพชรบูรณ์,16.77361,101.24944,0.0,10-07-2019,22:00:00,25.20,1012.93,10.00,26.5,73,0.00,21.2,996.37,0.00,000
48375,MAE SOT,แม่สอด,ตาก,16.65917,98.55083,5.6,10-07-2019,22:00:00,25.76,1010.77,10.00,24.3,85,0.00,21.6,988.17,0.00,090
48376,TAK,ตาก,ตาก,16.87833,99.14333,0.0,10-07-2019,22:00:00,30.11,1012.97,7.00,25.9,90,0.00,24.2,998.45,0.00,000
48377,BHUMIBOL DAM,เขื่อนภูมิพล,ตาก,17.24389,99.00250,0.0,10-07-2019,22:00:00,29.16,1012.85,7.00,24.8,93,0.00,23.6,996.25,0.00,000
48378,PHITSANULOK,พิษณุโลก,พิษณุโลก,16.79481,100.27930,0.0,10-07-2019,22:00:00,28.97,1012.85,10.00,26.0,86,0.00,23.5,1007.57,1.00,000
48379,PHETCHABUN,เพชรบูรณ์,เพชรบูรณ์,16.43333,101.15000,0.0,10-07-2019,22:00:00,28.96,1011.24,10.00,27.3,80,0.00,23.5,998.00,0.00,000
48380,KAMPHAENG PHET,กำแพงเพชร,กำแพงเพชร,16.48681,99.52697,0.0,10-07-2019,22:00:00,30.70,1012.13,10.00,26.5,89,0.00,24.5,1002.74,5.70,000
48381,KHON KAEN,ขอนแก่น,ขอนแก่น,16.46111,102.78972,0.0,10-07-2019,22:00:00,29.85,1011.95,8.00,27.2,83,0.00,24.0,990.18,0.00,000
48382,MAHASARAKHAM,มหาสารคาม,มหาสารคาม,16.24722,103.06805,0.0,10-07-2019,22:00:00,29.60,1011.45,12.00,27.5,81,0.00,23.9,993.91,0.00,000
48383,MUKDAHAN,มุกดาหาร,มุกดาหาร,16.54139,104.72889,0.0,10-07-2019,22:00:00,27.70,1011.77,10.00,25.0,88,0.60,22.8,995.75,0.60,000
48384,THA PHRA AGROMET.,ท่าพระ สกษ.,ขอนแก่น,16.33333,102.81667,0.0,10-07-2019,22:00:00,29.41,1011.15,8.00,26.1,87,0.00,23.8,992.14,0.01,000
48385,UMPHANG,อุ้มผาง,ตาก,16.02472,98.86444,0.0,10-07-2019,22:00:00,23.87,1014.61,7.00,22.2,89,0.00,20.3,962.41,0.00,000
48386,PICHIT AGROMET.,พิจิตร สกษ.,พิจิตร,16.43806,100.29250,11.1,10-07-2019,22:00:00,25.51,1013.00,5.00,24.0,86,0.00,21.4,1008.98,0.00,140
48387,DOI MU SOE AGROMET.,ดอยมูเซอร์ สกษ.,ตาก,16.75000,98.93333,0.0,10-07-2019,22:00:00,21.54,1013.95,4.00,19.5,95,0.00,18.7,917.59,2.30,000
48390,KALASIN,กาฬสินธุ์,กาฬสินธุ์,16.33250,103.58833,0.0,10-07-2019,22:00:00,28.82,1012.34,8.00,24.9,92,1.10,23.4,996.16,1.10,000
48400,NAKHON SAWAN,นครสวรรค์ ,นครสวรรค์,15.67183,100.13236,3.7,10-07-2019,22:00:00,28.55,1013.07,8.00,24.6,92,6.40,23.3,1008.98,6.70,070
48401,TAKFA AGROMET.,ตากฟ้า สกษ.,นครสวรรค์,15.34944,100.53028,0.0,10-07-2019,22:00:00,29.74,1012.97,5.00,25.7,90,0.00,23.9,1002.19,0.00,000
48402,CHAINAT AGROMET.,ชัยนาท สกษ.,ชัยนาท,15.15000,100.18333,0.0,10-07-2019,22:00:00,30.22,1012.58,8.00,26.1,89,0.00,24.2,1010.64,0.30,000
48403,CHAIYAPHUM,ชัยภูมิ,ชัยภูมิ,15.80000,102.03333,5.6,10-07-2019,22:00:00,29.42,1012.06,10.00,27.4,81,0.00,23.8,991.13,4.40,170
48404,ROI ET AGROMET.,ร้อยเอ็ด สกษ.,ร้อยเอ็ด,16.07322,103.60844,3.7,10-07-2019,22:00:00,27.13,1011.79,10.00,25.7,82,0.00,22.4,993.97,33.80,050
48405,ROI ET,ร้อยเอ็ด,ร้อยเอ็ด,16.02000,103.74389,0.0,10-07-2019,22:00:00,26.64,1011.67,10.00,26.3,78,0.00,22.1,995.40,13.70,000
48407,UBON RATCHATHANI,อุบลราชธานี (ศูนย์ฯ),อุบลราชธานี,15.25000,104.86667,3.7,10-07-2019,22:00:00,28.92,1012.22,10.00,26.7,83,0.00,23.5,998.10,0.00,310
48408,UBON RATCHATHANI AGROMET.,อุบลราชธานี สกษ.,อุบลราชธานี,15.23914,105.02350,0.0,10-07-2019,22:00:00,29.50,1012.62,8.00,26.0,88,0.00,23.8,997.66,0.00,000
48409,SI SAKET AGROMET.,ศรีสะเกษ,ศรีสะเกษ,15.00000,104.05000,0.0,10-07-2019,22:00:00,31.49,1012.67,6.00,25.2,98,0.00,24.9,997.83,5.40,000
48410,UTHAITHANI,อุทัยธานี,อุทัยธานี,15.37417,100.03889,0.0,10-07-2019,22:00:00,31.03,1011.54,8.00,26.1,92,0.30,24.7,1008.49,2.50,"{'@attributes': {'Unit': 'degree'}, '0': '   '}"
48413,WICHIAN BURI,วิเชียรบุรี,เพชรบูรณ์,15.65700,101.10800,0.0,10-07-2019,22:00:00,30.19,1012.40,8.00,25.8,91,0.00,24.2,1004.37,5.50,000
48415,AYUTTHAYA,พระนครศรีอยุธยา,พระนครศรีอยุธยา,14.53472,100.72500,7.4,10-07-2019,22:00:00,30.11,1012.39,7.00,25.9,90,0.00,24.2,1011.28,10.70,160
48416,THA TUM,ท่าตูม,สุรินทร์,15.31667,103.68333,0.0,10-07-2019,22:00:00,31.05,1012.24,8.00,27.4,85,0.00,24.7,997.50,0.00,000
48417,NAKORNNAYOK,นครนายก,นครนายก,14.36222,101.39278,5.6,10-07-2019,22:00:00,20.68,1014.27,8.00,18.7,96,0.00,18.0,877.97,47.60,150
48418,BUA CHUM,บัวชุม  ,ลพบุรี,15.26667,101.18736,0.0,10-07-2019,22:00:00,31.05,1012.31,10.00,26.4,90,0.00,24.7,1006.39,0.00,000
48419,PATHUMTHANI,ปทุมธานี สกษ.,ปทุมธานี,14.10000,100.61667,5.6,10-07-2019,22:00:00,29.80,1012.60,1.00,25.3,92,0.70,24.0,1011.79,0.70,080
48420,Samut Prakarn,สมุทรปราการ สกษ.,สมุทรปราการ,13.51667,100.76167,7.4,10-07-2019,22:00:00,28.98,1012.21,10.00,26.3,85,0.00,23.5,1011.76,0.00,140
48421,THONG PHAPHUM,ทองผาภูมิ,กาญจนบุรี,14.74222,98.63639,0.0,10-07-2019,22:00:00,31.08,1012.31,6.00,25.7,94,0.00,24.7,1000.90,0.80,000
48425,SUPHAN BURI,สุพรรณบุรี,สุพรรณบุรี,14.47444,100.13889,3.7,10-07-2019,22:00:00,29.33,1012.43,8.00,28.5,75,0.00,23.7,1011.42,0.70,110
48426,LOP BURI,ลพบุรี,ลพบุรี,14.79972,100.64500,5.6,10-07-2019,22:00:00,30.63,1012.31,7.00,25.6,93,0.10,24.4,1010.47,23.70,130
48427,U THONG AGROMET.,อู่ทอง สกษ.,สุพรรณบุรี,14.30361,99.86472,0.0,10-07-2019,22:00:00,29.28,1012.61,5.00,27.9,78,0.00,23.7,1011.85,3.80,000
48429,SUVARNABHUMI AIRPORT,สนามบินสุวรรณภูมิ,สมุทรปราการ,13.68639,100.76750,9.3,10-07-2019,22:00:00,30.32,1012.35,9.00,25.0,96,1.30,24.3,1011.64,1.70,050
48430,PRACHIN BURI,ปราจีนบุรี,ปราจีนบุรี,14.05842,101.36930,0.0,10-07-2019,22:00:00,29.70,1012.32,10.00,26.4,86,0.30,23.9,1011.61,0.40,000
48431,NAKHON RATCHASIMA,นครราชสีมา,นครราชสีมา,14.96830,102.08603,0.0,10-07-2019,22:00:00,29.21,1012.75,6.00,25.7,89,0.01,23.7,991.38,0.01,000
48432,SURIN,สุรินทร์,สุรินทร์,14.88333,103.50000,0.0,10-07-2019,22:00:00,29.74,1012.63,7.00,25.7,90,0.00,23.9,995.75,0.00,000
48433,SURIN AGROMET.,สุรินทร์ สกษ.,สุรินทร์,14.88333,103.45000,0.0,10-07-2019,22:00:00,30.69,1012.84,7.00,25.2,96,0.00,24.5,996.22,1.50,000
48434,CHOK CHAI,โชคชัย,นครราชสีมา,14.71889,102.16861,0.0,10-07-2019,22:00:00,28.59,1012.58,6.00,25.5,88,0.00,23.3,990.50,0.01,000
48435,PAKCHONG AGROMET.,ปากช่อง สกษ.,นครราชสีมา,14.64389,101.33194,7.4,10-07-2019,22:00:00,25.43,1012.81,6.00,25.0,80,0.00,21.4,969.04,0.00,070
48436,NANG RONG,นางรอง,บุรีรัมย์,14.58333,102.80000,3.7,10-07-2019,22:00:00,28.47,1012.46,10.00,24.7,92,0.00,23.2,991.63,5.70,140
48437,BURIRUM,บุรีรัมย์,บุรีรัมย์,15.22575,103.24808,7.4,10-07-2019,22:00:00,30.73,1014.04,7.00,24.5,100,0.40,24.5,992.91,16.50,230
48438,SAMUTSONGKRAM,สมุทรสงคราม,สมุทรสงคราม,13.40778,100.03222,0.0,10-07-2019,22:00:00,30.82,1012.96,10.00,28.7,78,0.00,24.5,1012.53,0.00,"{'@attributes': {'Unit': 'degree'}, '0': '   '}"
48439,KABIN BURI,กบินทร์บุรี,ปราจีนบุรี,13.98333,101.70722,0.0,10-07-2019,22:00:00,28.89,1012.27,8.00,24.5,94,1.00,23.5,1010.84,7.30,000
48440,SA KAEW,สระแก้ว,สระแก้ว,13.78889,102.03472,0.0,10-07-2019,22:00:00,30.48,1012.43,8.00,24.8,97,0.00,24.4,1007.44,26.00,000
48450,KANCHANA BURI,กาญจนบุรี,กาญจนบุรี,14.02250,99.53583,0.0,10-07-2019,22:00:00,30.70,1012.09,7.00,26.5,89,0.00,24.5,1008.78,10.90,000
48451,NAKHONPATHOM,นครปฐม,นครปฐม,14.01167,99.97000,3.7,10-07-2019,22:00:00,31.38,1012.53,10.00,27.0,88,0.00,24.8,1011.41,2.50,090
48453,BANG NA AGROMET.,กรุงเทพฯ บางนา สกษ.,กรุงเทพมหานคร,13.66639,100.60611,3.7,10-07-2019,22:00:00,30.84,1012.41,8.00,26.0,92,4.70,24.6,1012.10,4.70,030
48455,BANGKOK METROPOLIS,กรุงเทพมหานคร,กรุงเทพมหานคร,13.72639,100.56000,3.7,10-07-2019,22:00:00,30.18,1011.96,8.00,26.8,86,4.30,24.2,1011.47,4.30,120
48456,DON MUANG AIRPORT,สนามบินดอนเมือง,กรุงเทพมหานคร,13.91917,100.60500,13.0,10-07-2019,22:00:00,29.01,1012.65,9.00,25.3,90,1.40,23.5,1011.23,1.40,100
48458,CHACHOENGSAO,ฉะเชิงเทรา,ฉะเชิงเทรา,13.51556,101.45833,0.0,10-07-2019,22:00:00,28.77,1014.03,.80,23.7,98,9.60,23.4,1005.88,45.60,000
48459,CHON BURI,ชลบุรี,ชลบุรี,13.36667,100.98333,3.7,10-07-2019,22:00:00,28.51,1011.92,4.00,25.6,87,0.00,23.2,1011.63,3.70,060
48460,KO SICHANG,เกาะสีชัง,ชลบุรี,13.16167,100.80194,5.6,10-07-2019,22:00:00,30.02,1011.65,10.00,27.0,84,0.00,24.1,1008.51,0.00,210
48461,PHATTHAYA,พัทยา,ชลบุรี,12.92000,100.86944,0.0,10-07-2019,22:00:00,31.27,1011.56,10.00,26.8,89,0.00,24.8,1004.58,0.00,000
48462,ARANYA PRATHET,อรัญประเทศ,สระแก้ว,13.70000,102.58333,0.0,10-07-2019,22:00:00,30.51,1012.43,9.00,26.4,89,0.00,24.4,1006.80,0.00,000
48464,RATCHA BURI,ราชบุรี,ราชบุรี,13.48931,99.79239,0.0,10-07-2019,22:00:00,31.35,1012.64,10.00,26.7,90,0.00,24.8,1011.37,0.00,000
48465,PHETCHA BURI,เพชรบุรี,เพชรบุรี,12.99944,100.06056,5.6,10-07-2019,22:00:00,32.55,1011.87,11.00,29.0,81,0.00,25.5,1011.43,3.50,160
48474,NONG PHLUB AGROMET.,หนองพลับ สกษ.,ประจวบคีรีขันธ์,12.58333,99.73333,0.0,10-07-2019,22:00:00,31.08,1012.24,8.00,25.7,94,0.00,24.7,999.87,0.50,000
48475,HUA HIN,หัวหิน,ประจวบคีรีขันธ์,12.58611,99.96250,0.0,10-07-2019,22:00:00,31.95,1011.81,8.00,28.0,85,0.00,25.1,1011.09,0.00,000
48477,SATTAHIP,สัตหีบ,ชลบุรี,12.68333,100.98333,3.7,10-07-2019,22:00:00,30.97,1011.76,9.00,26.5,89,0.00,24.6,1009.31,0.00,330
48478,RAYONG,ระยอง,ระยอง,12.63222,101.34361,0.0,10-07-2019,22:00:00,31.85,1011.96,10.00,27.1,89,0.00,25.1,1011.44,0.30,000
48479,HUAI PONG AGROMET.,ห้วยโป่ง สกษ.,ระยอง,12.73333,101.13333,0.0,10-07-2019,22:00:00,30.81,1011.87,6.00,26.7,88,0.00,24.5,1006.69,28.80,000
48480,CHANTHA BURI,จันทบุรี,จันทบุรี,12.61667,102.11333,0.0,10-07-2019,22:00:00,30.07,1012.14,7.00,25.3,93,0.00,24.1,1011.72,17.30,000
48481,PHLIU  AGROMET.,พลิ้ว สกษ.,จันทบุรี,12.50861,102.17305,0.0,10-07-2019,22:00:00,29.25,1012.32,8.00,24.7,94,0.00,23.7,1009.51,0.70,000
48500,PRACHUAP KHIRIKHAN,ประจวบคีรีขันธ์,ประจวบคีรีขันธ์,11.83333,99.83333,0.0,10-07-2019,22:00:00,29.89,1014.79,10.00,30.5,68,0.00,24.0,1014.01,0.00,000
48501,TRAD,ตราด,ตราด,11.76667,102.88333,3.7,10-07-2019,22:00:00,29.52,1012.26,6.00,25.0,93,0.00,23.8,1011.80,8.50,050
48517,CHUMPHON,ชุมพร,ชุมพร,10.49875,99.18847,0.0,10-07-2019,22:00:00,31.38,1011.63,8.00,27.0,88,0.00,24.8,1010.95,0.00,000
48520,SAWI AGROMET.,สวี สกษ.,ชุมพร,10.33333,99.10000,0.0,10-07-2019,22:00:00,32.77,1011.80,8.00,27.0,92,0.00,25.6,1010.27,0.00,000
48532,RANONG,ระนอง,ระนอง,9.98333,98.61667,3.7,10-07-2019,22:00:00,29.25,1012.47,10.00,24.7,94,0.10,23.7,1011.54,9.40,110
48550,KO SAMUI,เกาะสมุย,สุราษฎร์ธานี,9.46667,100.05000,5.6,10-07-2019,22:00:00,30.70,1011.76,12.00,27.5,84,0.00,24.5,1011.07,0.00,020
48551,SURAT THANI,สุราษฎร์ธานี,สุราษฎร์ธานี,9.13556,99.15194,0.0,10-07-2019,22:00:00,29.95,1011.91,8.00,24.8,96,0.00,24.1,1011.11,13.90,000
48552,NAKHONSI THAMMARAT,นครศรีธรรมราช,นครศรีธรรมราช,8.53778,99.96389,0.0,10-07-2019,22:00:00,32.04,1011.48,10.00,26.2,94,1.20,25.2,1010.84,1.20,000
48554,NAKHONSI THAMMARAT AGROMET.,นครศรีธรรมราช สกษ.,นครศรีธรรมราช,8.35931,100.00000,0.0,10-07-2019,22:00:00,31.96,1011.85,10.00,26.3,93,0.00,25.1,1011.44,0.80,000
48555,SURAT THANI AGROMET.,สุราษฎร์ธานี สกษ.,สุราษฎร์ธานี,9.10000,99.63333,0.0,10-07-2019,22:00:00,29.41,1013.90,5.00,24.5,96,0.00,23.8,1009.63,0.00,000
48556,PHRA SANG,พระแสง สอท.,สุราษฎร์ธานี,8.57022,99.25825,0.0,10-07-2019,22:00:00,29.85,1011.89,10.00,24.6,97,0.00,24.0,1010.26,4.60,000
48557,CHAWANG,ฉวาง,นครศรีธรรมราช,8.43194,99.51194,0.0,10-07-2019,22:00:00,30.40,1011.52,6.00,24.9,97,0.00,24.3,1008.00,0.50,000
48560,PHATTHALUNG AGROMET.,พัทลุง สกษ.,พัทลุง,7.58333,100.16667,0.0,10-07-2019,22:00:00,30.97,1011.80,10.00,26.5,89,0.00,24.6,1010.44,0.00,000
48561,TAKUA PA,ตะกั่วป่า,พังงา,8.68417,98.25222,0.0,10-07-2019,22:00:00,29.62,1011.56,10.00,25.2,92,0.00,23.9,1010.67,1.60,000
48563,KRABI,กระบี่,กระบี่,8.10361,98.97528,0.0,10-07-2019,22:00:00,28.69,1012.23,10.00,23.8,97,0.40,23.4,1008.61,31.40,000
48564,PHUKET,ภูเก็ต,ภูเก็ต,7.88333,98.40000,0.0,10-07-2019,22:00:00,30.12,1011.66,10.00,27.2,84,0.00,24.2,1011.22,2.20,000
48565,PHUKET AIRPORT,ภูเก็ต (ศูนย์ฯ),ภูเก็ต,8.14500,98.31444,0.0,10-07-2019,22:00:00,30.52,1011.32,9.00,25.4,94,3.30,24.4,1010.31,8.80,000
48566,KO LANTA,เกาะลันตา,กระบี่,7.53333,99.05000,0.0,10-07-2019,22:00:00,29.17,1011.54,10.00,26.4,85,0.00,23.6,1010.72,0.00,000
48567,TRANG AIRPORT,ตรัง,ตรัง,7.51667,99.61667,0.0,10-07-2019,22:00:00,30.50,1011.68,10.00,25.1,96,0.00,24.4,1009.84,8.80,000
48568,SONGKHLA,สงขลา,สงขลา,7.18211,100.60769,1.9,10-07-2019,22:00:00,30.12,1012.24,10.00,27.2,84,0.00,24.2,1011.48,0.01,250
48569,HAT YAI AIRPORT,หาดใหญ่,สงขลา,6.91667,100.43333,3.7,10-07-2019,22:00:00,30.52,1011.98,10.00,25.4,94,0.00,24.4,1007.94,0.20,250
48570,SATUN,สตูล,สตูล,6.65000,100.08333,0.0,10-07-2019,22:00:00,29.00,1011.57,10.00,25.0,92,0.00,23.5,1010.88,7.00,000
48571,KHO HONG AGROMET.,คอหงษ์ สกษ.,สงขลา,7.00000,100.50000,0.0,10-07-2019,22:00:00,29.16,1011.98,10.00,24.8,93,0.00,23.6,1010.85,0.00,000
48574,SA DAO,สะเดา,สงขลา,6.79806,100.39056,0.0,10-07-2019,22:00:00,30.81,1011.80,10.00,26.7,88,0.00,24.5,1008.87,0.01,000
48580,PATTANI AIRPORT,ปัตตานี,ปัตตานี,6.78333,101.15000,0.0,10-07-2019,22:00:00,31.25,1011.63,8.00,25.5,96,0.00,24.8,1010.93,0.00,000
48581,YALA AGROMET.,ยะลา สกษ.,ยะลา,6.51667,101.28333,0.0,10-07-2019,22:00:00,29.13,1012.00,7.00,24.2,97,0.00,23.6,1007.82,0.20,000
48583,NARATHIWAT,นราธิวาส,นราธิวาส,6.41667,101.81667,0.0,10-07-2019,22:00:00,29.91,1011.38,9.00,25.5,92,0.00,24.0,1010.79,0.00,000
