WmoStationNumber,StationNameEnglish,StationNameThai,Province,Latitude,Longitude,VaporPressure,Date,Time,Rainfall,WindDirection,DewPoint,AirTemperature,Rainfall24Hr,LandVisibility,MeanSeaLevelPressure,StationPressure,RelativeHumidity,WindSpeed
48300,MAE HONG SON,แม่ฮ่องสอน,แม่ฮ่องสอน,19.29897,97.97578,28.11,10-16-2019,01:00:00,0.00,000,23.0,24.5,0.00,8.00,1014.32,983.02,91,0.0
48302,DOI ANG KANG,ดอยอ่างขาง,เชียงใหม่,19.93139,99.04833,19.69,10-16-2019,01:00:00,0.00,140,17.3,17.6,5.10,8.00,1013.47,850.58,98,5.6
48303,CHIANG RAI,เชียงราย,เชียงราย,19.96139,99.88139,26.25,10-16-2019,01:00:00,0.00,000,21.9,23.7,0.00,10.00,1015.39,971.13,90,0.0
48304,CHAING RAI AGROMET.,เชียงราย สกษ.,เชียงราย,19.87083,99.78278,24.89,10-16-2019,01:00:00,0.00,000,21.0,22.4,0.00,12.00,1015.35,968.97,92,0.0
48307,THUNG CHANG,ทุ่งช้าง,น่าน,19.41194,100.88353,27.74,10-16-2019,01:00:00,0.00,000,22.8,22.8,13.80,6.00,1015.10,976.80,100,0.0
48310,PHAYAO,พะเยา,พะเยา,19.13333,99.90000,26.17,10-16-2019,01:00:00,0.00,000,21.8,22.3,36.70,10.00,1016.16,970.17,97,0.0
48315,THA WANGPHA,ท่าวังผา,น่าน,19.11056,100.80250,27.66,10-16-2019,01:00:00,0.00,000,22.8,23.5,0.80,7.00,1016.24,989.04,96,0.0
48324,THOEN,เถิน,ลำปาง,17.63661,99.24475,27.66,10-16-2019,01:00:00,0.00,000,22.7,23.2,11.00,7.00,1014.20,992.06,97,0.0
48325,MAE SARIANG,แม่สะเรียง,แม่ฮ่องสอน,18.16667,97.93333,26.83,10-16-2019,01:00:00,0.00,000,22.2,23.0,0.30,6.00,1014.40,989.85,96,0.0
48327,CHIANG MAI,เชียงใหม่,เชียงใหม่,18.79000,98.97694,27.86,10-16-2019,01:00:00,0.00,000,22.9,24.5,0.01,10.00,1015.15,980.18,91,0.0
48328,LAMPANG,ลำปาง,ลำปาง,18.28333,99.51667,27.66,10-16-2019,01:00:00,0.00,000,22.8,23.5,1.00,10.00,1015.94,987.92,96,0.0
48329,LAMPHUN,ลำพูน,ลำพูน,18.56722,99.03389,27.07,10-16-2019,01:00:00,0.00,000,22.4,23.0,5.00,7.00,1015.09,980.91,96,0.0
48330,PHRAE,แพร่,แพร่,18.16667,100.16667,27.34,10-16-2019,01:00:00,0.00,000,22.6,23.9,0.00,5.00,1014.37,995.57,92,0.0
48331,NAN,น่าน,น่าน,18.77972,100.77778,26.99,10-16-2019,01:00:00,0.00,000,22.3,23.1,8.40,10.00,1015.20,991.94,96,0.0
48333,NAN AGROMET.,น่าน สกษ.,น่าน,18.86667,100.75000,25.04,10-16-2019,01:00:00,0.00,000,21.1,22.5,29.30,6.00,1015.72,985.19,92,0.0
48334,LAMPANG AGROMET.,ลำปาง สกษ.,ลำปาง,18.31667,99.28333,27.66,10-16-2019,01:00:00,0.00,000,22.8,23.5,11.20,7.00,1015.01,978.91,96,0.0
48350,LOEI AGROMET.,เลย สกษ.,เลย,17.40000,101.73333,26.58,10-16-2019,01:00:00,0.00,000,22.1,22.7,4.90,10.00,1014.60,984.31,96,0.0
48351,UTTARADIT,อุตรดิตถ์,อุตรดิตถ์,17.61667,100.10000,28.01,10-16-2019,01:00:00,0.00,000,23.0,26.2,3.70,8.00,1013.72,1006.35,82,0.0
48352,NONG KHAI,หนองคาย,หนองคาย,17.86717,102.73303,26.02,10-16-2019,01:00:00,0.00,000,21.7,25.5,0.00,5.00,1014.19,994.06,80,0.0
48354,UDON THANI,อุดรธานี,อุดรธานี,17.38333,102.80000,26.35,10-16-2019,01:00:00,0.00,000,22.0,25.1,0.00,12.00,1014.51,994.08,83,0.0
48355,SAKON NAKHON AGROMET.,สกลนคร สกษ.,สกลนคร,17.12503,104.06100,26.58,10-16-2019,01:00:00,0.00,000,22.1,23.0,11.50,10.00,1015.39,993.20,95,0.0
48356,SAKON NAKHON,สกลนคร,สกลนคร,17.15000,104.13333,26.11,10-16-2019,01:00:00,0.00,000,21.8,25.4,2.00,10.00,1014.03,994.32,81,0.0
48357,NAKHON PHANOM,นครพนม,นครพนม,17.41083,104.78250,25.43,10-16-2019,01:00:00,0.00,000,21.4,25.0,0.00,11.00,1015.01,998.03,80,0.0
48358,NAKHON PHANOM AGROMET.,นครพนม สกษ.,นครพนม,17.44306,104.77361,25.92,10-16-2019,01:00:00,0.00,000,21.7,23.5,1.00,10.00,1014.90,997.16,90,0.0
48360,NONG BUA LAM PHU,หนองบัวลำภู,หนองบัวลำภู,17.23250,102.42944,28.98,10-16-2019,01:00:00,0.00,100,23.5,26.3,0.00,9.00,1013.98,987.98,85,3.7
48372,SUKHOTHAI*,สุโขทัย,สุโขทัย,17.10611,99.80000,31.05,10-16-2019,01:00:00,0.00,310,24.7,26.4,0.00,10.00,1013.51,1007.67,90,3.7
48373,SI SAMRONG AGROMET.,ศรีสำโรง สกษ.,สุโขทัย,17.16136,99.86167,31.79,10-16-2019,01:00:00,0.00,000,25.1,26.5,0.00,6.00,1013.62,1007.38,92,0.0
48374,LOM SAK,หล่มสัก,เพชรบูรณ์,16.77361,101.24944,26.96,10-16-2019,01:00:00,0.00,000,22.3,25.6,0.00,10.00,1014.64,998.01,82,0.0
48375,MAE SOT,แม่สอด,ตาก,16.65917,98.55083,27.44,10-16-2019,01:00:00,0.00,160,22.6,24.7,0.00,10.00,1011.73,989.14,88,5.6
48376,TAK,ตาก,ตาก,16.87833,99.14333,30.18,10-16-2019,01:00:00,0.00,000,24.2,26.8,0.00,7.00,1014.07,999.58,86,0.0
48378,PHITSANULOK,พิษณุโลก,พิษณุโลก,16.79481,100.27930,26.80,10-16-2019,01:00:00,0.00,060,22.2,28.0,0.00,10.00,1013.42,1008.17,71,5.6
48379,PHETCHABUN,เพชรบูรณ์,เพชรบูรณ์,16.43333,101.15000,26.98,10-16-2019,01:00:00,0.00,000,22.3,26.2,0.00,10.00,1012.02,998.72,79,0.0
48380,KAMPHAENG PHET,กำแพงเพชร,กำแพงเพชร,16.48681,99.52697,28.82,10-16-2019,01:00:00,0.00,010,23.4,26.5,7.50,11.00,1013.14,1003.74,83,3.7
48381,KHON KAEN,ขอนแก่น,ขอนแก่น,16.46111,102.78972,27.25,10-16-2019,01:00:00,0.00,010,22.5,24.0,12.20,9.00,1013.88,991.84,91,9.3
48382,MAHASARAKHAM,มหาสารคาม,มหาสารคาม,16.24722,103.06805,29.26,10-16-2019,01:00:00,0.00,000,23.7,25.0,1.10,10.00,1014.27,996.52,92,0.0
48383,MUKDAHAN,มุกดาหาร,มุกดาหาร,16.54139,104.72889,27.14,10-16-2019,01:00:00,0.00,030,22.4,26.0,0.00,10.00,1012.96,996.98,81,3.7
48384,THA PHRA AGROMET.,ท่าพระ สกษ.,ขอนแก่น,16.33333,102.81667,27.09,10-16-2019,01:00:00,0.00,000,22.4,24.2,4.50,8.00,1013.07,993.90,90,0.0
48385,UMPHANG,อุ้มผาง,ตาก,16.02472,98.86444,24.50,10-16-2019,01:00:00,0.00,000,20.8,22.0,0.00,6.00,1014.48,962.26,93,0.0
48386,PICHIT AGROMET.,พิจิตร สกษ.,พิจิตร,16.43806,100.29250,31.88,10-16-2019,01:00:00,0.00,000,25.1,26.4,0.00,7.00,1012.66,1008.68,93,0.0
48387,DOI MU SOE AGROMET.,ดอยมูเซอร์ สกษ.,ตาก,16.75000,98.93333,23.23,10-16-2019,01:00:00,16.60,020,19.9,21.0,21.30,5.00,1014.24,918.31,93,11.1
48390,KALASIN,กาฬสินธุ์,กาฬสินธุ์,16.33250,103.58833,27.44,10-16-2019,01:00:00,0.00,000,22.6,24.7,1.60,8.00,1013.78,997.57,88,0.0
48400,NAKHON SAWAN,นครสวรรค์ ,นครสวรรค์,15.67183,100.13236,29.23,10-16-2019,01:00:00,0.00,000,23.7,27.3,0.00,6.00,1013.09,1009.03,81,0.0
48401,TAKFA AGROMET.,ตากฟ้า สกษ.,นครสวรรค์,15.34944,100.53028,26.17,10-16-2019,01:00:00,0.00,060,21.8,27.5,0.00,7.00,1013.56,1002.84,71,9.3
48402,CHAINAT AGROMET.,ชัยนาท สกษ.,ชัยนาท,15.15000,100.18333,27.36,10-16-2019,01:00:00,0.00,000,22.6,27.0,0.00,9.00,1013.16,1011.22,77,0.0
48403,CHAIYAPHUM,ชัยภูมิ,ชัยภูมิ,15.80000,102.03333,25.19,10-16-2019,01:00:00,0.00,000,21.2,25.9,1.90,10.00,1013.27,992.20,75,0.0
48404,ROI ET AGROMET.,ร้อยเอ็ด สกษ.,ร้อยเอ็ด,16.07322,103.60844,26.43,10-16-2019,01:00:00,0.00,050,22.0,25.0,0.00,10.00,1013.16,995.27,83,11.1
48405,ROI ET,ร้อยเอ็ด,ร้อยเอ็ด,16.02000,103.74389,26.78,10-16-2019,01:00:00,0.00,000,22.2,25.2,0.00,10.00,1013.22,996.86,84,0.0
48407,UBON RATCHATHANI,อุบลราชธานี (ศูนย์ฯ),อุบลราชธานี,15.25000,104.86667,26.78,10-16-2019,01:00:00,0.00,020,22.2,25.2,0.10,10.00,1012.84,998.64,84,3.7
48408,UBON RATCHATHANI AGROMET.,อุบลราชธานี สกษ.,อุบลราชธานี,15.23914,105.02350,27.10,10-16-2019,01:00:00,0.00,000,22.4,24.8,22.00,9.00,1013.78,998.74,87,0.0
48409,SI SAKET AGROMET.,ศรีสะเกษ,ศรีสะเกษ,15.00000,104.05000,28.59,10-16-2019,01:00:00,0.00,060,23.3,25.5,0.00,7.00,1013.45,998.61,88,11.1
48410,UTHAITHANI,อุทัยธานี,อุทัยธานี,15.37417,100.03889,28.30,10-16-2019,01:00:00,0.00,"{'0': '   ', '@attributes': {'Unit': 'degree'}}",23.1,28.1,0.00,10.00,1012.26,1009.23,74,0.0
48413,WICHIAN BURI,วิเชียรบุรี,เพชรบูรณ์,15.65700,101.10800,26.95,10-16-2019,01:00:00,0.00,000,22.3,27.5,0.00,7.00,1012.63,1004.65,73,0.0
48415,AYUTTHAYA,พระนครศรีอยุธยา,พระนครศรีอยุธยา,14.53472,100.72500,32.02,10-16-2019,01:00:00,0.00,030,25.2,26.9,0.00,8.00,1012.81,1011.70,90,11.1
48416,THA TUM,ท่าตูม,สุรินทร์,15.31667,103.68333,30.02,10-16-2019,01:00:00,0.00,090,24.1,27.0,0.00,8.00,1011.11,996.36,84,3.7
48417,NAKORNNAYOK,นครนายก,นครนายก,14.36222,101.39278,22.15,10-16-2019,01:00:00,0.00,050,19.1,19.3,0.00,8.00,1013.88,877.89,99,7.4
48418,BUA CHUM,บัวชุม  ,ลพบุรี,15.26667,101.18736,24.79,10-16-2019,01:00:00,0.00,070,21.0,27.0,0.00,10.00,1013.00,1007.08,70,7.4
48419,PATHUMTHANI,ปทุมธานี สกษ.,ปทุมธานี,14.10000,100.61667,31.38,10-16-2019,01:00:00,0.00,000,24.8,27.0,0.00,7.00,1012.01,1011.20,88,0.0
48420,Samut Prakarn,สมุทรปราการ สกษ.,สมุทรปราการ,13.51667,100.76167,29.19,10-16-2019,01:00:00,0.00,120,23.6,28.0,0.00,6.00,1011.71,1011.26,77,7.4
48421,THONG PHAPHUM,ทองผาภูมิ,กาญจนบุรี,14.74222,98.63639,28.28,10-16-2019,01:00:00,0.00,000,23.1,24.3,0.00,4.00,1012.96,1001.49,93,0.0
48425,SUPHAN BURI,สุพรรณบุรี,สุพรรณบุรี,14.47444,100.13889,30.07,10-16-2019,01:00:00,0.00,030,24.1,27.6,0.00,6.00,1012.49,1011.48,81,3.7
48426,LOP BURI,ลพบุรี,ลพบุรี,14.79972,100.64500,26.54,10-16-2019,01:00:00,0.00,030,22.1,28.0,0.00,7.00,1012.53,1010.71,70,3.7
48427,U THONG AGROMET.,อู่ทอง สกษ.,สุพรรณบุรี,14.30361,99.86472,30.62,10-16-2019,01:00:00,0.00,000,24.4,26.6,0.00,8.00,1012.11,1011.34,88,0.0
48429,SUVARNABHUMI AIRPORT,สนามบินสุวรรณภูมิ,สมุทรปราการ,13.68639,100.76750,30.15,10-16-2019,01:00:00,0.00,100,24.2,27.5,0.01,9.00,1011.54,1010.83,82,3.7
48430,PRACHIN BURI,ปราจีนบุรี,ปราจีนบุรี,14.05842,101.36930,30.81,10-16-2019,01:00:00,0.00,000,24.5,27.7,0.01,7.00,1011.58,1010.87,83,0.0
48431,NAKHON RATCHASIMA,นครราชสีมา,นครราชสีมา,14.96830,102.08603,27.64,10-16-2019,01:00:00,0.00,040,22.7,25.7,0.00,8.00,1013.28,991.91,84,1.9
48432,SURIN,สุรินทร์,สุรินทร์,14.88333,103.50000,27.46,10-16-2019,01:00:00,0.00,000,22.6,25.3,0.00,7.00,1012.67,995.77,85,0.0
48433,SURIN AGROMET.,สุรินทร์ สกษ.,สุรินทร์,14.88333,103.45000,28.11,10-16-2019,01:00:00,0.00,000,23.0,24.5,0.01,6.00,1013.27,996.60,91,0.0
48434,CHOK CHAI,โชคชัย,นครราชสีมา,14.71889,102.16861,27.19,10-16-2019,01:00:00,0.00,000,22.5,25.0,0.00,6.00,1012.82,990.69,86,0.0
48435,PAKCHONG AGROMET.,ปากช่อง สกษ.,นครราชสีมา,14.64389,101.33194,26.84,10-16-2019,01:00:00,0.00,080,22.3,24.5,0.00,12.00,1013.37,969.50,87,14.8
48436,NANG RONG,นางรอง,บุรีรัมย์,14.58333,102.80000,27.70,10-16-2019,01:00:00,1.30,000,22.8,25.0,1.30,10.00,1012.59,991.78,88,0.0
48437,BURIRUM,บุรีรัมย์,บุรีรัมย์,15.22575,103.24808,30.00,10-16-2019,01:00:00,0.00,020,24.1,24.1,1.40,7.00,1014.43,993.26,100,9.3
48438,SAMUTSONGKRAM,สมุทรสงคราม,สมุทรสงคราม,13.40778,100.03222,29.60,10-16-2019,01:00:00,0.00,"{'0': '   ', '@attributes': {'Unit': 'degree'}}",23.9,27.5,8.50,10.00,1011.89,1011.45,81,0.0
48439,KABIN BURI,กบินทร์บุรี,ปราจีนบุรี,13.98333,101.70722,31.33,10-16-2019,01:00:00,0.00,000,24.8,25.4,6.70,6.00,1011.77,1010.34,97,0.0
48440,SA KAEW,สระแก้ว,สระแก้ว,13.78889,102.03472,30.50,10-16-2019,01:00:00,0.00,000,24.4,25.1,0.00,7.00,1012.08,1007.09,96,0.0
48450,KANCHANA BURI,กาญจนบุรี,กาญจนบุรี,14.02250,99.53583,30.97,10-16-2019,01:00:00,0.00,000,24.6,27.5,0.00,10.00,1012.07,1008.76,84,0.0
48451,NAKHONPATHOM,นครปฐม,นครปฐม,14.01167,99.97000,33.22,10-16-2019,01:00:00,0.00,000,25.8,26.8,0.00,10.00,1012.02,1010.91,94,0.0
48453,BANG NA AGROMET.,กรุงเทพฯ บางนา สกษ.,กรุงเทพมหานคร,13.66639,100.60611,31.94,10-16-2019,01:00:00,0.00,000,25.1,27.0,3.30,10.00,1011.50,1011.20,90,0.0
48455,BANGKOK METROPOLIS,กรุงเทพมหานคร,กรุงเทพมหานคร,13.72639,100.56000,32.21,10-16-2019,01:00:00,0.00,000,25.3,27.0,1.60,10.00,1010.94,1010.45,90,0.0
48456,DON MUANG AIRPORT,สนามบินดอนเมือง,กรุงเทพมหานคร,13.91917,100.60500,31.74,10-16-2019,01:00:00,0.00,040,25.0,26.9,2.20,10.00,1012.23,1010.81,90,11.1
48458,CHACHOENGSAO,ฉะเชิงเทรา,ฉะเชิงเทรา,13.51556,101.45833,28.53,10-16-2019,01:00:00,0.00,000,23.3,24.0,0.50,10.00,1013.68,1005.54,96,0.0
48459,CHON BURI,ชลบุรี,ชลบุรี,13.36667,100.98333,31.22,10-16-2019,01:00:00,0.00,050,24.8,27.2,0.00,4.00,1011.46,1011.18,87,7.4
48460,KO SICHANG,เกาะสีชัง,ชลบุรี,13.16167,100.80194,31.54,10-16-2019,01:00:00,0.00,000,24.9,28.5,0.00,10.00,1010.78,1007.65,81,0.0
48461,PHATTHAYA,พัทยา,ชลบุรี,12.92000,100.86944,28.67,10-16-2019,01:00:00,0.00,060,23.3,27.0,0.00,10.00,1011.60,1004.63,80,5.6
48462,ARANYA PRATHET,อรัญประเทศ,สระแก้ว,13.70000,102.58333,31.79,10-16-2019,01:00:00,0.00,000,25.1,26.5,8.50,8.00,1012.38,1006.74,92,0.0
48464,RATCHA BURI,ราชบุรี,ราชบุรี,13.48931,99.79239,30.26,10-16-2019,01:00:00,0.00,280,24.2,26.7,27.00,8.00,1012.37,1011.10,86,3.7
48465,PHETCHA BURI,เพชรบุรี,เพชรบุรี,12.99944,100.06056,31.25,10-16-2019,01:00:00,0.00,310,24.8,27.5,1.20,11.00,1011.64,1011.20,85,11.1
48474,NONG PHLUB AGROMET.,หนองพลับ สกษ.,ประจวบคีรีขันธ์,12.58333,99.73333,29.00,10-16-2019,01:00:00,1.70,000,23.5,25.0,1.70,8.00,1012.46,1000.05,92,0.0
48475,HUA HIN,หัวหิน,ประจวบคีรีขันธ์,12.58611,99.96250,31.65,10-16-2019,01:00:00,1.40,000,25.0,26.0,9.20,8.00,1011.67,1010.95,94,0.0
48477,SATTAHIP,สัตหีบ,ชลบุรี,12.68333,100.98333,30.23,10-16-2019,01:00:00,0.00,360,24.2,25.1,14.20,9.00,1011.65,1009.18,95,7.4
48478,RAYONG,ระยอง,ระยอง,12.63222,101.34361,30.71,10-16-2019,01:00:00,0.00,000,24.5,25.5,6.40,8.00,1011.71,1011.19,94,0.0
48479,HUAI PONG AGROMET.,ห้วยโป่ง สกษ.,ระยอง,12.73333,101.13333,29.48,10-16-2019,01:00:00,0.00,000,23.8,25.7,0.01,7.00,1011.58,1006.38,89,0.0
48480,CHANTHA BURI,จันทบุรี,จันทบุรี,12.61667,102.11333,28.70,10-16-2019,01:00:00,0.00,000,23.4,26.0,0.80,7.00,1011.54,1011.12,85,0.0
48481,PHLIU  AGROMET.,พลิ้ว สกษ.,จันทบุรี,12.50861,102.17305,29.00,10-16-2019,01:00:00,0.00,000,23.5,25.0,0.00,8.00,1011.61,1008.81,92,0.0
48500,PRACHUAP KHIRIKHAN,ประจวบคีรีขันธ์,ประจวบคีรีขันธ์,11.83333,99.83333,29.50,10-16-2019,01:00:00,0.00,000,23.8,26.0,0.00,10.00,1012.07,1011.27,88,0.0
48501,TRAD,ตราด,ตราด,11.76667,102.88333,29.52,10-16-2019,01:00:00,0.00,080,23.8,25.0,6.30,6.00,1011.64,1011.18,93,5.6
48517,CHUMPHON,ชุมพร,ชุมพร,10.49875,99.18847,29.33,10-16-2019,01:00:00,0.00,000,23.7,24.6,3.40,7.00,1010.76,1010.07,95,0.0
48520,SAWI AGROMET.,สวี สกษ.,ชุมพร,10.33333,99.10000,29.36,10-16-2019,01:00:00,0.00,000,23.7,25.2,6.40,7.00,1010.56,1009.02,92,0.0
48532,RANONG,ระนอง,ระนอง,9.98333,98.61667,28.85,10-16-2019,01:00:00,0.00,000,23.4,25.5,0.30,10.00,1011.35,1010.43,88,0.0
48550,KO SAMUI,เกาะสมุย,สุราษฎร์ธานี,9.46667,100.05000,32.35,10-16-2019,01:00:00,0.00,000,25.4,26.5,9.20,10.00,1011.48,1010.79,93,0.0
48551,SURAT THANI,สุราษฎร์ธานี,สุราษฎร์ธานี,9.13556,99.15194,30.32,10-16-2019,01:00:00,0.00,000,24.3,25.0,0.80,8.00,1011.39,1010.59,96,0.0
48552,NAKHONSI THAMMARAT,นครศรีธรรมราช,นครศรีธรรมราช,8.53778,99.96389,28.78,10-16-2019,01:00:00,0.00,000,23.4,24.0,17.40,10.00,1009.85,1009.21,97,0.0
48554,NAKHONSI THAMMARAT AGROMET.,นครศรีธรรมราช สกษ.,นครศรีธรรมราช,8.35931,100.00000,29.23,10-16-2019,01:00:00,0.00,000,23.7,24.4,13.90,10.00,1010.98,1010.57,96,0.0
48555,SURAT THANI AGROMET.,สุราษฎร์ธานี สกษ.,สุราษฎร์ธานี,9.10000,99.63333,28.72,10-16-2019,01:00:00,0.00,000,23.4,24.7,8.20,6.00,1012.77,1008.50,92,0.0
48556,PHRA SANG,พระแสง สอท.,สุราษฎร์ธานี,8.57022,99.25825,28.60,10-16-2019,01:00:00,0.40,000,23.3,23.6,0.40,10.00,1011.30,1009.67,98,0.0
48557,CHAWANG,ฉวาง,นครศรีธรรมราช,8.43194,99.51194,29.41,10-16-2019,01:00:00,0.00,000,23.8,24.5,2.90,10.00,1010.86,1007.34,96,0.0
48560,PHATTHALUNG AGROMET.,พัทลุง สกษ.,พัทลุง,7.58333,100.16667,31.58,10-16-2019,01:00:00,0.00,000,24.9,25.1,4.90,7.00,1010.98,1009.61,99,0.0
48561,TAKUA PA,ตะกั่วป่า,พังงา,8.68417,98.25222,28.53,10-16-2019,01:00:00,0.00,000,23.3,24.0,17.70,10.00,1011.07,1010.18,96,0.0
48563,KRABI,กระบี่,กระบี่,8.10361,98.97528,28.17,10-16-2019,01:00:00,0.00,000,23.0,23.5,1.60,10.00,1010.45,1006.83,97,0.0
48564,PHUKET,ภูเก็ต,ภูเก็ต,7.88333,98.40000,29.19,10-16-2019,01:00:00,0.00,000,23.6,26.7,0.40,10.00,1010.51,1010.07,83,0.0
48565,PHUKET AIRPORT,ภูเก็ต (ศูนย์ฯ),ภูเก็ต,8.14500,98.31444,29.91,10-16-2019,01:00:00,0.00,000,24.0,25.5,2.90,8.00,1010.33,1009.33,92,0.0
48566,KO LANTA,เกาะลันตา,กระบี่,7.53333,99.05000,29.25,10-16-2019,01:00:00,0.00,000,23.7,24.7,20.80,10.00,1010.46,1009.63,94,0.0
48567,TRANG AIRPORT,ตรัง,ตรัง,7.51667,99.61667,30.67,10-16-2019,01:00:00,0.00,000,24.5,24.9,1.30,7.00,1010.69,1008.86,97,0.0
48568,SONGKHLA,สงขลา,สงขลา,7.18211,100.60769,30.57,10-16-2019,01:00:00,0.00,000,24.4,26.0,0.10,10.00,1010.78,1010.03,91,0.0
48569,HAT YAI AIRPORT,หาดใหญ่,สงขลา,6.91667,100.43333,31.77,10-16-2019,01:00:00,0.00,090,25.0,25.2,7.20,10.00,1010.99,1006.96,99,3.7
48570,SATUN,สตูล,สตูล,6.65000,100.08333,30.34,10-16-2019,01:00:00,0.00,000,24.3,25.3,4.40,7.00,1010.80,1010.11,94,0.0
48571,KHO HONG AGROMET.,คอหงษ์ สกษ.,สงขลา,7.00000,100.50000,29.85,10-16-2019,01:00:00,0.00,000,24.0,24.6,0.80,10.00,1011.16,1010.03,97,0.0
48574,SA DAO,สะเดา,สงขลา,6.79806,100.39056,31.87,10-16-2019,01:00:00,0.00,000,25.1,25.4,10.80,10.00,1011.09,1008.14,98,0.0
