WmoStationNumber,StationNameEnglish,StationNameThai,Province,Latitude,Longitude,Rainfall,Date,Time,AirTemperature,DewPoint,RelativeHumidity,VaporPressure,WindSpeed,Rainfall24Hr,MeanSeaLevelPressure,WindDirection,StationPressure,LandVisibility
48300,MAE HONG SON,แม่ฮ่องสอน,แม่ฮ่องสอน,19.29897,97.97578,0.00,10-11-2019,01:00:00,24.2,22.7,91,27.60,0.0,0.80,1011.73,000,980.48,8.00
48302,DOI ANG KANG,ดอยอ่างขาง,เชียงใหม่,19.93139,99.04833,0.00,10-11-2019,01:00:00,18.3,16.1,87,18.30,3.7,4.10,1010.40,160,848.35,8.00
48303,CHIANG RAI,เชียงราย,เชียงราย,19.96139,99.88139,0.00,10-11-2019,01:00:00,26.0,22.4,81,27.14,0.0,0.00,1011.09,000,967.35,10.00
48304,CHAING RAI AGROMET.,เชียงราย สกษ.,เชียงราย,19.87083,99.78278,0.00,10-11-2019,01:00:00,24.9,22.4,86,27.02,0.0,0.00,1011.15,000,965.33,12.00
48307,THUNG CHANG,ทุ่งช้าง,น่าน,19.41194,100.88353,0.00,10-11-2019,01:00:00,22.5,22.0,97,26.50,0.0,0.00,1012.12,000,973.90,6.00
48310,PHAYAO,พะเยา,พะเยา,19.13333,99.90000,0.00,10-11-2019,01:00:00,25.0,23.5,92,29.00,0.0,0.00,1011.23,000,965.87,7.00
48315,THA WANGPHA,ท่าวังผา,น่าน,19.11056,100.80250,0.00,10-11-2019,01:00:00,24.2,23.0,93,28.10,0.0,0.00,1012.13,000,985.10,6.00
48324,THOEN,เถิน,ลำปาง,17.63661,99.24475,5.60,10-11-2019,01:00:00,23.2,22.6,96,27.41,0.0,5.60,1012.71,000,990.60,7.00
48325,MAE SARIANG,แม่สะเรียง,แม่ฮ่องสอน,18.16667,97.93333,1.00,10-11-2019,01:00:00,23.5,23.2,98,28.42,0.0,3.50,1012.70,000,988.24,6.00
48327,CHIANG MAI,เชียงใหม่,เชียงใหม่,18.79000,98.97694,3.50,10-11-2019,01:00:00,24.0,22.2,90,26.75,3.7,3.50,1012.32,160,977.40,10.00
48328,LAMPANG,ลำปาง,ลำปาง,18.28333,99.51667,0.00,10-11-2019,01:00:00,26.0,24.6,92,30.84,0.0,0.00,1012.47,000,984.76,10.00
48329,LAMPHUN,ลำพูน,ลำพูน,18.56722,99.03389,14.10,10-11-2019,01:00:00,23.3,22.4,95,27.08,0.0,15.60,1013.17,000,979.09,10.00
48330,PHRAE,แพร่,แพร่,18.16667,100.16667,0.00,10-11-2019,01:00:00,26.0,23.8,88,29.50,0.0,0.00,1011.03,000,992.42,5.00
48331,NAN,น่าน,น่าน,18.77972,100.77778,0.00,10-11-2019,01:00:00,25.1,22.9,88,27.88,0.0,0.00,1011.40,000,988.38,10.00
48333,NAN AGROMET.,น่าน สกษ.,น่าน,18.86667,100.75000,0.00,10-11-2019,01:00:00,24.2,23.0,93,28.10,0.0,0.00,1011.29,000,981.07,5.00
48334,LAMPANG AGROMET.,ลำปาง สกษ.,ลำปาง,18.31667,99.28333,0.00,10-11-2019,01:00:00,26.5,25.1,92,31.79,0.0,0.00,1011.57,000,975.95,6.00
48350,LOEI AGROMET.,เลย สกษ.,เลย,17.40000,101.73333,0.00,10-11-2019,01:00:00,24.0,23.7,98,29.30,0.0,1.80,1010.76,000,980.71,10.00
48351,UTTARADIT,อุตรดิตถ์,อุตรดิตถ์,17.61667,100.10000,0.00,10-11-2019,01:00:00,27.6,24.4,83,30.61,0.0,0.00,1011.04,000,1003.72,8.00
48352,NONG KHAI,หนองคาย,หนองคาย,17.86717,102.73303,0.00,10-11-2019,01:00:00,26.8,23.4,82,28.84,3.7,0.00,1010.79,100,990.82,5.00
48353,LOEI,เลย,เลย,17.45000,101.73333,0.00,10-11-2019,01:00:00,25.1,23.8,92,29.44,0.0,0.50,1011.05,000,982.14,10.00
48354,UDON THANI,อุดรธานี,อุดรธานี,17.38333,102.80000,0.00,10-11-2019,01:00:00,25.7,23.7,89,29.21,0.0,0.00,1011.24,000,990.91,10.00
48355,SAKON NAKHON AGROMET.,สกลนคร สกษ.,สกลนคร,17.12503,104.06100,0.00,10-11-2019,01:00:00,25.0,23.1,89,28.22,0.0,0.00,1011.56,000,989.61,12.00
48356,SAKON NAKHON,สกลนคร,สกลนคร,17.15000,104.13333,0.00,10-11-2019,01:00:00,26.4,23.6,85,29.17,0.0,0.00,1011.13,000,991.53,11.00
48357,NAKHON PHANOM,นครพนม,นครพนม,17.41083,104.78250,0.00,10-11-2019,01:00:00,26.4,23.0,82,28.11,0.0,0.00,1011.49,000,994.65,10.00
48358,NAKHON PHANOM AGROMET.,นครพนม สกษ.,นครพนม,17.44306,104.77361,0.00,10-11-2019,01:00:00,25.9,23.4,86,28.78,0.0,0.00,1011.68,000,994.14,10.00
48360,NONG BUA LAM PHU,หนองบัวลำภู,หนองบัวลำภู,17.23250,102.42944,0.00,10-11-2019,01:00:00,24.7,22.8,89,27.69,0.0,0.00,1010.60,000,984.56,10.00
48372,SUKHOTHAI*,สุโขทัย,สุโขทัย,17.10611,99.80000,0.00,10-11-2019,01:00:00,26.8,24.2,86,30.18,9.3,0.00,1011.77,270,1005.95,10.00
48373,SI SAMRONG AGROMET.,ศรีสำโรง สกษ.,สุโขทัย,17.16136,99.86167,0.00,10-11-2019,01:00:00,27.0,25.6,92,32.77,0.0,0.00,1011.41,000,1005.20,6.00
48374,LOM SAK,หล่มสัก,เพชรบูรณ์,16.77361,101.24944,0.00,10-11-2019,01:00:00,25.5,23.6,89,29.11,0.0,1.30,1011.87,000,995.27,8.00
48375,MAE SOT,แม่สอด,ตาก,16.65917,98.55083,5.00,10-11-2019,01:00:00,22.8,22.0,96,26.50,0.0,62.50,1011.43,000,988.70,7.00
48376,TAK,ตาก,ตาก,16.87833,99.14333,3.00,10-11-2019,01:00:00,23.9,22.4,91,27.08,0.0,12.40,1012.86,000,998.24,6.00
48377,BHUMIBOL DAM,เขื่อนภูมิพล,ตาก,17.24389,99.00250,39.50,10-11-2019,01:00:00,23.2,23.0,99,28.16,0.0,50.10,1012.35,000,995.67,6.00
48378,PHITSANULOK,พิษณุโลก,พิษณุโลก,16.79481,100.27930,0.00,10-11-2019,01:00:00,26.6,24.7,90,31.16,0.0,0.00,1011.17,000,1005.92,10.00
48379,PHETCHABUN,เพชรบูรณ์,เพชรบูรณ์,16.43333,101.15000,0.00,10-11-2019,01:00:00,25.3,24.1,93,30.07,0.0,11.80,1009.66,000,996.36,10.00
48380,KAMPHAENG PHET,กำแพงเพชร,กำแพงเพชร,16.48681,99.52697,0.00,10-11-2019,01:00:00,26.4,23.6,85,29.17,0.0,0.00,1011.38,000,1002.00,10.00
48381,KHON KAEN,ขอนแก่น,ขอนแก่น,16.46111,102.78972,0.00,10-11-2019,01:00:00,26.0,23.8,88,29.50,5.6,0.00,1011.03,300,989.19,8.00
48382,MAHASARAKHAM,มหาสารคาม,มหาสารคาม,16.24722,103.06805,0.00,10-11-2019,01:00:00,26.5,23.6,84,29.08,0.0,0.00,1011.09,000,993.50,10.00
48383,MUKDAHAN,มุกดาหาร,มุกดาหาร,16.54139,104.72889,0.00,10-11-2019,01:00:00,27.0,24.1,84,30.02,0.0,0.00,1010.40,000,994.52,10.00
48384,THA PHRA AGROMET.,ท่าพระ สกษ.,ขอนแก่น,16.33333,102.81667,0.00,10-11-2019,01:00:00,25.7,23.9,90,29.74,0.0,0.00,1010.10,000,991.08,6.00
48385,UMPHANG,อุ้มผาง,ตาก,16.02472,98.86444,0.00,10-11-2019,01:00:00,21.1,19.8,93,23.14,0.0,44.60,1012.17,000,959.91,5.00
48386,PICHIT AGROMET.,พิจิตร สกษ.,พิจิตร,16.43806,100.29250,0.00,10-11-2019,01:00:00,26.6,25.5,93,32.54,0.0,0.10,1010.66,000,1006.68,8.00
48387,DOI MU SOE AGROMET.,ดอยมูเซอร์ สกษ.,ตาก,16.75000,98.93333,0.00,10-11-2019,01:00:00,20.0,18.7,92,21.57,7.4,0.00,1013.48,210,917.31,6.00
48390,KALASIN,กาฬสินธุ์,กาฬสินธุ์,16.33250,103.58833,0.00,10-11-2019,01:00:00,25.8,23.8,89,29.39,0.0,0.00,1011.09,000,994.98,8.00
48400,NAKHON SAWAN,นครสวรรค์ ,นครสวรรค์,15.67183,100.13236,0.00,10-11-2019,01:00:00,26.2,25.3,95,32.32,0.0,12.90,1011.05,000,1006.99,8.00
48401,TAKFA AGROMET.,ตากฟ้า สกษ.,นครสวรรค์,15.34944,100.53028,0.00,10-11-2019,01:00:00,25.5,23.7,90,29.38,0.0,0.00,1012.43,000,1001.64,7.00
48402,CHAINAT AGROMET.,ชัยนาท สกษ.,ชัยนาท,15.15000,100.18333,0.00,10-11-2019,01:00:00,26.9,24.7,88,31.19,3.7,0.00,1011.25,090,1009.32,8.00
48403,CHAIYAPHUM,ชัยภูมิ,ชัยภูมิ,15.80000,102.03333,0.00,10-11-2019,01:00:00,24.9,23.0,89,28.04,0.0,0.00,1012.14,000,991.03,10.00
48404,ROI ET AGROMET.,ร้อยเอ็ด สกษ.,ร้อยเอ็ด,16.07322,103.60844,0.00,10-11-2019,01:00:00,26.2,25.0,93,31.76,0.0,0.00,1010.50,000,992.73,10.00
48405,ROI ET,ร้อยเอ็ด,ร้อยเอ็ด,16.02000,103.74389,0.00,10-11-2019,01:00:00,27.0,25.6,92,32.77,0.0,0.00,1010.35,000,994.14,10.00
48407,UBON RATCHATHANI,อุบลราชธานี (ศูนย์ฯ),อุบลราชธานี,15.25000,104.86667,0.00,10-11-2019,01:00:00,26.3,23.1,82,28.19,0.0,0.00,1011.04,000,996.92,10.00
48408,UBON RATCHATHANI AGROMET.,อุบลราชธานี สกษ.,อุบลราชธานี,15.23914,105.02350,0.00,10-11-2019,01:00:00,25.0,23.5,92,29.00,0.0,0.00,1011.48,000,996.49,8.00
48409,SI SAKET AGROMET.,ศรีสะเกษ,ศรีสะเกษ,15.00000,104.05000,0.00,10-11-2019,01:00:00,25.8,25.4,97,32.37,0.0,2.50,1011.25,000,996.46,6.00
48410,UTHAITHANI,อุทัยธานี,อุทัยธานี,15.37417,100.03889,0.00,10-11-2019,01:00:00,26.8,24.0,85,29.91,0.0,0.00,1011.08,"{'0': '   ', '@attributes': {'Unit': 'degree'}}",1008.05,8.00
48413,WICHIAN BURI,วิเชียรบุรี,เพชรบูรณ์,15.65700,101.10800,0.00,10-11-2019,01:00:00,25.0,23.5,92,29.00,0.0,0.00,1011.00,000,1002.97,7.00
48415,AYUTTHAYA,พระนครศรีอยุธยา,พระนครศรีอยุธยา,14.53472,100.72500,0.00,10-11-2019,01:00:00,27.0,25.3,90,32.21,0.0,0.00,1011.89,000,1010.78,7.00
48416,THA TUM,ท่าตูม,สุรินทร์,15.31667,103.68333,0.00,10-11-2019,01:00:00,25.0,22.0,83,26.43,0.0,0.00,1011.39,000,996.55,8.00
48417,NAKORNNAYOK,นครนายก,นครนายก,14.36222,101.39278,0.00,10-11-2019,01:00:00,17.6,17.4,99,19.90,0.0,19.80,1014.42,000,877.63,8.00
48418,BUA CHUM,บัวชุม  ,ลพบุรี,15.26667,101.18736,0.00,10-11-2019,01:00:00,24.1,23.9,99,29.74,3.7,2.90,1011.25,120,1005.29,7.00
48419,PATHUMTHANI,ปทุมธานี สกษ.,ปทุมธานี,14.10000,100.61667,0.00,10-11-2019,01:00:00,27.2,25.2,89,32.05,0.0,0.00,1011.26,000,1010.46,8.00
48421,THONG PHAPHUM,ทองผาภูมิ,กาญจนบุรี,14.74222,98.63639,0.40,10-11-2019,01:00:00,24.5,23.5,94,28.89,0.0,6.30,1012.51,000,1001.05,4.00
48425,SUPHAN BURI,สุพรรณบุรี,สุพรรณบุรี,14.47444,100.13889,26.30,10-11-2019,01:00:00,23.7,22.3,92,27.00,3.7,26.30,1011.70,270,1010.67,4.00
48426,LOP BURI,ลพบุรี,ลพบุรี,14.79972,100.64500,0.00,10-11-2019,01:00:00,26.6,24.3,87,30.34,0.0,0.00,1011.07,000,1009.24,7.00
48427,U THONG AGROMET.,อู่ทอง สกษ.,สุพรรณบุรี,14.30361,99.86472,3.90,10-11-2019,01:00:00,24.3,23.7,97,29.31,0.0,3.90,1010.56,000,1009.78,5.00
48429,SUVARNABHUMI AIRPORT,สนามบินสุวรรณภูมิ,สมุทรปราการ,13.68639,100.76750,0.00,10-11-2019,01:00:00,27.3,24.7,86,31.14,5.6,11.00,1011.06,080,1010.35,8.00
48430,PRACHIN BURI,ปราจีนบุรี,ปราจีนบุรี,14.05842,101.36930,0.00,10-11-2019,01:00:00,27.0,25.1,90,31.94,0.0,0.00,1011.00,000,1010.29,7.00
48431,NAKHON RATCHASIMA,นครราชสีมา,นครราชสีมา,14.96830,102.08603,0.00,10-11-2019,01:00:00,24.6,24.0,97,29.85,0.0,45.90,1011.41,000,990.00,2.00
48432,SURIN,สุรินทร์,สุรินทร์,14.88333,103.50000,0.00,10-11-2019,01:00:00,25.0,23.5,92,29.00,0.0,0.01,1011.28,000,994.38,6.00
48433,SURIN AGROMET.,สุรินทร์ สกษ.,สุรินทร์,14.88333,103.45000,0.00,10-11-2019,01:00:00,25.0,24.3,96,30.32,0.0,0.60,1011.82,000,995.20,7.00
48434,CHOK CHAI,โชคชัย,นครราชสีมา,14.71889,102.16861,0.00,10-11-2019,01:00:00,24.4,23.5,95,28.97,0.0,14.00,1011.66,000,989.51,6.00
48435,PAKCHONG AGROMET.,ปากช่อง สกษ.,นครราชสีมา,14.64389,101.33194,0.00,10-11-2019,01:00:00,22.5,21.7,95,26.01,0.0,1.00,1011.78,000,967.70,8.00
48436,NANG RONG,นางรอง,บุรีรัมย์,14.58333,102.80000,0.00,10-11-2019,01:00:00,25.0,23.5,92,29.00,0.0,0.00,1010.83,000,990.06,10.00
48437,BURIRUM,บุรีรัมย์,บุรีรัมย์,15.22575,103.24808,0.00,10-11-2019,01:00:00,24.0,24.0,100,29.82,7.4,0.00,1012.45,250,991.32,8.00
48438,SAMUTSONGKRAM,สมุทรสงคราม,สมุทรสงคราม,13.40778,100.03222,0.00,10-11-2019,01:00:00,28.0,25.1,85,31.95,0.0,36.60,1011.03,"{'0': '   ', '@attributes': {'Unit': 'degree'}}",1010.60,10.00
48439,KABIN BURI,กบินทร์บุรี,ปราจีนบุรี,13.98333,101.70722,0.00,10-11-2019,01:00:00,25.4,24.2,93,30.25,0.0,0.00,1010.96,000,1009.53,6.00
48440,SA KAEW,สระแก้ว,สระแก้ว,13.78889,102.03472,0.00,10-11-2019,01:00:00,25.1,24.4,96,30.50,0.0,0.00,1011.32,000,1006.33,7.00
48450,KANCHANA BURI,กาญจนบุรี,กาญจนบุรี,14.02250,99.53583,0.00,10-11-2019,01:00:00,27.0,24.0,83,29.75,0.0,0.10,1011.54,000,1008.24,10.00
48451,NAKHONPATHOM,นครปฐม,นครปฐม,14.01167,99.97000,0.00,10-11-2019,01:00:00,27.7,25.4,87,32.48,3.7,0.00,1011.17,300,1010.06,10.00
48453,BANG NA AGROMET.,กรุงเทพฯ บางนา สกษ.,กรุงเทพมหานคร,13.66639,100.60611,0.00,10-11-2019,01:00:00,27.3,25.7,91,33.09,0.0,7.10,1010.67,000,1010.37,10.00
48455,BANGKOK METROPOLIS,กรุงเทพมหานคร,กรุงเทพมหานคร,13.72639,100.56000,0.00,10-11-2019,01:00:00,27.0,25.6,92,32.77,0.0,26.60,1010.77,000,1010.28,8.00
48456,DON MUANG AIRPORT,สนามบินดอนเมือง,กรุงเทพมหานคร,13.91917,100.60500,0.00,10-11-2019,01:00:00,27.4,24.5,84,30.78,7.4,0.00,1011.43,110,1010.02,8.00
48458,CHACHOENGSAO,ฉะเชิงเทรา,ฉะเชิงเทรา,13.51556,101.45833,0.00,10-11-2019,01:00:00,24.0,23.4,97,28.78,0.0,0.00,1012.77,000,1004.64,10.00
48459,CHON BURI,ชลบุรี,ชลบุรี,13.36667,100.98333,0.00,10-11-2019,01:00:00,26.7,25.7,94,33.02,0.0,5.80,1010.82,000,1010.54,10.00
48460,KO SICHANG,เกาะสีชัง,ชลบุรี,13.16167,100.80194,0.00,10-11-2019,01:00:00,26.0,25.3,96,32.20,0.0,0.00,1010.67,000,1007.51,10.00
48461,PHATTHAYA,พัทยา,ชลบุรี,12.92000,100.86944,0.00,10-11-2019,01:00:00,26.7,25.0,90,31.63,0.0,0.00,1010.52,000,1003.55,6.00
48462,ARANYA PRATHET,อรัญประเทศ,สระแก้ว,13.70000,102.58333,0.00,10-11-2019,01:00:00,26.0,24.6,92,30.84,0.0,0.01,1011.50,000,1005.85,10.00
48464,RATCHA BURI,ราชบุรี,ราชบุรี,13.48931,99.79239,0.00,10-11-2019,01:00:00,26.5,24.2,87,30.16,3.7,0.01,1011.81,340,1010.54,8.00
48465,PHETCHA BURI,เพชรบุรี,เพชรบุรี,12.99944,100.06056,0.00,10-11-2019,01:00:00,28.0,25.1,85,31.95,0.0,0.00,1011.26,000,1010.82,11.00
48474,NONG PHLUB AGROMET.,หนองพลับ สกษ.,ประจวบคีรีขันธ์,12.58333,99.73333,0.00,10-11-2019,01:00:00,24.8,24.1,96,29.95,0.0,0.00,1011.72,000,999.32,6.00
48475,HUA HIN,หัวหิน,ประจวบคีรีขันธ์,12.58611,99.96250,0.00,10-11-2019,01:00:00,27.0,24.5,87,30.83,0.0,0.00,1011.40,000,1010.68,8.00
48477,SATTAHIP,สัตหีบ,ชลบุรี,12.68333,100.98333,0.00,10-11-2019,01:00:00,25.5,24.5,94,30.71,0.0,6.30,1011.26,000,1008.80,5.00
48478,RAYONG,ระยอง,ระยอง,12.63222,101.34361,0.00,10-11-2019,01:00:00,25.5,24.6,95,30.98,0.0,0.50,1011.23,000,1010.70,8.00
48479,HUAI PONG AGROMET.,ห้วยโป่ง สกษ.,ระยอง,12.73333,101.13333,0.00,10-11-2019,01:00:00,25.0,24.1,95,30.05,0.0,1.50,1011.12,000,1005.91,7.00
48480,CHANTHA BURI,จันทบุรี,จันทบุรี,12.61667,102.11333,0.00,10-11-2019,01:00:00,25.5,24.8,96,31.25,0.0,0.30,1010.85,000,1010.43,7.00
48481,PHLIU  AGROMET.,พลิ้ว สกษ.,จันทบุรี,12.50861,102.17305,0.00,10-11-2019,01:00:00,25.2,24.6,97,30.96,0.0,3.20,1010.82,000,1008.02,8.00
48500,PRACHUAP KHIRIKHAN,ประจวบคีรีขันธ์,ประจวบคีรีขันธ์,11.83333,99.83333,0.00,10-11-2019,01:00:00,25.8,23.9,89,29.66,0.0,0.00,1011.62,000,1010.83,10.00
48501,TRAD,ตราด,ตราด,11.76667,102.88333,0.00,10-11-2019,01:00:00,23.8,22.8,94,27.67,7.4,16.90,1010.98,070,1010.52,6.00
48517,CHUMPHON,ชุมพร,ชุมพร,10.49875,99.18847,0.00,10-11-2019,01:00:00,25.0,23.5,92,29.00,0.0,0.00,1011.25,000,1010.56,7.00
48520,SAWI AGROMET.,สวี สกษ.,ชุมพร,10.33333,99.10000,0.00,10-11-2019,01:00:00,26.0,24.6,92,30.84,0.0,0.00,1010.39,000,1008.85,7.00
48532,RANONG,ระนอง,ระนอง,9.98333,98.61667,0.00,10-11-2019,01:00:00,25.1,23.9,93,29.70,3.7,11.70,1011.65,040,1010.73,10.00
48550,KO SAMUI,เกาะสมุย,สุราษฎร์ธานี,9.46667,100.05000,0.00,10-11-2019,01:00:00,25.0,24.0,94,29.79,0.0,4.90,1011.67,000,1010.98,10.00
48551,SURAT THANI,สุราษฎร์ธานี,สุราษฎร์ธานี,9.13556,99.15194,0.00,10-11-2019,01:00:00,25.0,24.3,96,30.32,0.0,0.01,1011.90,000,1011.09,7.00
48552,NAKHONSI THAMMARAT,นครศรีธรรมราช,นครศรีธรรมราช,8.53778,99.96389,0.00,10-11-2019,01:00:00,25.0,24.3,96,30.32,0.0,0.00,1010.52,000,1009.88,10.00
48554,NAKHONSI THAMMARAT AGROMET.,นครศรีธรรมราช สกษ.,นครศรีธรรมราช,8.35931,100.00000,0.00,10-11-2019,01:00:00,24.5,23.8,96,29.41,0.0,0.30,1010.66,000,1010.25,10.00
48555,SURAT THANI AGROMET.,สุราษฎร์ธานี สกษ.,สุราษฎร์ธานี,9.10000,99.63333,0.00,10-11-2019,01:00:00,24.0,23.3,96,28.53,0.0,2.40,1013.59,000,1009.31,5.00
48556,PHRA SANG,พระแสง สอท.,สุราษฎร์ธานี,8.57022,99.25825,0.00,10-11-2019,01:00:00,23.7,23.4,98,28.77,0.0,0.00,1011.72,000,1010.09,8.00
48557,CHAWANG,ฉวาง,นครศรีธรรมราช,8.43194,99.51194,0.00,10-11-2019,01:00:00,24.0,22.5,91,27.25,0.0,1.40,1011.43,000,1007.90,10.00
48560,PHATTHALUNG AGROMET.,พัทลุง สกษ.,พัทลุง,7.58333,100.16667,0.00,10-11-2019,01:00:00,24.5,23.9,97,29.67,0.0,0.50,1011.08,000,1009.71,8.00
48561,TAKUA PA,ตะกั่วป่า,พังงา,8.68417,98.25222,0.00,10-11-2019,01:00:00,24.2,23.9,98,29.66,0.0,3.80,1011.52,000,1010.62,10.00
48563,KRABI,กระบี่,กระบี่,8.10361,98.97528,0.00,10-11-2019,01:00:00,23.6,23.0,96,28.09,0.0,5.20,1011.34,000,1007.73,10.00
48564,PHUKET,ภูเก็ต,ภูเก็ต,7.88333,98.40000,1.20,10-11-2019,01:00:00,26.0,25.3,96,32.20,0.0,64.20,1010.85,000,1010.42,8.00
48565,PHUKET AIRPORT,ภูเก็ต (ศูนย์ฯ),ภูเก็ต,8.14500,98.31444,0.00,10-11-2019,01:00:00,25.5,23.6,89,29.11,0.0,1.30,1011.35,000,1010.35,10.00
48566,KO LANTA,เกาะลันตา,กระบี่,7.53333,99.05000,0.00,10-11-2019,01:00:00,25.3,24.1,93,30.07,11.1,0.60,1011.35,080,1010.53,10.00
48567,TRANG AIRPORT,ตรัง,ตรัง,7.51667,99.61667,0.00,10-11-2019,01:00:00,24.4,23.7,96,29.23,0.0,1.30,1011.29,000,1009.45,10.00
48568,SONGKHLA,สงขลา,สงขลา,7.18211,100.60769,0.00,10-11-2019,01:00:00,24.8,23.2,91,28.38,0.0,0.00,1010.93,000,1010.17,10.00
48569,HAT YAI AIRPORT,หาดใหญ่,สงขลา,6.91667,100.43333,0.00,10-11-2019,01:00:00,23.4,23.1,98,28.25,0.0,43.80,1011.29,000,1007.23,10.00
48570,SATUN,สตูล,สตูล,6.65000,100.08333,0.00,10-11-2019,01:00:00,25.3,24.6,96,30.87,0.0,0.00,1011.38,000,1010.69,10.00
48571,KHO HONG AGROMET.,คอหงษ์ สกษ.,สงขลา,7.00000,100.50000,0.00,10-11-2019,01:00:00,23.2,22.6,96,27.41,0.0,25.40,1011.41,000,1010.28,2.00
48574,SA DAO,สะเดา,สงขลา,6.79806,100.39056,0.00,10-11-2019,01:00:00,23.7,23.3,97,28.52,0.0,40.60,1011.44,000,1008.47,10.00
