WmoStationNumber,StationNameEnglish,StationNameThai,Province,Latitude,Longitude,AirTemperature,Date,Time,RelativeHumidity,DewPoint,MeanSeaLevelPressure,WindDirection,StationPressure,WindSpeed,LandVisibility,MaximumTemperature,Rainfall24Hr,VaporPressure,Rainfall
48300,MAE HONG SON,แม่ฮ่องสอน,แม่ฮ่องสอน,19.29897,97.97578,28.2,10-10-2019,19:00:00,80,24.3,1008.73,000,977.99,0.0,12.00,33.1,0.00,30.40,0.00
48302,DOI ANG KANG,ดอยอ่างขาง,เชียงใหม่,19.93139,99.04833,18.8,10-10-2019,19:00:00,92,17.5,1008.75,180,847.21,3.7,8.00,21.0,4.10,19.97,0.00
48303,CHIANG RAI,เชียงราย,เชียงราย,19.96139,99.88139,28.5,10-10-2019,19:00:00,71,22.8,1008.88,000,965.59,0.0,10.00,33.1,0.00,27.71,0.00
48304,CHAING RAI AGROMET.,เชียงราย สกษ.,เชียงราย,19.87083,99.78278,27.8,10-10-2019,19:00:00,75,23.0,1008.97,000,963.68,0.0,12.00,34.5,0.00,28.02,0.00
48307,THUNG CHANG,ทุ่งช้าง,น่าน,19.41194,100.88353,26.6,10-10-2019,19:00:00,80,22.8,1009.72,000,972.09,0.0,8.00,34.1,0.00,27.69,0.00
48310,PHAYAO,พะเยา,พะเยา,19.13333,99.90000,26.5,10-10-2019,19:00:00,80,22.8,1009.88,000,964.81,0.0,7.00,32.0,0.00,27.77,0.00
48315,THA WANGPHA,ท่าวังผา,น่าน,19.11056,100.80250,29.1,10-10-2019,19:00:00,72,23.4,1009.25,000,982.73,0.0,10.00,35.0,0.00,28.83,0.00
48324,THOEN,เถิน,ลำปาง,17.63661,99.24475,28.4,10-10-2019,19:00:00,79,24.4,1009.13,150,987.47,3.7,12.00,33.5,0.00,30.51,0.00
48325,MAE SARIANG,แม่สะเรียง,แม่ฮ่องสอน,18.16667,97.93333,29.5,10-10-2019,19:00:00,78,25.2,1008.80,000,984.91,0.0,10.00,34.5,8.70,32.13,0.00
48327,CHIANG MAI,เชียงใหม่,เชียงใหม่,18.79000,98.97694,30.5,10-10-2019,19:00:00,63,22.6,1008.62,000,974.55,0.0,12.00,34.5,0.00,27.41,0.00
48328,LAMPANG,ลำปาง,ลำปาง,18.28333,99.51667,29.3,10-10-2019,19:00:00,72,23.8,1010.38,000,983.03,0.0,10.00,34.8,0.00,29.49,0.00
48329,LAMPHUN,ลำพูน,ลำพูน,18.56722,99.03389,29.5,10-10-2019,19:00:00,70,23.4,1009.11,000,975.85,0.0,10.00,34.6,0.00,28.78,0.00
48330,PHRAE,แพร่,แพร่,18.16667,100.16667,29.0,10-10-2019,19:00:00,71,23.2,1008.89,270,990.50,1.9,8.00,35.0,0.00,28.37,0.00
48331,NAN,น่าน,น่าน,18.77972,100.77778,30.2,10-10-2019,19:00:00,70,24.2,1009.08,000,986.50,0.0,10.00,35.1,0.00,30.14,0.00
48333,NAN AGROMET.,น่าน สกษ.,น่าน,18.86667,100.75000,29.6,10-10-2019,19:00:00,74,24.4,1009.29,000,979.66,0.0,10.00,35.0,0.00,30.63,0.00
48334,LAMPANG AGROMET.,ลำปาง สกษ.,ลำปาง,18.31667,99.28333,27.2,10-10-2019,19:00:00,79,23.2,1009.58,000,974.11,0.0,8.00,33.0,0.00,28.51,0.00
48350,LOEI AGROMET.,เลย สกษ.,เลย,17.40000,101.73333,26.1,10-10-2019,19:00:00,90,24.4,1009.65,140,979.84,3.7,13.00,33.1,1.80,30.48,0.00
48351,UTTARADIT,อุตรดิตถ์,อุตรดิตถ์,17.61667,100.10000,31.1,10-10-2019,19:00:00,69,24.7,1009.05,000,1001.83,0.0,9.00,36.6,0.00,31.10,0.00
48352,NONG KHAI,หนองคาย,หนองคาย,17.86717,102.73303,30.5,10-10-2019,19:00:00,72,24.8,1009.22,100,989.52,3.7,6.00,34.5,0.00,31.31,0.00
48353,LOEI,เลย,เลย,17.45000,101.73333,27.5,10-10-2019,19:00:00,79,23.6,1010.10,000,981.44,0.0,12.00,33.5,0.50,29.06,0.00
48354,UDON THANI,อุดรธานี,อุดรธานี,17.38333,102.80000,29.5,10-10-2019,19:00:00,68,22.9,1009.69,000,989.65,0.0,12.00,34.0,0.00,27.96,0.00
48355,SAKON NAKHON AGROMET.,สกลนคร สกษ.,สกลนคร,17.12503,104.06100,28.0,10-10-2019,19:00:00,81,24.4,1009.86,000,988.16,0.0,12.00,33.7,0.00,30.56,0.00
48356,SAKON NAKHON,สกลนคร,สกลนคร,17.15000,104.13333,29.6,10-10-2019,19:00:00,69,23.2,1009.56,000,990.21,0.0,13.00,33.0,0.00,28.42,0.00
48357,NAKHON PHANOM,นครพนม,นครพนม,17.41083,104.78250,29.6,10-10-2019,19:00:00,70,23.5,1010.01,090,993.37,3.7,10.00,33.9,0.00,28.97,0.00
48358,NAKHON PHANOM AGROMET.,นครพนม สกษ.,นครพนม,17.44306,104.77361,29.1,10-10-2019,19:00:00,74,23.9,1010.20,000,992.87,0.0,10.00,33.8,0.00,29.65,0.00
48360,NONG BUA LAM PHU,หนองบัวลำภู,หนองบัวลำภู,17.23250,102.42944,29.0,10-10-2019,19:00:00,74,23.9,1008.74,000,983.10,0.0,10.00,34.0,0.00,29.74,0.00
48372,SUKHOTHAI*,สุโขทัย,สุโขทัย,17.10611,99.80000,30.5,10-10-2019,19:00:00,78,26.3,1008.75,120,1003.02,3.7,10.00,35.0,0.00,34.22,0.00
48373,SI SAMRONG AGROMET.,ศรีสำโรง สกษ.,สุโขทัย,17.16136,99.86167,30.5,10-10-2019,19:00:00,75,25.6,1009.00,000,1002.87,0.0,7.00,34.8,0.00,32.75,0.00
48374,LOM SAK,หล่มสัก,เพชรบูรณ์,16.77361,101.24944,27.8,10-10-2019,19:00:00,81,24.2,1010.67,000,994.22,0.0,10.00,34.7,1.30,30.17,0.00
48375,MAE SOT,แม่สอด,ตาก,16.65917,98.55083,27.5,10-10-2019,19:00:00,73,22.3,1008.11,090,985.81,7.4,8.00,34.5,0.00,26.95,0.00
48376,TAK,ตาก,ตาก,16.87833,99.14333,29.7,10-10-2019,19:00:00,82,26.2,1009.62,240,995.33,3.7,7.00,34.2,0.00,34.00,0.00
48377,BHUMIBOL DAM,เขื่อนภูมิพล,ตาก,17.24389,99.00250,28.6,10-10-2019,19:00:00,77,24.1,1009.15,000,992.83,0.0,8.00,34.1,0.00,30.07,0.00
48378,PHITSANULOK,พิษณุโลก,พิษณุโลก,16.79481,100.27930,30.0,10-10-2019,19:00:00,78,25.8,1009.71,000,1004.52,0.0,10.00,34.1,0.00,33.17,0.00
48379,PHETCHABUN,เพชรบูรณ์,เพชรบูรณ์,16.43333,101.15000,27.0,10-10-2019,19:00:00,88,24.8,1008.21,000,995.00,0.0,10.00,34.5,11.80,31.38,0.00
48380,KAMPHAENG PHET,กำแพงเพชร,กำแพงเพชร,16.48681,99.52697,30.8,10-10-2019,19:00:00,73,25.4,1009.29,000,1000.06,0.0,10.00,34.5,0.00,32.51,0.00
48381,KHON KAEN,ขอนแก่น,ขอนแก่น,16.46111,102.78972,29.5,10-10-2019,19:00:00,74,24.3,1009.58,000,988.03,0.0,10.00,34.4,0.00,30.44,0.00
48382,MAHASARAKHAM,มหาสารคาม,มหาสารคาม,16.24722,103.06805,29.5,10-10-2019,19:00:00,78,25.2,1009.64,000,992.24,0.0,12.00,34.5,0.00,32.13,0.00
48383,MUKDAHAN,มุกดาหาร,มุกดาหาร,16.54139,104.72889,30.1,10-10-2019,19:00:00,70,24.1,1008.89,000,993.19,0.0,10.00,34.0,0.00,29.94,0.00
48384,THA PHRA AGROMET.,ท่าพระ สกษ.,ขอนแก่น,16.33333,102.81667,28.4,10-10-2019,19:00:00,79,24.4,1008.71,000,989.88,0.0,8.00,34.0,0.01,30.51,0.00
48385,UMPHANG,อุ้มผาง,ตาก,16.02472,98.86444,23.2,10-10-2019,19:00:00,91,21.7,1011.83,000,959.95,0.0,6.00,33.2,37.90,25.92,37.90
48386,PICHIT AGROMET.,พิจิตร สกษ.,พิจิตร,16.43806,100.29250,29.0,10-10-2019,19:00:00,83,25.8,1009.00,110,1005.06,7.4,9.00,33.9,0.10,33.12,0.00
48387,DOI MU SOE AGROMET.,ดอยมูเซอร์ สกษ.,ตาก,16.75000,98.93333,23.2,10-10-2019,19:00:00,90,21.4,1010.21,000,915.33,0.0,8.00,27.9,0.00,25.44,0.00
48390,KALASIN,กาฬสินธุ์,กาฬสินธุ์,16.33250,103.58833,29.0,10-10-2019,19:00:00,81,25.5,1009.49,000,993.57,0.0,10.00,33.7,0.00,32.55,0.00
48400,NAKHON SAWAN,นครสวรรค์ ,นครสวรรค์,15.67183,100.13236,28.5,10-10-2019,19:00:00,83,25.2,1009.48,080,1005.46,5.6,9.00,33.6,12.90,32.10,0.00
48401,TAKFA AGROMET.,ตากฟ้า สกษ.,นครสวรรค์,15.34944,100.53028,28.0,10-10-2019,19:00:00,81,24.4,1010.18,050,999.51,5.6,8.00,33.4,0.00,30.56,0.00
48402,CHAINAT AGROMET.,ชัยนาท สกษ.,ชัยนาท,15.15000,100.18333,29.0,10-10-2019,19:00:00,81,25.5,1009.34,030,1007.42,3.7,10.00,34.4,0.00,32.55,0.00
48403,CHAIYAPHUM,ชัยภูมิ,ชัยภูมิ,15.80000,102.03333,27.1,10-10-2019,19:00:00,80,23.3,1009.91,000,989.00,0.0,10.00,34.2,0.00,28.59,0.00
48404,ROI ET AGROMET.,ร้อยเอ็ด สกษ.,ร้อยเอ็ด,16.07322,103.60844,29.3,10-10-2019,19:00:00,86,26.8,1009.12,000,991.56,0.0,10.00,32.9,0.00,35.21,0.00
48405,ROI ET,ร้อยเอ็ด,ร้อยเอ็ด,16.02000,103.74389,30.5,10-10-2019,19:00:00,68,24.0,1008.88,000,992.88,0.0,10.00,33.4,0.00,29.89,0.00
48407,UBON RATCHATHANI,อุบลราชธานี (ศูนย์ฯ),อุบลราชธานี,15.25000,104.86667,28.9,10-10-2019,19:00:00,72,23.4,1009.54,000,995.56,0.0,10.00,33.7,0.00,28.72,0.00
48408,UBON RATCHATHANI AGROMET.,อุบลราชธานี สกษ.,อุบลราชธานี,15.23914,105.02350,26.6,10-10-2019,19:00:00,82,23.2,1010.13,000,995.24,0.0,9.00,34.0,0.00,28.47,0.00
48409,SI SAKET AGROMET.,ศรีสะเกษ,ศรีสะเกษ,15.00000,104.05000,27.1,10-10-2019,19:00:00,91,25.5,1010.86,000,996.14,0.0,7.00,33.0,3.10,32.69,0.10
48410,UTHAITHANI,อุทัยธานี,อุทัยธานี,15.37417,100.03889,29.8,10-10-2019,19:00:00,82,26.3,1009.10,"{'0': '   ', '@attributes': {'Unit': 'degree'}}",1006.10,0.0,9.00,33.8,0.00,34.21,0.00
48413,WICHIAN BURI,วิเชียรบุรี,เพชรบูรณ์,15.65700,101.10800,26.0,10-10-2019,19:00:00,86,23.5,1009.60,000,1001.60,0.0,10.00,31.7,0.20,28.97,0.00
48415,AYUTTHAYA,พระนครศรีอยุธยา,พระนครศรีอยุธยา,14.53472,100.72500,28.6,10-10-2019,19:00:00,86,26.1,1009.82,000,1008.72,0.0,9.00,35.0,0.00,33.74,0.00
48416,THA TUM,ท่าตูม,สุรินทร์,15.31667,103.68333,27.0,10-10-2019,19:00:00,70,21.0,1010.61,000,995.87,0.0,8.00,33.2,0.00,24.79,0.00
48417,NAKORNNAYOK,นครนายก,นครนายก,14.36222,101.39278,19.7,10-10-2019,19:00:00,91,18.2,1011.44,160,875.94,1.9,8.00,24.8,19.80,20.94,0.00
48418,BUA CHUM,บัวชุม  ,ลพบุรี,15.26667,101.18736,25.5,10-10-2019,19:00:00,94,24.5,1009.64,310,1003.72,3.7,8.00,33.6,2.90,30.71,2.60
48419,PATHUMTHANI,ปทุมธานี สกษ.,ปทุมธานี,14.10000,100.61667,31.0,10-10-2019,19:00:00,74,25.8,1009.05,000,1008.26,0.0,9.00,36.7,0.00,33.22,0.00
48420,Samut Prakarn,สมุทรปราการ สกษ.,สมุทรปราการ,13.51667,100.76167,29.0,10-10-2019,19:00:00,75,24.1,1009.19,120,1008.74,7.4,8.00,33.5,0.00,30.01,0.00
48421,THONG PHAPHUM,ทองผาภูมิ,กาญจนบุรี,14.74222,98.63639,25.6,10-10-2019,19:00:00,93,24.4,1011.16,000,999.76,0.0,5.00,35.2,5.50,30.63,5.00
48425,SUPHAN BURI,สุพรรณบุรี,สุพรรณบุรี,14.47444,100.13889,31.7,10-10-2019,19:00:00,65,24.4,1009.33,000,1008.33,0.0,10.00,35.5,0.00,30.61,0.00
48426,LOP BURI,ลพบุรี,ลพบุรี,14.79972,100.64500,28.6,10-10-2019,19:00:00,76,24.0,1009.18,140,1007.36,3.7,7.00,34.2,0.00,29.79,0.00
48427,U THONG AGROMET.,อู่ทอง สกษ.,สุพรรณบุรี,14.30361,99.86472,30.3,10-10-2019,19:00:00,74,25.0,1009.10,000,1008.35,0.0,10.00,35.0,0.00,31.76,0.00
48429,SUVARNABHUMI AIRPORT,สนามบินสุวรรณภูมิ,สมุทรปราการ,13.68639,100.76750,25.3,10-10-2019,19:00:00,93,24.1,1009.71,000,1009.00,0.0,8.00,34.6,11.00,30.07,11.00
48430,PRACHIN BURI,ปราจีนบุรี,ปราจีนบุรี,14.05842,101.36930,29.1,10-10-2019,19:00:00,74,23.9,1008.86,130,1008.16,3.7,10.00,34.2,0.00,29.65,0.00
48431,NAKHON RATCHASIMA,นครราชสีมา,นครราชสีมา,14.96830,102.08603,26.2,10-10-2019,19:00:00,93,25.0,1009.81,000,988.54,0.0,8.00,32.0,45.90,31.76,0.00
48432,SURIN,สุรินทร์,สุรินทร์,14.88333,103.50000,26.8,10-10-2019,19:00:00,86,24.2,1009.84,000,993.07,0.0,7.00,33.0,0.01,30.18,0.00
48433,SURIN AGROMET.,สุรินทร์ สกษ.,สุรินทร์,14.88333,103.45000,26.5,10-10-2019,19:00:00,92,25.1,1010.04,000,993.53,0.0,8.00,33.7,0.60,31.79,0.60
48434,CHOK CHAI,โชคชัย,นครราชสีมา,14.71889,102.16861,26.7,10-10-2019,19:00:00,90,24.8,1009.40,000,987.47,0.0,6.00,30.3,14.00,31.35,0.00
48435,PAKCHONG AGROMET.,ปากช่อง สกษ.,นครราชสีมา,14.64389,101.33194,23.5,10-10-2019,19:00:00,94,22.4,1010.52,100,966.64,7.4,7.00,31.8,1.00,27.16,0.00
48436,NANG RONG,นางรอง,บุรีรัมย์,14.58333,102.80000,27.0,10-10-2019,19:00:00,86,24.4,1009.43,000,988.83,0.0,10.00,32.4,0.00,30.56,0.00
48437,BURIRUM,บุรีรัมย์,บุรีรัมย์,15.22575,103.24808,25.9,10-10-2019,19:00:00,97,25.3,1011.28,190,990.30,9.3,9.00,33.0,0.00,32.29,0.00
48438,SAMUTSONGKRAM,สมุทรสงคราม,สมุทรสงคราม,13.40778,100.03222,30.5,10-10-2019,19:00:00,77,26.0,1009.06,"{'0': '   ', '@attributes': {'Unit': 'degree'}}",1008.63,0.0,10.00,32.0,36.60,33.63,0.00
48439,KABIN BURI,กบินทร์บุรี,ปราจีนบุรี,13.98333,101.70722,27.4,10-10-2019,19:00:00,85,24.7,1009.27,000,1007.86,0.0,8.00,33.1,0.00,31.05,0.00
48440,SA KAEW,สระแก้ว,สระแก้ว,13.78889,102.03472,27.2,10-10-2019,19:00:00,94,26.1,1009.14,000,1004.20,0.0,7.00,33.2,0.00,33.74,0.00
48450,KANCHANA BURI,กาญจนบุรี,กาญจนบุรี,14.02250,99.53583,29.5,10-10-2019,19:00:00,81,26.0,1009.23,000,1005.96,0.0,9.00,34.0,63.90,33.58,0.10
48451,NAKHONPATHOM,นครปฐม,นครปฐม,14.01167,99.97000,30.5,10-10-2019,19:00:00,77,26.0,1009.21,000,1008.12,0.0,10.00,34.6,0.00,33.63,0.00
48453,BANG NA AGROMET.,กรุงเทพฯ บางนา สกษ.,กรุงเทพมหานคร,13.66639,100.60611,28.6,10-10-2019,19:00:00,78,24.3,1009.34,000,1009.04,0.0,8.00,34.4,7.10,30.34,0.01
48454,BANGKOK PORT (KLONG TOEI),กรุงเทพฯ ท่าเรือคลองเตย,กรุงเทพมหานคร,13.70694,100.56805,27.0,10-10-2019,19:00:00,88,24.8,1009.34,000,1008.65,0.0,8.00,33.0,24.80,31.38,0.00
48455,BANGKOK METROPOLIS,กรุงเทพมหานคร,กรุงเทพมหานคร,13.72639,100.56000,27.5,10-10-2019,19:00:00,89,25.5,1008.88,120,1008.39,3.7,8.00,35.7,26.60,32.64,0.00
48456,DON MUANG AIRPORT,สนามบินดอนเมือง,กรุงเทพมหานคร,13.91917,100.60500,28.6,10-10-2019,19:00:00,75,23.8,1009.27,140,1007.87,14.8,8.00,34.0,0.00,29.52,0.00
48457,PILOT STATION,นำร่อง,สมุทรปราการ,13.39389,100.59944,30.0,10-10-2019,19:00:00,75,25.0,1009.50,170,1007.84,16.7,8.00,32.2,0.00,31.72,0.00
48458,CHACHOENGSAO,ฉะเชิงเทรา,ฉะเชิงเทรา,13.51556,101.45833,26.4,10-10-2019,19:00:00,85,23.6,1010.85,180,1002.80,1.9,10.00,33.3,0.00,29.17,0.00
48459,CHON BURI,ชลบุรี,ชลบุรี,13.36667,100.98333,27.7,10-10-2019,19:00:00,87,25.3,1009.15,000,1008.86,0.0,4.00,33.7,5.80,32.20,0.00
48460,KO SICHANG,เกาะสีชัง,ชลบุรี,13.16167,100.80194,27.7,10-10-2019,19:00:00,87,25.3,1009.34,300,1006.21,5.6,10.00,33.1,0.00,32.20,0.00
48461,PHATTHAYA,พัทยา,ชลบุรี,12.92000,100.86944,28.3,10-10-2019,19:00:00,82,25.0,1009.12,000,1002.19,0.0,6.00,31.7,0.00,31.70,0.00
48462,ARANYA PRATHET,อรัญประเทศ,สระแก้ว,13.70000,102.58333,28.6,10-10-2019,19:00:00,78,24.3,1009.32,000,1003.74,0.0,10.00,31.1,0.01,30.34,0.00
48463,LAEM CHABANG,แหลมฉบัง,ชลบุรี,13.07694,100.87583,26.5,10-10-2019,19:00:00,87,24.2,1010.29,130,1000.93,13.0,3.00,34.0,0.00,30.16,0.00
48464,RATCHA BURI,ราชบุรี,ราชบุรี,13.48931,99.79239,29.0,10-10-2019,19:00:00,84,26.0,1010.07,000,1008.81,0.0,8.00,33.7,0.01,33.70,0.00
48465,PHETCHA BURI,เพชรบุรี,เพชรบุรี,12.99944,100.06056,30.2,10-10-2019,19:00:00,76,25.4,1009.47,180,1009.04,5.6,11.00,34.4,0.00,32.42,0.00
48474,NONG PHLUB AGROMET.,หนองพลับ สกษ.,ประจวบคีรีขันธ์,12.58333,99.73333,27.5,10-10-2019,19:00:00,84,24.6,1009.48,000,997.21,0.0,8.00,32.8,0.00,30.97,0.00
48475,HUA HIN,หัวหิน,ประจวบคีรีขันธ์,12.58611,99.96250,29.0,10-10-2019,19:00:00,82,25.6,1009.50,000,1008.79,0.0,7.00,31.2,0.00,32.83,0.00
48477,SATTAHIP,สัตหีบ,ชลบุรี,12.68333,100.98333,27.7,10-10-2019,19:00:00,86,25.1,1009.90,000,1007.47,0.0,6.00,33.3,6.30,31.92,0.00
48478,RAYONG,ระยอง,ระยอง,12.63222,101.34361,27.0,10-10-2019,19:00:00,92,25.6,1009.96,000,1009.44,0.0,8.00,32.0,0.50,32.77,0.50
48479,HUAI PONG AGROMET.,ห้วยโป่ง สกษ.,ระยอง,12.73333,101.13333,25.9,10-10-2019,19:00:00,91,24.3,1009.01,000,1003.83,0.0,8.00,33.1,1.50,30.38,1.50
48480,CHANTHA BURI,จันทบุรี,จันทบุรี,12.61667,102.11333,27.5,10-10-2019,19:00:00,88,25.4,1009.57,000,1009.15,0.0,7.00,31.7,0.30,32.36,0.00
48481,PHLIU  AGROMET.,พลิ้ว สกษ.,จันทบุรี,12.50861,102.17305,27.0,10-10-2019,19:00:00,90,25.1,1009.58,000,1006.80,0.0,8.00,31.3,3.20,31.94,0.00
48500,PRACHUAP KHIRIKHAN,ประจวบคีรีขันธ์,ประจวบคีรีขันธ์,11.83333,99.83333,28.9,10-10-2019,19:00:00,77,24.5,1009.33,000,1008.55,0.0,10.00,32.5,0.00,30.65,0.00
48501,TRAD,ตราด,ตราด,11.76667,102.88333,24.7,10-10-2019,19:00:00,95,23.8,1009.77,000,1009.30,0.0,6.00,33.3,16.90,29.51,0.70
48517,CHUMPHON,ชุมพร,ชุมพร,10.49875,99.18847,27.1,10-10-2019,19:00:00,78,23.0,1009.83,000,1009.15,0.0,8.00,32.3,0.00,28.06,0.00
48520,SAWI AGROMET.,สวี สกษ.,ชุมพร,10.33333,99.10000,27.8,10-10-2019,19:00:00,80,24.0,1009.28,000,1007.76,0.0,7.00,32.2,0.40,29.90,0.00
48532,RANONG,ระนอง,ระนอง,9.98333,98.61667,26.6,10-10-2019,19:00:00,90,24.7,1010.57,020,1009.65,3.7,10.00,30.8,11.70,31.16,0.00
48550,KO SAMUI,เกาะสมุย,สุราษฎร์ธานี,9.46667,100.05000,26.7,10-10-2019,19:00:00,86,24.2,1010.13,000,1009.44,0.0,10.00,29.8,5.40,30.26,0.00
48551,SURAT THANI,สุราษฎร์ธานี,สุราษฎร์ธานี,9.13556,99.15194,27.0,10-10-2019,19:00:00,96,26.3,1009.94,000,1009.14,0.0,8.00,32.5,0.01,34.19,0.00
48552,NAKHONSI THAMMARAT,นครศรีธรรมราช,นครศรีธรรมราช,8.53778,99.96389,28.2,10-10-2019,19:00:00,83,25.1,1009.99,000,1009.36,0.0,10.00,32.9,0.00,31.79,0.00
48554,NAKHONSI THAMMARAT AGROMET.,นครศรีธรรมราช สกษ.,นครศรีธรรมราช,8.35931,100.00000,27.3,10-10-2019,19:00:00,92,25.9,1010.98,000,1010.57,0.0,10.00,32.5,0.30,33.38,0.00
48555,SURAT THANI AGROMET.,สุราษฎร์ธานี สกษ.,สุราษฎร์ธานี,9.10000,99.63333,26.3,10-10-2019,19:00:00,93,25.0,1011.55,000,1007.31,0.0,5.00,30.3,2.40,31.68,0.00
48556,PHRA SANG,พระแสง สอท.,สุราษฎร์ธานี,8.57022,99.25825,28.0,10-10-2019,19:00:00,85,25.1,1010.30,000,1008.69,0.0,10.00,31.6,0.00,31.95,0.00
48557,CHAWANG,ฉวาง,นครศรีธรรมราช,8.43194,99.51194,25.5,10-10-2019,19:00:00,92,24.0,1010.68,000,1007.17,0.0,10.00,33.5,1.40,29.91,0.00
48560,PHATTHALUNG AGROMET.,พัทลุง สกษ.,พัทลุง,7.58333,100.16667,26.5,10-10-2019,19:00:00,93,25.2,1010.49,030,1009.13,7.4,6.00,33.0,0.30,32.07,0.30
48561,TAKUA PA,ตะกั่วป่า,พังงา,8.68417,98.25222,25.0,10-10-2019,19:00:00,96,24.3,1010.15,000,1009.26,0.0,10.00,31.8,4.90,30.32,3.00
48563,KRABI,กระบี่,กระบี่,8.10361,98.97528,24.8,10-10-2019,19:00:00,93,23.6,1010.66,150,1007.07,9.3,8.00,32.3,5.20,29.19,5.20
48564,PHUKET,ภูเก็ต,ภูเก็ต,7.88333,98.40000,28.6,10-10-2019,19:00:00,79,24.6,1009.92,000,1009.48,0.0,10.00,32.3,63.40,30.90,0.00
48565,PHUKET AIRPORT,ภูเก็ต (ศูนย์ฯ),ภูเก็ต,8.14500,98.31444,27.1,10-10-2019,19:00:00,87,24.8,1009.67,000,1008.67,0.0,8.00,32.0,3.70,31.30,0.01
48566,KO LANTA,เกาะลันตา,กระบี่,7.53333,99.05000,26.6,10-10-2019,19:00:00,80,22.8,1010.75,060,1009.93,7.4,10.00,31.5,1.20,27.69,0.00
48567,TRANG AIRPORT,ตรัง,ตรัง,7.51667,99.61667,26.5,10-10-2019,19:00:00,92,25.1,1010.81,000,1008.99,0.0,12.00,33.0,6.40,31.79,0.00
48568,SONGKHLA,สงขลา,สงขลา,7.18211,100.60769,26.2,10-10-2019,19:00:00,80,22.5,1011.20,200,1010.44,3.7,10.00,32.9,0.00,27.23,0.00
48569,HAT YAI AIRPORT,หาดใหญ่,สงขลา,6.91667,100.43333,23.6,10-10-2019,19:00:00,99,23.4,1011.66,120,1007.60,7.4,6.00,34.8,43.20,28.85,13.80
48570,SATUN,สตูล,สตูล,6.65000,100.08333,26.0,10-10-2019,19:00:00,88,23.8,1010.84,000,1010.16,0.0,10.00,31.5,0.10,29.50,0.00
48571,KHO HONG AGROMET.,คอหงษ์ สกษ.,สงขลา,7.00000,100.50000,23.2,10-10-2019,19:00:00,96,22.6,1009.38,000,1008.24,0.0,10.00,33.4,25.20,27.41,1.60
48574,SA DAO,สะเดา,สงขลา,6.79806,100.39056,24.3,10-10-2019,19:00:00,97,23.9,1011.76,180,1008.80,5.6,7.00,34.2,38.10,29.57,13.10
48580,PATTANI AIRPORT,ปัตตานี,ปัตตานี,6.78333,101.15000,24.7,10-10-2019,19:00:00,95,23.8,1011.85,000,1011.16,0.0,8.00,32.4,6.20,29.51,1.20
48581,YALA AGROMET.,ยะลา สกษ.,ยะลา,6.51667,101.28333,23.0,10-10-2019,19:00:00,96,22.4,1012.36,250,1008.16,5.6,6.00,32.6,45.60,27.07,45.60
48583,NARATHIWAT,นราธิวาส,นราธิวาส,6.41667,101.81667,26.5,10-10-2019,19:00:00,77,22.0,1010.94,240,1010.35,13.0,10.00,31.2,0.00,26.47,0.00
